{"type":"FeatureCollection","generator":"metroOsmFetch (OpenStreetMap / Overpass, ODbL)","features":[{"type":"Feature","properties":{"route_company":"Lahore Metro","route_id":"O","element_type":"way","color":"#f7943a","route_name":"Orange Line: Dera Gujran → Ali Town","osm_id":"11803498","railway":"subway","status":"open"},"geometry":{"type":"LineString","coordinates":[[74.431302,31.589738],[74.422835,31.588879],[74.413037,31.587907],[74.402434,31.586859],[74.389264,31.585329],[74.379729,31.583472],[74.370761,31.579462],[74.360722,31.577322],[74.350742,31.575802],[74.336131,31.572346],[74.327164,31.568688],[74.314238,31.565559],[74.309355,31.56248],[74.302876,31.552386],[74.295189,31.544973],[74.292753,31.53982],[74.287567,31.532297],[74.28326,31.524712],[74.277584,31.517458],[74.272797,31.510142],[74.26824,31.503345],[74.263304,31.494723],[74.25833,31.48634],[74.249172,31.480775],[74.24172,31.473629],[74.243826,31.464315]]}},{"type":"Feature","properties":{"osm_id":"8058806367","station_name":"ڈیرہ گجراں","element_type":"node","station_id":"8058806367"},"geometry":{"type":"Point","coordinates":[74.431302,31.589738]}},{"type":"Feature","properties":{"osm_id":"8058806363","station_name":"اسلام پارک","element_type":"node","station_id":"8058806363"},"geometry":{"type":"Point","coordinates":[74.422835,31.588879]}},{"type":"Feature","properties":{"osm_id":"7643521927","station_name":"سلامت پورہ","element_type":"node","station_id":"7643521927"},"geometry":{"type":"Point","coordinates":[74.413037,31.587907]}},{"type":"Feature","properties":{"osm_id":"7643521935","station_name":"محمود بوٹی","element_type":"node","station_id":"7643521935"},"geometry":{"type":"Point","coordinates":[74.402434,31.586859]}},{"type":"Feature","properties":{"osm_id":"7643521942","station_name":"پاکستان منٹ اسٹیشن","element_type":"node","station_id":"7643521942"},"geometry":{"type":"Point","coordinates":[74.389264,31.585329]}},{"type":"Feature","properties":{"osm_id":"7643521959","station_name":"شالا مار باغ اسٹیشن","element_type":"node","station_id":"7643521959"},"geometry":{"type":"Point","coordinates":[74.379729,31.583472]}},{"type":"Feature","properties":{"osm_id":"7643521979","station_name":"باغبان پورہ","element_type":"node","station_id":"7643521979"},"geometry":{"type":"Point","coordinates":[74.370761,31.579462]}},{"type":"Feature","properties":{"osm_id":"8058806346","station_name":"U.E.T","element_type":"node","station_id":"8058806346"},"geometry":{"type":"Point","coordinates":[74.360722,31.577322]}},{"type":"Feature","properties":{"osm_id":"7643522381","station_name":"Sultanpura","element_type":"node","station_id":"7643522381"},"geometry":{"type":"Point","coordinates":[74.350742,31.575802]}},{"type":"Feature","properties":{"osm_id":"8058806354","station_name":"Railway Station","element_type":"node","station_id":"8058806354"},"geometry":{"type":"Point","coordinates":[74.336131,31.572346]}},{"type":"Feature","properties":{"osm_id":"7643522041","station_name":"Lakshmi","element_type":"node","station_id":"7643522041"},"geometry":{"type":"Point","coordinates":[74.327164,31.568688]}},{"type":"Feature","properties":{"osm_id":"7643521893","station_name":"جی پی او","element_type":"node","station_id":"7643521893"},"geometry":{"type":"Point","coordinates":[74.314238,31.565559]}},{"type":"Feature","properties":{"osm_id":"7643521902","station_name":"Anarkali","element_type":"node","station_id":"7643521902"},"geometry":{"type":"Point","coordinates":[74.309355,31.56248]}},{"type":"Feature","properties":{"osm_id":"7643518181","station_name":"Chauburji","element_type":"node","station_id":"7643518181"},"geometry":{"type":"Point","coordinates":[74.302876,31.552386]}},{"type":"Feature","properties":{"osm_id":"8060376248","station_name":"گلشنِ راوی","element_type":"node","station_id":"8060376248"},"geometry":{"type":"Point","coordinates":[74.295189,31.544973]}},{"type":"Feature","properties":{"osm_id":"8060376237","station_name":"Samanabad","element_type":"node","station_id":"8060376237"},"geometry":{"type":"Point","coordinates":[74.292753,31.53982]}},{"type":"Feature","properties":{"osm_id":"7643521807","station_name":"Bund Road","element_type":"node","station_id":"7643521807"},"geometry":{"type":"Point","coordinates":[74.287567,31.532297]}},{"type":"Feature","properties":{"osm_id":"8060376247","station_name":"Salahudin Road","element_type":"node","station_id":"8060376247"},"geometry":{"type":"Point","coordinates":[74.28326,31.524712]}},{"type":"Feature","properties":{"osm_id":"8060376244","station_name":"Shahnoor","element_type":"node","station_id":"8060376244"},"geometry":{"type":"Point","coordinates":[74.277584,31.517458]}},{"type":"Feature","properties":{"osm_id":"7643521832","station_name":"Sabzazar","element_type":"node","station_id":"7643521832"},"geometry":{"type":"Point","coordinates":[74.272797,31.510142]}},{"type":"Feature","properties":{"osm_id":"8060376243","station_name":"Awan Town","element_type":"node","station_id":"8060376243"},"geometry":{"type":"Point","coordinates":[74.26824,31.503345]}},{"type":"Feature","properties":{"osm_id":"8060376241","station_name":"Wahdat Road","element_type":"node","station_id":"8060376241"},"geometry":{"type":"Point","coordinates":[74.263304,31.494723]}},{"type":"Feature","properties":{"osm_id":"7643521853","station_name":"Hanjarwal","element_type":"node","station_id":"7643521853"},"geometry":{"type":"Point","coordinates":[74.25833,31.48634]}},{"type":"Feature","properties":{"osm_id":"8058806364","station_name":"Canal View","element_type":"node","station_id":"8058806364"},"geometry":{"type":"Point","coordinates":[74.249172,31.480775]}},{"type":"Feature","properties":{"osm_id":"7643521871","station_name":"Thokar Niaz Baig","element_type":"node","station_id":"7643521871"},"geometry":{"type":"Point","coordinates":[74.24172,31.473629]}},{"type":"Feature","properties":{"osm_id":"7643518169","station_name":"Ali Town","element_type":"node","station_id":"7643518169"},"geometry":{"type":"Point","coordinates":[74.243826,31.464315]}}]}