{"type":"FeatureCollection","generator":"metroOsmFetch (OpenStreetMap / Overpass, ODbL)","features":[{"type":"Feature","properties":{"route_company":"Lahore Metro","route_id":"O","element_type":"way","color":"#f7943a","route_name":"Orange Line: Dera Gujran → Ali Town","osm_id":"11803498","railway":"subway"},"geometry":{"type":"LineString","coordinates":[[74.431305,31.589716],[74.422838,31.588858],[74.41304,31.587886],[74.402432,31.58684],[74.38927,31.585308],[74.379739,31.583453],[74.370771,31.579438],[74.360731,31.577301],[74.35075,31.575781],[74.336142,31.572325],[74.327171,31.568672],[74.314244,31.565538],[74.309374,31.562466],[74.302886,31.552369],[74.295211,31.544966],[74.292779,31.539821],[74.287593,31.532289],[74.283287,31.524711],[74.27761,31.517447],[74.272816,31.510128],[74.268264,31.503332],[74.263322,31.494715],[74.258339,31.48632],[74.249195,31.480758],[74.24175,31.473621],[74.243851,31.464317]]}},{"type":"Feature","properties":{"osm_id":"8058806367","station_name":"ڈیرہ گجراں","element_type":"node","station_id":"8058806367"},"geometry":{"type":"Point","coordinates":[74.431305,31.589716]}},{"type":"Feature","properties":{"osm_id":"8058806363","station_name":"اسلام پارک","element_type":"node","station_id":"8058806363"},"geometry":{"type":"Point","coordinates":[74.422838,31.588858]}},{"type":"Feature","properties":{"osm_id":"7643521927","station_name":"سلامت پورہ","element_type":"node","station_id":"7643521927"},"geometry":{"type":"Point","coordinates":[74.41304,31.587886]}},{"type":"Feature","properties":{"osm_id":"7643521935","station_name":"محمود بوٹی","element_type":"node","station_id":"7643521935"},"geometry":{"type":"Point","coordinates":[74.402432,31.58684]}},{"type":"Feature","properties":{"osm_id":"7643521942","station_name":"پاکستان منٹ اسٹیشن","element_type":"node","station_id":"7643521942"},"geometry":{"type":"Point","coordinates":[74.38927,31.585308]}},{"type":"Feature","properties":{"osm_id":"7643521959","station_name":"شالا مار باغ اسٹیشن","element_type":"node","station_id":"7643521959"},"geometry":{"type":"Point","coordinates":[74.379739,31.583453]}},{"type":"Feature","properties":{"osm_id":"7643521979","station_name":"باغبان پورہ","element_type":"node","station_id":"7643521979"},"geometry":{"type":"Point","coordinates":[74.370771,31.579438]}},{"type":"Feature","properties":{"osm_id":"8058806346","station_name":"U.E.T","element_type":"node","station_id":"8058806346"},"geometry":{"type":"Point","coordinates":[74.360731,31.577301]}},{"type":"Feature","properties":{"osm_id":"7643522381","station_name":"Sultanpura","element_type":"node","station_id":"7643522381"},"geometry":{"type":"Point","coordinates":[74.35075,31.575781]}},{"type":"Feature","properties":{"osm_id":"8058806354","station_name":"Railway Station","element_type":"node","station_id":"8058806354"},"geometry":{"type":"Point","coordinates":[74.336142,31.572325]}},{"type":"Feature","properties":{"osm_id":"7643522041","station_name":"Lakshmi","element_type":"node","station_id":"7643522041"},"geometry":{"type":"Point","coordinates":[74.327171,31.568672]}},{"type":"Feature","properties":{"osm_id":"7643521893","station_name":"جی پی او","element_type":"node","station_id":"7643521893"},"geometry":{"type":"Point","coordinates":[74.314244,31.565538]}},{"type":"Feature","properties":{"osm_id":"7643521902","station_name":"Anarkali","element_type":"node","station_id":"7643521902"},"geometry":{"type":"Point","coordinates":[74.309374,31.562466]}},{"type":"Feature","properties":{"osm_id":"7643518181","station_name":"Chauburji","element_type":"node","station_id":"7643518181"},"geometry":{"type":"Point","coordinates":[74.302886,31.552369]}},{"type":"Feature","properties":{"osm_id":"8060376248","station_name":"گلشنِ راوی","element_type":"node","station_id":"8060376248"},"geometry":{"type":"Point","coordinates":[74.295211,31.544966]}},{"type":"Feature","properties":{"osm_id":"8060376237","station_name":"Samanabad","element_type":"node","station_id":"8060376237"},"geometry":{"type":"Point","coordinates":[74.292779,31.539821]}},{"type":"Feature","properties":{"osm_id":"7643521807","station_name":"Bund Road","element_type":"node","station_id":"7643521807"},"geometry":{"type":"Point","coordinates":[74.287593,31.532289]}},{"type":"Feature","properties":{"osm_id":"8060376247","station_name":"Salahudin Road","element_type":"node","station_id":"8060376247"},"geometry":{"type":"Point","coordinates":[74.283287,31.524711]}},{"type":"Feature","properties":{"osm_id":"8060376244","station_name":"Shahnoor","element_type":"node","station_id":"8060376244"},"geometry":{"type":"Point","coordinates":[74.27761,31.517447]}},{"type":"Feature","properties":{"osm_id":"7643521832","station_name":"Sabzazar","element_type":"node","station_id":"7643521832"},"geometry":{"type":"Point","coordinates":[74.272816,31.510128]}},{"type":"Feature","properties":{"osm_id":"8060376243","station_name":"Awan Town","element_type":"node","station_id":"8060376243"},"geometry":{"type":"Point","coordinates":[74.268264,31.503332]}},{"type":"Feature","properties":{"osm_id":"8060376241","station_name":"Wahdat Road","element_type":"node","station_id":"8060376241"},"geometry":{"type":"Point","coordinates":[74.263322,31.494715]}},{"type":"Feature","properties":{"osm_id":"7643521853","station_name":"Hanjarwal","element_type":"node","station_id":"7643521853"},"geometry":{"type":"Point","coordinates":[74.258339,31.48632]}},{"type":"Feature","properties":{"osm_id":"8058806364","station_name":"Canal View","element_type":"node","station_id":"8058806364"},"geometry":{"type":"Point","coordinates":[74.249195,31.480758]}},{"type":"Feature","properties":{"osm_id":"7643521871","station_name":"Thokar Niaz Baig","element_type":"node","station_id":"7643521871"},"geometry":{"type":"Point","coordinates":[74.24175,31.473621]}},{"type":"Feature","properties":{"osm_id":"7643518169","station_name":"Ali Town","element_type":"node","station_id":"7643518169"},"geometry":{"type":"Point","coordinates":[74.243851,31.464317]}}]}