{"type":"FeatureCollection","generator":"metroOsmFetch (OpenStreetMap / Overpass, ODbL)","features":[{"type":"Feature","properties":{"route_company":"Indonesian Railway Company","route_id":"1","element_type":"way","color":"#e6194b","route_name":"LRT Palembang (DJKA -> Bandara)","osm_id":"9732461","railway":"light_rail","status":"open"},"geometry":{"type":"LineString","coordinates":[[104.790229,-3.031528],[104.784608,-3.023138],[104.772492,-3.005071],[104.76198,-2.989007],[104.756116,-2.980727],[104.748943,-2.978502],[104.744956,-2.977096],[104.735802,-2.964457],[104.735807,-2.956289],[104.73245,-2.947702],[104.724003,-2.940511],[104.711749,-2.919636],[104.705964,-2.894149]]}},{"type":"Feature","properties":{"osm_id":"8072001339","station_name":"DJKA","element_type":"node","station_id":"8072001339"},"geometry":{"type":"Point","coordinates":[104.790229,-3.031528]}},{"type":"Feature","properties":{"osm_id":"8072002037","station_name":"Jakabaring","element_type":"node","station_id":"8072002037"},"geometry":{"type":"Point","coordinates":[104.784608,-3.023138]}},{"type":"Feature","properties":{"osm_id":"8072001338","station_name":"Polresta","element_type":"node","station_id":"8072001338"},"geometry":{"type":"Point","coordinates":[104.772492,-3.005071]}},{"type":"Feature","properties":{"osm_id":"8072002035","station_name":"Ampera","element_type":"node","station_id":"8072002035"},"geometry":{"type":"Point","coordinates":[104.76198,-2.989007]}},{"type":"Feature","properties":{"osm_id":"8072001335","station_name":"Cinde","element_type":"node","station_id":"8072001335"},"geometry":{"type":"Point","coordinates":[104.756116,-2.980727]}},{"type":"Feature","properties":{"osm_id":"8072001226","station_name":"Dishub","element_type":"node","station_id":"8072001226"},"geometry":{"type":"Point","coordinates":[104.748943,-2.978502]}},{"type":"Feature","properties":{"osm_id":"8072002034","station_name":"Bumi Sriwijaya","element_type":"node","station_id":"8072002034"},"geometry":{"type":"Point","coordinates":[104.744956,-2.977096]}},{"type":"Feature","properties":{"osm_id":"8072002132","station_name":"Demang","element_type":"node","station_id":"8072002132"},"geometry":{"type":"Point","coordinates":[104.735802,-2.964457]}},{"type":"Feature","properties":{"osm_id":"8072001918","station_name":"Garuda Dempo","element_type":"node","station_id":"8072001918"},"geometry":{"type":"Point","coordinates":[104.735807,-2.956289]}},{"type":"Feature","properties":{"osm_id":"8072001334","station_name":"RSUD","element_type":"node","station_id":"8072001334"},"geometry":{"type":"Point","coordinates":[104.73245,-2.947702]}},{"type":"Feature","properties":{"osm_id":"8072001125","station_name":"Punti Kayu","element_type":"node","station_id":"8072001125"},"geometry":{"type":"Point","coordinates":[104.724003,-2.940511]}},{"type":"Feature","properties":{"osm_id":"8072002130","station_name":"Stasiun LRT Asrama Haji","element_type":"node","station_id":"8072002130"},"geometry":{"type":"Point","coordinates":[104.711749,-2.919636]}},{"type":"Feature","properties":{"osm_id":"8068427185","station_name":"Bandara","element_type":"node","station_id":"8068427185"},"geometry":{"type":"Point","coordinates":[104.705964,-2.894149]}}]}