{"type":"FeatureCollection","generator":"metroOsmFetch (OpenStreetMap / Overpass, ODbL)","features":[{"type":"Feature","properties":{"route_company":"Indonesian Railway Company","route_id":"1","element_type":"way","color":"#e6194b","route_name":"LRT Palembang (DJKA -> Bandara)","osm_id":"9732461","railway":"light_rail","status":"open"},"geometry":{"type":"LineString","coordinates":[[104.790214,-3.031537],[104.784593,-3.023147],[104.772476,-3.005078],[104.761965,-2.989016],[104.756101,-2.980736],[104.748954,-2.978516],[104.744946,-2.977111],[104.735786,-2.964449],[104.735794,-2.956292],[104.732435,-2.947708],[104.723997,-2.940525],[104.711731,-2.919635],[104.705957,-2.894165]]}},{"type":"Feature","properties":{"osm_id":"8072001339","station_name":"DJKA","element_type":"node","station_id":"8072001339"},"geometry":{"type":"Point","coordinates":[104.790214,-3.031537]}},{"type":"Feature","properties":{"osm_id":"8072002037","station_name":"Jakabaring","element_type":"node","station_id":"8072002037"},"geometry":{"type":"Point","coordinates":[104.784593,-3.023147]}},{"type":"Feature","properties":{"osm_id":"8072001338","station_name":"Polresta","element_type":"node","station_id":"8072001338"},"geometry":{"type":"Point","coordinates":[104.772476,-3.005078]}},{"type":"Feature","properties":{"osm_id":"8072002035","station_name":"Ampera","element_type":"node","station_id":"8072002035"},"geometry":{"type":"Point","coordinates":[104.761965,-2.989016]}},{"type":"Feature","properties":{"osm_id":"8072001335","station_name":"Cinde","element_type":"node","station_id":"8072001335"},"geometry":{"type":"Point","coordinates":[104.756101,-2.980736]}},{"type":"Feature","properties":{"osm_id":"8072001226","station_name":"Dishub","element_type":"node","station_id":"8072001226"},"geometry":{"type":"Point","coordinates":[104.748954,-2.978516]}},{"type":"Feature","properties":{"osm_id":"8072002034","station_name":"Bumi Sriwijaya","element_type":"node","station_id":"8072002034"},"geometry":{"type":"Point","coordinates":[104.744946,-2.977111]}},{"type":"Feature","properties":{"osm_id":"8072002132","station_name":"Demang","element_type":"node","station_id":"8072002132"},"geometry":{"type":"Point","coordinates":[104.735786,-2.964449]}},{"type":"Feature","properties":{"osm_id":"8072001918","station_name":"Garuda Dempo","element_type":"node","station_id":"8072001918"},"geometry":{"type":"Point","coordinates":[104.735794,-2.956292]}},{"type":"Feature","properties":{"osm_id":"8072001334","station_name":"RSUD","element_type":"node","station_id":"8072001334"},"geometry":{"type":"Point","coordinates":[104.732435,-2.947708]}},{"type":"Feature","properties":{"osm_id":"8072001125","station_name":"Punti Kayu","element_type":"node","station_id":"8072001125"},"geometry":{"type":"Point","coordinates":[104.723997,-2.940525]}},{"type":"Feature","properties":{"osm_id":"8072002130","station_name":"Stasiun LRT Asrama Haji","element_type":"node","station_id":"8072002130"},"geometry":{"type":"Point","coordinates":[104.711731,-2.919635]}},{"type":"Feature","properties":{"osm_id":"8068427185","station_name":"Bandara","element_type":"node","station_id":"8068427185"},"geometry":{"type":"Point","coordinates":[104.705957,-2.894165]}}]}