{"type":"FeatureCollection","generator":"metroOsmFetch (OpenStreetMap / Overpass, ODbL)","features":[{"type":"Feature","properties":{"route_company":"City Transportation Systems","route_id":"LRT","element_type":"way","color":"#7ae7b4","route_name":"Astana LRT: Нұрлы Жол → Аэропорт","osm_id":"19988457","railway":"light_rail"},"geometry":{"type":"LineString","coordinates":[[71.528986,51.112141],[71.516219,51.10954],[71.498305,51.112353],[71.48121,51.115022],[71.468391,51.117033],[71.437586,51.122236],[71.42872,51.123303],[71.413101,51.122041],[71.41157,51.114558],[71.408994,51.106158],[71.406788,51.099957],[71.402766,51.088779],[71.400043,51.08114],[71.397894,51.075135],[71.41868,51.055891],[71.429839,51.049017],[71.442181,51.041298],[71.458706,51.027946]]}},{"type":"Feature","properties":{"osm_id":"13081694266","station_name":"Нұрлы Жол","element_type":"node","station_id":"13081694266"},"geometry":{"type":"Point","coordinates":[71.528986,51.112141]}},{"type":"Feature","properties":{"osm_id":"13081694265","station_name":"Жібек Жолы","element_type":"node","station_id":"13081694265"},"geometry":{"type":"Point","coordinates":[71.516219,51.10954]}},{"type":"Feature","properties":{"osm_id":"13081694264","station_name":"Мыңжылдық Аллеясы","element_type":"node","station_id":"13081694264"},"geometry":{"type":"Point","coordinates":[71.498305,51.112353]}},{"type":"Feature","properties":{"osm_id":"13081694263","station_name":"Театр","element_type":"node","station_id":"13081694263"},"geometry":{"type":"Point","coordinates":[71.48121,51.115022]}},{"type":"Feature","properties":{"osm_id":"13081694262","station_name":"Ұлттық Мұражай","element_type":"node","station_id":"13081694262"},"geometry":{"type":"Point","coordinates":[71.468391,51.117033]}},{"type":"Feature","properties":{"osm_id":"13081694261","station_name":"Министрліктер Үйі","element_type":"node","station_id":"13081694261"},"geometry":{"type":"Point","coordinates":[71.437586,51.122236]}},{"type":"Feature","properties":{"osm_id":"13081694260","station_name":"Бәйтерек","element_type":"node","station_id":"13081694260"},"geometry":{"type":"Point","coordinates":[71.42872,51.123303]}},{"type":"Feature","properties":{"osm_id":"13081694259","station_name":"Сығанақ","element_type":"node","station_id":"13081694259"},"geometry":{"type":"Point","coordinates":[71.413101,51.122041]}},{"type":"Feature","properties":{"osm_id":"13081694258","station_name":"Жекпе Жек Сарайы","element_type":"node","station_id":"13081694258"},"geometry":{"type":"Point","coordinates":[71.41157,51.114558]}},{"type":"Feature","properties":{"osm_id":"13081694257","station_name":"Астана Арена","element_type":"node","station_id":"13081694257"},"geometry":{"type":"Point","coordinates":[71.408994,51.106158]}},{"type":"Feature","properties":{"osm_id":"13081694256","station_name":"Ұлы Дала","element_type":"node","station_id":"13081694256"},"geometry":{"type":"Point","coordinates":[71.406788,51.099957]}},{"type":"Feature","properties":{"osm_id":"13081694255","station_name":"Университет","element_type":"node","station_id":"13081694255"},"geometry":{"type":"Point","coordinates":[71.402766,51.088779]}},{"type":"Feature","properties":{"osm_id":"13609226009","station_name":"Нұра","element_type":"node","station_id":"13609226009"},"geometry":{"type":"Point","coordinates":[71.400043,51.08114]}},{"type":"Feature","properties":{"osm_id":"13081694253","station_name":"Астана Жұлдызы","element_type":"node","station_id":"13081694253"},"geometry":{"type":"Point","coordinates":[71.397894,51.075135]}},{"type":"Feature","properties":{"osm_id":"13081694252","station_name":"Мәңгілік Ел","element_type":"node","station_id":"13081694252"},"geometry":{"type":"Point","coordinates":[71.41868,51.055891]}},{"type":"Feature","properties":{"osm_id":"13609020686","station_name":"Есіл","element_type":"node","station_id":"13609020686"},"geometry":{"type":"Point","coordinates":[71.429839,51.049017]}},{"type":"Feature","properties":{"osm_id":"13609021226","station_name":"Атамекен","element_type":"node","station_id":"13609021226"},"geometry":{"type":"Point","coordinates":[71.442181,51.041298]}},{"type":"Feature","properties":{"osm_id":"13609021254","station_name":"Әуежай","element_type":"node","station_id":"13609021254"},"geometry":{"type":"Point","coordinates":[71.458706,51.027946]}}]}