{"type":"FeatureCollection","generator":"metroOsmFetch (OpenStreetMap / Overpass, ODbL)","features":[{"type":"Feature","properties":{"osm_id":"13081694266","station_name":"Нұрлы Жол","element_type":"node","station_id":"13081694266"},"geometry":{"type":"Point","coordinates":[71.52903,51.112134]}},{"type":"Feature","properties":{"osm_id":"13081694265","station_name":"Жібек Жолы","element_type":"node","station_id":"13081694265"},"geometry":{"type":"Point","coordinates":[71.516211,51.109519]}},{"type":"Feature","properties":{"osm_id":"13081694264","station_name":"Мыңжылдық Аллеясы","element_type":"node","station_id":"13081694264"},"geometry":{"type":"Point","coordinates":[71.498297,51.112334]}},{"type":"Feature","properties":{"osm_id":"13081694263","station_name":"Театр","element_type":"node","station_id":"13081694263"},"geometry":{"type":"Point","coordinates":[71.481202,51.115002]}},{"type":"Feature","properties":{"osm_id":"13081694262","station_name":"Ұлттық Мұражай","element_type":"node","station_id":"13081694262"},"geometry":{"type":"Point","coordinates":[71.468384,51.117009]}},{"type":"Feature","properties":{"osm_id":"13081694261","station_name":"Министрліктер Үйі","element_type":"node","station_id":"13081694261"},"geometry":{"type":"Point","coordinates":[71.43758,51.122216]}},{"type":"Feature","properties":{"osm_id":"13081694260","station_name":"Бәйтерек","element_type":"node","station_id":"13081694260"},"geometry":{"type":"Point","coordinates":[71.428714,51.123281]}},{"type":"Feature","properties":{"osm_id":"13081694259","station_name":"Сығанақ","element_type":"node","station_id":"13081694259"},"geometry":{"type":"Point","coordinates":[71.413128,51.122039]}},{"type":"Feature","properties":{"osm_id":"13081694258","station_name":"Жекпе Жек Сарайы","element_type":"node","station_id":"13081694258"},"geometry":{"type":"Point","coordinates":[71.411596,51.114558]}},{"type":"Feature","properties":{"osm_id":"13081694257","station_name":"Астана Арена","element_type":"node","station_id":"13081694257"},"geometry":{"type":"Point","coordinates":[71.409026,51.106154]}},{"type":"Feature","properties":{"osm_id":"13081694256","station_name":"Ұлы Дала","element_type":"node","station_id":"13081694256"},"geometry":{"type":"Point","coordinates":[71.406819,51.099954]}},{"type":"Feature","properties":{"osm_id":"13081694255","station_name":"Университет","element_type":"node","station_id":"13081694255"},"geometry":{"type":"Point","coordinates":[71.402792,51.088777]}},{"type":"Feature","properties":{"osm_id":"13609226009","station_name":"Нұра","element_type":"node","station_id":"13609226009"},"geometry":{"type":"Point","coordinates":[71.400076,51.081135]}},{"type":"Feature","properties":{"osm_id":"13081694253","station_name":"Астана Жұлдызы","element_type":"node","station_id":"13081694253"},"geometry":{"type":"Point","coordinates":[71.397928,51.075129]}},{"type":"Feature","properties":{"osm_id":"13081694252","station_name":"Мәңгілік Ел","element_type":"node","station_id":"13081694252"},"geometry":{"type":"Point","coordinates":[71.418701,51.055908]}},{"type":"Feature","properties":{"osm_id":"13609020686","station_name":"Есіл","element_type":"node","station_id":"13609020686"},"geometry":{"type":"Point","coordinates":[71.429859,51.049031]}},{"type":"Feature","properties":{"osm_id":"13609021226","station_name":"Атамекен","element_type":"node","station_id":"13609021226"},"geometry":{"type":"Point","coordinates":[71.442201,51.041312]}},{"type":"Feature","properties":{"osm_id":"13609021254","station_name":"Әуежай","element_type":"node","station_id":"13609021254"},"geometry":{"type":"Point","coordinates":[71.458774,51.027991]}},{"type":"Feature","properties":{"route_company":"City Transportation Systems","route_id":"LRT","element_type":"way","color":"#7ae7b4","route_name":"Astana LRT: Нұрлы Жол → Аэропорт","osm_id":"19988457","railway":"light_rail","status":"open"},"geometry":{"type":"LineString","coordinates":[[71.52903,51.112134],[71.516211,51.109519],[71.498297,51.112334],[71.481202,51.115002],[71.468384,51.117009],[71.43758,51.122216],[71.428714,51.123281],[71.413128,51.122039],[71.411596,51.114558],[71.409026,51.106154],[71.406819,51.099954],[71.402792,51.088777],[71.400076,51.081135],[71.397928,51.075129],[71.418701,51.055908],[71.429859,51.049031],[71.442201,51.041312],[71.458774,51.027991]]}}]}