{"type":"FeatureCollection","generator":"metroOsmFetch (OpenStreetMap / Overpass, ODbL)","features":[{"type":"Feature","properties":{"route_company":"STIB/MIVB","route_id":"5","element_type":"way","color":"#fcb814","route_name":"Métro 5 / Metro 5","osm_id":"58241","railway":"subway"},"geometry":{"type":"LineString","coordinates":[[4.26776,50.815246],[4.281369,50.81654],[4.290244,50.816458],[4.294229,50.821496],[4.297556,50.825178],[4.300872,50.829878],[4.305656,50.835364],[4.313007,50.839954],[4.318247,50.844158],[4.321068,50.848753],[4.323074,50.853423],[4.332856,50.857107],[4.340778,50.854582],[4.3481,50.851749],[4.352808,50.849595],[4.358934,50.846167],[4.362903,50.845703],[4.369202,50.845643],[4.377604,50.843681],[4.382334,50.842683],[4.398558,50.839313],[4.40179,50.833305],[4.404013,50.827304],[4.405302,50.820876],[4.403928,50.81815],[4.410311,50.815027],[4.421588,50.813277],[4.429371,50.812274]]}},{"type":"Feature","properties":{"route_company":"STIB/MIVB","route_id":"6","element_type":"way","color":"#0080b3","route_name":"Métro 6 / Metro 6","osm_id":"108101","railway":"subway"},"geometry":{"type":"LineString","coordinates":[[4.328397,50.896517],[4.336628,50.896791],[4.338233,50.889183],[4.343139,50.885322],[4.348127,50.878404],[4.342603,50.87317],[4.336455,50.868056],[4.33027,50.863057],[4.325042,50.856483],[4.323074,50.853423],[4.321068,50.848753],[4.324737,50.844988],[4.331216,50.840822],[4.338487,50.836255],[4.343407,50.833718],[4.349449,50.833425],[4.355085,50.835479],[4.362267,50.838491],[4.366746,50.841653],[4.369202,50.845643],[4.368987,50.850482],[4.365108,50.854142],[4.357889,50.855669],[4.35066,50.857454],[4.339037,50.860671],[4.33027,50.863057]]}},{"type":"Feature","properties":{"route_company":"STIB/MIVB","route_id":"1","element_type":"way","color":"#b95192","route_name":"Métro 1 / Metro 1","osm_id":"58240","railway":"subway"},"geometry":{"type":"LineString","coordinates":[[4.321068,50.848753],[4.323074,50.853423],[4.332856,50.857107],[4.340778,50.854582],[4.3481,50.851749],[4.352808,50.849595],[4.358934,50.846167],[4.362903,50.845703],[4.369202,50.845643],[4.377604,50.843681],[4.382334,50.842683],[4.398558,50.839313],[4.408055,50.83784],[4.414154,50.840576],[4.419129,50.842583],[4.426148,50.844591],[4.436375,50.847548],[4.447753,50.847505],[4.453361,50.849972],[4.458834,50.848525],[4.464301,50.841654]]}},{"type":"Feature","properties":{"route_company":"STIB/MIVB","route_id":"2","element_type":"way","color":"#f78e1e","route_name":"Métro 2 / Metro 2","osm_id":"58242","railway":"subway"},"geometry":{"type":"LineString","coordinates":[[4.33027,50.863057],[4.325042,50.856483],[4.323074,50.853423],[4.321068,50.848753],[4.324737,50.844988],[4.331216,50.840822],[4.338487,50.836255],[4.343407,50.833718],[4.349449,50.833425],[4.355085,50.835479],[4.362267,50.838491],[4.366746,50.841653],[4.369202,50.845643],[4.368987,50.850482],[4.365108,50.854142],[4.357889,50.855669],[4.35066,50.857454],[4.339037,50.860671],[4.33027,50.863057]]}},{"type":"Feature","properties":{"osm_id":"4657395774","station_name":"Erasme - Erasmus","element_type":"node","station_id":"4657395774"},"geometry":{"type":"Point","coordinates":[4.26776,50.815246]}},{"type":"Feature","properties":{"osm_id":"4657152946","station_name":"Eddy Merckx","element_type":"node","station_id":"4657152946"},"geometry":{"type":"Point","coordinates":[4.281369,50.81654]}},{"type":"Feature","properties":{"osm_id":"4657152930","station_name":"CERIA - COOVI","element_type":"node","station_id":"4657152930"},"geometry":{"type":"Point","coordinates":[4.290244,50.816458]}},{"type":"Feature","properties":{"osm_id":"4659456710","station_name":"La Roue - Het Rad","element_type":"node","station_id":"4659456710"},"geometry":{"type":"Point","coordinates":[4.294229,50.821496]}},{"type":"Feature","properties":{"osm_id":"4660314069","station_name":"Bizet","element_type":"node","station_id":"4660314069"},"geometry":{"type":"Point","coordinates":[4.297556,50.825178]}},{"type":"Feature","properties":{"osm_id":"4663528287","station_name":"Veeweyde - Veeweide","element_type":"node","station_id":"4663528287"},"geometry":{"type":"Point","coordinates":[4.300872,50.829878]}},{"type":"Feature","properties":{"osm_id":"4663791875","station_name":"Saint-Guidon - Sint-Guido","element_type":"node","station_id":"4663791875"},"geometry":{"type":"Point","coordinates":[4.305656,50.835364]}},{"type":"Feature","properties":{"osm_id":"4668276642","station_name":"Aumale","element_type":"node","station_id":"4668276642"},"geometry":{"type":"Point","coordinates":[4.313007,50.839954]}},{"type":"Feature","properties":{"osm_id":"4668276654","station_name":"Jacques Brel","element_type":"node","station_id":"4668276654"},"geometry":{"type":"Point","coordinates":[4.318247,50.844158]}},{"type":"Feature","properties":{"osm_id":"4668862182","station_name":"Gare de l'Ouest - Weststation","element_type":"node","station_id":"4668862182"},"geometry":{"type":"Point","coordinates":[4.321068,50.848753]}},{"type":"Feature","properties":{"osm_id":"4669201727","station_name":"Beekkant","element_type":"node","station_id":"8744"},"geometry":{"type":"Point","coordinates":[4.323074,50.853423]}},{"type":"Feature","properties":{"osm_id":"4672441873","station_name":"Étangs Noirs - Zwarte Vijvers","element_type":"node","station_id":"4672441873"},"geometry":{"type":"Point","coordinates":[4.332856,50.857107]}},{"type":"Feature","properties":{"osm_id":"4674530181","station_name":"Comte de Flandre - Graaf van Vlaanderen","element_type":"node","station_id":"4674530181"},"geometry":{"type":"Point","coordinates":[4.340778,50.854582]}},{"type":"Feature","properties":{"osm_id":"4652618331","station_name":"Sainte-Catherine - Sint-Katelijne","element_type":"node","station_id":"4652618331"},"geometry":{"type":"Point","coordinates":[4.3481,50.851749]}},{"type":"Feature","properties":{"osm_id":"4414707916","station_name":"De Brouckère","element_type":"node","station_id":"4414707916"},"geometry":{"type":"Point","coordinates":[4.352808,50.849595]}},{"type":"Feature","properties":{"osm_id":"4426891082","station_name":"Gare Centrale - Centraal Station","element_type":"node","station_id":"4426891082"},"geometry":{"type":"Point","coordinates":[4.358934,50.846167]}},{"type":"Feature","properties":{"osm_id":"142700520","station_name":"Parc - Park","element_type":"node","station_id":"142700520"},"geometry":{"type":"Point","coordinates":[4.362903,50.845703]}},{"type":"Feature","properties":{"osm_id":"4683178503","station_name":"Arts-Loi - Kunst-Wet","element_type":"node","station_id":"4683178503"},"geometry":{"type":"Point","coordinates":[4.369202,50.845643]}},{"type":"Feature","properties":{"osm_id":"4685261993","station_name":"Maelbeek - Maalbeek","element_type":"node","station_id":"4685261993"},"geometry":{"type":"Point","coordinates":[4.377604,50.843681]}},{"type":"Feature","properties":{"osm_id":"4685567630","station_name":"Schuman","element_type":"node","station_id":"4685567630"},"geometry":{"type":"Point","coordinates":[4.382334,50.842683]}},{"type":"Feature","properties":{"osm_id":"4687003301","station_name":"Merode","element_type":"node","station_id":"4687003301"},"geometry":{"type":"Point","coordinates":[4.398558,50.839313]}},{"type":"Feature","properties":{"osm_id":"4686808481","station_name":"Thieffry","element_type":"node","station_id":"4686808481"},"geometry":{"type":"Point","coordinates":[4.40179,50.833305]}},{"type":"Feature","properties":{"osm_id":"4426921966","station_name":"Pétillon","element_type":"node","station_id":"4426921966"},"geometry":{"type":"Point","coordinates":[4.404013,50.827304]}},{"type":"Feature","properties":{"osm_id":"4690599577","station_name":"Hankar","element_type":"node","station_id":"4690599577"},"geometry":{"type":"Point","coordinates":[4.405302,50.820876]}},{"type":"Feature","properties":{"osm_id":"2194343998","station_name":"Delta","element_type":"node","station_id":"2194343998"},"geometry":{"type":"Point","coordinates":[4.403928,50.81815]}},{"type":"Feature","properties":{"osm_id":"4689113752","station_name":"Beaulieu","element_type":"node","station_id":"4689113752"},"geometry":{"type":"Point","coordinates":[4.410311,50.815027]}},{"type":"Feature","properties":{"osm_id":"4695877584","station_name":"Demey","element_type":"node","station_id":"4695877584"},"geometry":{"type":"Point","coordinates":[4.421588,50.813277]}},{"type":"Feature","properties":{"osm_id":"463208354","station_name":"Herrmann-Debroux","element_type":"node","station_id":"463208354"},"geometry":{"type":"Point","coordinates":[4.429371,50.812274]}},{"type":"Feature","properties":{"osm_id":"5257610749","station_name":"Roi Baudouin - Koning Boudewijn","element_type":"node","station_id":"5257610749"},"geometry":{"type":"Point","coordinates":[4.328397,50.896517]}},{"type":"Feature","properties":{"osm_id":"5257610750","station_name":"Heysel - Heizel","element_type":"node","station_id":"5257610750"},"geometry":{"type":"Point","coordinates":[4.336628,50.896791]}},{"type":"Feature","properties":{"osm_id":"277003904","station_name":"Houba-Brugmann","element_type":"node","station_id":"8814"},"geometry":{"type":"Point","coordinates":[4.338233,50.889183]}},{"type":"Feature","properties":{"osm_id":"5257610751","station_name":"Stuyvenbergh","element_type":"node","station_id":"8804"},"geometry":{"type":"Point","coordinates":[4.343139,50.885322]}},{"type":"Feature","properties":{"osm_id":"144262959","station_name":"Bockstael","element_type":"node","station_id":"144262959"},"geometry":{"type":"Point","coordinates":[4.348127,50.878404]}},{"type":"Feature","properties":{"osm_id":"4902681749","station_name":"Pannenhuis","element_type":"node","station_id":"4902681749"},"geometry":{"type":"Point","coordinates":[4.342603,50.87317]}},{"type":"Feature","properties":{"osm_id":"503158242","station_name":"Belgica","element_type":"node","station_id":"503158242"},"geometry":{"type":"Point","coordinates":[4.336455,50.868056]}},{"type":"Feature","properties":{"osm_id":"143701415","station_name":"Simonis","element_type":"node","station_id":"143701415"},"geometry":{"type":"Point","coordinates":[4.33027,50.863057]}},{"type":"Feature","properties":{"osm_id":"4672163955","station_name":"Osseghem - Ossegem","element_type":"node","station_id":"4672163955"},"geometry":{"type":"Point","coordinates":[4.325042,50.856483]}},{"type":"Feature","properties":{"osm_id":"4665044941","station_name":"Delacroix","element_type":"node","station_id":"4665044941"},"geometry":{"type":"Point","coordinates":[4.324737,50.844988]}},{"type":"Feature","properties":{"osm_id":"4872188818","station_name":"Clemenceau","element_type":"node","station_id":"4872188818"},"geometry":{"type":"Point","coordinates":[4.331216,50.840822]}},{"type":"Feature","properties":{"osm_id":"3541806031","station_name":"Gare du Midi - Zuidstation","element_type":"node","station_id":"3541806031"},"geometry":{"type":"Point","coordinates":[4.338487,50.836255]}},{"type":"Feature","properties":{"osm_id":"4892413637","station_name":"Porte de Hal - Hallepoort","element_type":"node","station_id":"4892413637"},"geometry":{"type":"Point","coordinates":[4.343407,50.833718]}},{"type":"Feature","properties":{"osm_id":"3992684949","station_name":"Hôtel des Monnaies - Munthof","element_type":"node","station_id":"3992684949"},"geometry":{"type":"Point","coordinates":[4.349449,50.833425]}},{"type":"Feature","properties":{"osm_id":"4709988058","station_name":"Louise - Louiza","element_type":"node","station_id":"4709988058"},"geometry":{"type":"Point","coordinates":[4.355085,50.835479]}},{"type":"Feature","properties":{"osm_id":"4817814071","station_name":"Porte de Namur - Naamsepoort","element_type":"node","station_id":"4817814071"},"geometry":{"type":"Point","coordinates":[4.362267,50.838491]}},{"type":"Feature","properties":{"osm_id":"4705271315","station_name":"Trône - Troon","element_type":"node","station_id":"4705271315"},"geometry":{"type":"Point","coordinates":[4.366746,50.841653]}},{"type":"Feature","properties":{"osm_id":"4772943720","station_name":"Madou","element_type":"node","station_id":"4772943720"},"geometry":{"type":"Point","coordinates":[4.368987,50.850482]}},{"type":"Feature","properties":{"osm_id":"4745980143","station_name":"Botanique - Kruidtuin","element_type":"node","station_id":"4745980143"},"geometry":{"type":"Point","coordinates":[4.365108,50.854142]}},{"type":"Feature","properties":{"osm_id":"4772577027","station_name":"Rogier","element_type":"node","station_id":"4772577027"},"geometry":{"type":"Point","coordinates":[4.357889,50.855669]}},{"type":"Feature","properties":{"osm_id":"4791383042","station_name":"Yser - IJzer","element_type":"node","station_id":"4791383042"},"geometry":{"type":"Point","coordinates":[4.35066,50.857454]}},{"type":"Feature","properties":{"osm_id":"4788662862","station_name":"Ribaucourt","element_type":"node","station_id":"4788662862"},"geometry":{"type":"Point","coordinates":[4.339037,50.860671]}},{"type":"Feature","properties":{"osm_id":"4687128522","station_name":"Montgomery","element_type":"node","station_id":"4687128522"},"geometry":{"type":"Point","coordinates":[4.408055,50.83784]}},{"type":"Feature","properties":{"osm_id":"4697453574","station_name":"Joséphine-Charlotte","element_type":"node","station_id":"4697453574"},"geometry":{"type":"Point","coordinates":[4.414154,50.840576]}},{"type":"Feature","properties":{"osm_id":"4697917016","station_name":"Gribaumont","element_type":"node","station_id":"4697917016"},"geometry":{"type":"Point","coordinates":[4.419129,50.842583]}},{"type":"Feature","properties":{"osm_id":"250309309","station_name":"Tomberg","element_type":"node","station_id":"250309309"},"geometry":{"type":"Point","coordinates":[4.426148,50.844591]}},{"type":"Feature","properties":{"osm_id":"4701737703","station_name":"Roodebeek","element_type":"node","station_id":"4701737703"},"geometry":{"type":"Point","coordinates":[4.436375,50.847548]}},{"type":"Feature","properties":{"osm_id":"4697030014","station_name":"Vandervelde","element_type":"node","station_id":"4697030014"},"geometry":{"type":"Point","coordinates":[4.447753,50.847505]}},{"type":"Feature","properties":{"osm_id":"4697385081","station_name":"Alma","element_type":"node","station_id":"4697385081"},"geometry":{"type":"Point","coordinates":[4.453361,50.849972]}},{"type":"Feature","properties":{"osm_id":"4696844431","station_name":"Crainhem - Kraainem","element_type":"node","station_id":"4696844431"},"geometry":{"type":"Point","coordinates":[4.458834,50.848525]}},{"type":"Feature","properties":{"osm_id":"4698032757","station_name":"Stockel - Stokkel","element_type":"node","station_id":"4698032757"},"geometry":{"type":"Point","coordinates":[4.464301,50.841654]}}]}