{"type":"FeatureCollection","generator":"metroOsmFetch (OpenStreetMap / Overpass, ODbL)","features":[{"type":"Feature","properties":{"route_company":"Companhia Cearense de Transportes Metropolitanos","route_id":"Sul","element_type":"way","color":"#e42b30","route_name":"Linha Sul","osm_id":"4511593","railway":"subway"},"geometry":{"type":"LineString","coordinates":[[-38.620846,-3.894456],[-38.626939,-3.887219],[-38.625462,-3.877654],[-38.619889,-3.867168],[-38.608105,-3.850542],[-38.600439,-3.839354],[-38.591768,-3.826633],[-38.585563,-3.817253],[-38.577562,-3.807608],[-38.574834,-3.79864],[-38.572324,-3.784175],[-38.563776,-3.775917],[-38.560139,-3.765913],[-38.557464,-3.757304],[-38.551628,-3.751534],[-38.546014,-3.745935],[-38.539635,-3.739561],[-38.534575,-3.73184],[-38.532924,-3.726404],[-38.536162,-3.719694]]}},{"type":"Feature","properties":{"route_company":"Companhia Cearense de Transportes Metropolitanos","route_id":"Parangaba-Mucuripe","element_type":"way","color":"#085084","route_name":"Linha Parangaba-Mucuripe","osm_id":"4511811","railway":"light_rail"},"geometry":{"type":"LineString","coordinates":[[-38.563776,-3.775917],[-38.552924,-3.773481],[-38.543029,-3.771455],[-38.534361,-3.769799],[-38.528914,-3.761066],[-38.512562,-3.760806],[-38.50053,-3.752163],[-38.49371,-3.748933],[-38.486577,-3.738745],[-38.480248,-3.726146],[-38.477034,-3.720624]]}},{"type":"Feature","properties":{"route_company":"Companhia Cearense de Transportes Metropolitanos","route_id":"Oeste","element_type":"way","color":"#008000","route_name":"Linha Oeste","osm_id":"4511795","railway":"light_rail"},"geometry":{"type":"LineString","coordinates":[[-38.536162,-3.719694],[-38.56491,-3.720276],[-38.581664,-3.730348],[-38.591592,-3.73475],[-38.602885,-3.749574],[-38.612238,-3.758249],[-38.61519,-3.764989],[-38.622445,-3.769524],[-38.639666,-3.762628],[-38.660581,-3.73584]]}},{"type":"Feature","properties":{"route_company":"Companhia Cearense de Transportes Metropolitanos","route_id":"5","element_type":"way","color":"#ff6100","route_name":"Ramal Aeroporto-Castelão: Expedicionários ⇒ Castelão","osm_id":"20187272","railway":"light_rail"},"geometry":{"type":"LineString","coordinates":[[-38.543029,-3.771455],[-38.541532,-3.780219]]}},{"type":"Feature","properties":{"osm_id":"4115082189","station_name":"Carlito Benevides","element_type":"node","station_id":"4115082189"},"geometry":{"type":"Point","coordinates":[-38.620846,-3.894456]}},{"type":"Feature","properties":{"osm_id":"4115082191","station_name":"Jereissati","element_type":"node","station_id":"4115082191"},"geometry":{"type":"Point","coordinates":[-38.626939,-3.887219]}},{"type":"Feature","properties":{"osm_id":"4117457648","station_name":"Maracanaú","element_type":"node","station_id":"4117457648"},"geometry":{"type":"Point","coordinates":[-38.625462,-3.877654]}},{"type":"Feature","properties":{"osm_id":"4115053630","station_name":"Virgílio Távora","element_type":"node","station_id":"4115053630"},"geometry":{"type":"Point","coordinates":[-38.619889,-3.867168]}},{"type":"Feature","properties":{"osm_id":"4115041804","station_name":"Rachel de Queiroz","element_type":"node","station_id":"4115041804"},"geometry":{"type":"Point","coordinates":[-38.608105,-3.850542]}},{"type":"Feature","properties":{"osm_id":"4115041522","station_name":"Alto Alegre","element_type":"node","station_id":"4115041522"},"geometry":{"type":"Point","coordinates":[-38.600439,-3.839354]}},{"type":"Feature","properties":{"osm_id":"4109065074","station_name":"Aracapé","element_type":"node","station_id":"4109065074"},"geometry":{"type":"Point","coordinates":[-38.591768,-3.826633]}},{"type":"Feature","properties":{"osm_id":"4109065076","station_name":"Esperança","element_type":"node","station_id":"4109065076"},"geometry":{"type":"Point","coordinates":[-38.585563,-3.817253]}},{"type":"Feature","properties":{"osm_id":"4109059491","station_name":"Mondubim","element_type":"node","station_id":"4109059491"},"geometry":{"type":"Point","coordinates":[-38.577562,-3.807608]}},{"type":"Feature","properties":{"osm_id":"263284315","station_name":"Manoel Sátiro","element_type":"node","station_id":"263284315"},"geometry":{"type":"Point","coordinates":[-38.574834,-3.79864]}},{"type":"Feature","properties":{"osm_id":"2280379119","station_name":"Vila Pery","element_type":"node","station_id":"2280379119"},"geometry":{"type":"Point","coordinates":[-38.572324,-3.784175]}},{"type":"Feature","properties":{"osm_id":"2281646907","station_name":"Parangaba","element_type":"node","station_id":"2281646907"},"geometry":{"type":"Point","coordinates":[-38.563776,-3.775917]}},{"type":"Feature","properties":{"osm_id":"4103581124","station_name":"Juscelino Kubitschek","element_type":"node","station_id":"4103581124"},"geometry":{"type":"Point","coordinates":[-38.560139,-3.765913]}},{"type":"Feature","properties":{"osm_id":"3305894424","station_name":"Couto Fernandes","element_type":"node","station_id":"3305894424"},"geometry":{"type":"Point","coordinates":[-38.557464,-3.757304]}},{"type":"Feature","properties":{"osm_id":"3305894425","station_name":"Porangabussu","element_type":"node","station_id":"3305894425"},"geometry":{"type":"Point","coordinates":[-38.551628,-3.751534]}},{"type":"Feature","properties":{"osm_id":"4102886828","station_name":"Padre Cícero","element_type":"node","station_id":"4102886828"},"geometry":{"type":"Point","coordinates":[-38.546014,-3.745935]}},{"type":"Feature","properties":{"osm_id":"6943844384","station_name":"Benfica","element_type":"node","station_id":"6943844384"},"geometry":{"type":"Point","coordinates":[-38.539635,-3.739561]}},{"type":"Feature","properties":{"osm_id":"6943871010","station_name":"São Benedito","element_type":"node","station_id":"6943871010"},"geometry":{"type":"Point","coordinates":[-38.534575,-3.73184]}},{"type":"Feature","properties":{"osm_id":"6943871013","station_name":"José de Alencar","element_type":"node","station_id":"6943871013"},"geometry":{"type":"Point","coordinates":[-38.532924,-3.726404]}},{"type":"Feature","properties":{"osm_id":"6943871025","station_name":"Central - Chico da Silva","element_type":"node","station_id":"6943871025"},"geometry":{"type":"Point","coordinates":[-38.536162,-3.719694]}},{"type":"Feature","properties":{"osm_id":"5697461140","station_name":"Montese","element_type":"node","station_id":"5697461140"},"geometry":{"type":"Point","coordinates":[-38.552924,-3.773481]}},{"type":"Feature","properties":{"osm_id":"10681588692","station_name":"Expedicionários","element_type":"node","station_id":"10681588692"},"geometry":{"type":"Point","coordinates":[-38.543029,-3.771455]}},{"type":"Feature","properties":{"osm_id":"5697461167","station_name":"Vila União","element_type":"node","station_id":"5697461167"},"geometry":{"type":"Point","coordinates":[-38.534361,-3.769799]}},{"type":"Feature","properties":{"osm_id":"5697481666","station_name":"Borges de Melo","element_type":"node","station_id":"5697481666"},"geometry":{"type":"Point","coordinates":[-38.528914,-3.761066]}},{"type":"Feature","properties":{"osm_id":"5700473505","station_name":"São João do Tauape","element_type":"node","station_id":"5700473505"},"geometry":{"type":"Point","coordinates":[-38.512562,-3.760806]}},{"type":"Feature","properties":{"osm_id":"5703630006","station_name":"Pontes Vieira","element_type":"node","station_id":"5703630006"},"geometry":{"type":"Point","coordinates":[-38.50053,-3.752163]}},{"type":"Feature","properties":{"osm_id":"5703629966","station_name":"Antônio Sales","element_type":"node","station_id":"5703629966"},"geometry":{"type":"Point","coordinates":[-38.49371,-3.748933]}},{"type":"Feature","properties":{"osm_id":"5703629936","station_name":"Papicu","element_type":"node","station_id":"5703629936"},"geometry":{"type":"Point","coordinates":[-38.486577,-3.738745]}},{"type":"Feature","properties":{"osm_id":"7914157895","station_name":"Mucuripe","element_type":"node","station_id":"7914157895"},"geometry":{"type":"Point","coordinates":[-38.480248,-3.726146]}},{"type":"Feature","properties":{"osm_id":"7790417865","station_name":"Iate","element_type":"node","station_id":"7790417865"},"geometry":{"type":"Point","coordinates":[-38.477034,-3.720624]}},{"type":"Feature","properties":{"osm_id":"4719396486","station_name":"Álvaro Weyne","element_type":"node","station_id":"4719396486"},"geometry":{"type":"Point","coordinates":[-38.56491,-3.720276]}},{"type":"Feature","properties":{"osm_id":"2895356216","station_name":"Padre Andrade","element_type":"node","station_id":"2895356216"},"geometry":{"type":"Point","coordinates":[-38.581664,-3.730348]}},{"type":"Feature","properties":{"osm_id":"2895356215","station_name":"Antônio Bezerra","element_type":"node","station_id":"2895356215"},"geometry":{"type":"Point","coordinates":[-38.591592,-3.73475]}},{"type":"Feature","properties":{"osm_id":"2895347782","station_name":"Conjunto São Miguel","element_type":"node","station_id":"2895347782"},"geometry":{"type":"Point","coordinates":[-38.602885,-3.749574]}},{"type":"Feature","properties":{"osm_id":"2365017525","station_name":"Parque Albano","element_type":"node","station_id":"2365017525"},"geometry":{"type":"Point","coordinates":[-38.612238,-3.758249]}},{"type":"Feature","properties":{"osm_id":"2895346034","station_name":"Conjunto Ceará","element_type":"node","station_id":"2895346034"},"geometry":{"type":"Point","coordinates":[-38.61519,-3.764989]}},{"type":"Feature","properties":{"osm_id":"2895345391","station_name":"Jurema","element_type":"node","station_id":"2895345391"},"geometry":{"type":"Point","coordinates":[-38.622445,-3.769524]}},{"type":"Feature","properties":{"osm_id":"479158293","station_name":"Araturi","element_type":"node","station_id":"479158293"},"geometry":{"type":"Point","coordinates":[-38.639666,-3.762628]}},{"type":"Feature","properties":{"osm_id":"263981996","station_name":"Caucaia","element_type":"node","station_id":"263981996"},"geometry":{"type":"Point","coordinates":[-38.660581,-3.73584]}},{"type":"Feature","properties":{"osm_id":"13153113785","station_name":"Aeroporto","element_type":"node","station_id":"13153113785"},"geometry":{"type":"Point","coordinates":[-38.541532,-3.780219]}}]}