{"type":"FeatureCollection","generator":"metroOsmFetch (OpenStreetMap / Overpass, ODbL)","features":[{"type":"Feature","properties":{"route_company":"Trensurb","route_id":"1","element_type":"way","color":"#001969","route_name":"Sul: Novo Hamburgo - Mercado","osm_id":"420335","railway":"subway","status":"open"},"geometry":{"type":"LineString","coordinates":[[-51.132853,-29.68674],[-51.134954,-29.700951],[-51.134948,-29.715906],[-51.140345,-29.729741],[-51.145136,-29.749043],[-51.141057,-29.768932],[-51.14046,-29.786899],[-51.149039,-29.82324],[-51.16549,-29.832866],[-51.179285,-29.852028],[-51.180857,-29.876814],[-51.179573,-29.887564],[-51.178806,-29.903706],[-51.182024,-29.918978],[-51.17731,-29.93798],[-51.176513,-29.954643],[-51.17886,-29.97678],[-51.18276,-29.987556],[-51.19749,-29.997307],[-51.209357,-30.006334],[-51.219881,-30.022203],[-51.228234,-30.026242]]}},{"type":"Feature","properties":{"route_company":"Trensurb","route_id":"Conexão Metrô-Aeroporto","element_type":"way","color":"#3cb44b","route_name":"Conexão Metrô-Aeroporto","osm_id":"5465620","railway":"subway","status":"open"},"geometry":{"type":"LineString","coordinates":[[-51.175798,-29.989581],[-51.18276,-29.987556]]}},{"type":"Feature","properties":{"osm_id":"2978228808","station_name":"Novo Hamburgo","element_type":"node","station_id":"2978228808"},"geometry":{"type":"Point","coordinates":[-51.132853,-29.68674]}},{"type":"Feature","properties":{"osm_id":"2978228806","station_name":"Fenac","element_type":"node","station_id":"2978228806"},"geometry":{"type":"Point","coordinates":[-51.134954,-29.700951]}},{"type":"Feature","properties":{"osm_id":"2978228807","station_name":"Industrial / Tintas Killing","element_type":"node","station_id":"2978228807"},"geometry":{"type":"Point","coordinates":[-51.134948,-29.715906]}},{"type":"Feature","properties":{"osm_id":"1825345123","station_name":"Santo Afonso","element_type":"node","station_id":"1825345123"},"geometry":{"type":"Point","coordinates":[-51.140345,-29.729741]}},{"type":"Feature","properties":{"osm_id":"1825345122","station_name":"Rio dos Sinos","element_type":"node","station_id":"1825345122"},"geometry":{"type":"Point","coordinates":[-51.145136,-29.749043]}},{"type":"Feature","properties":{"osm_id":"431707943","station_name":"São Leopoldo","element_type":"node","station_id":"431707943"},"geometry":{"type":"Point","coordinates":[-51.141057,-29.768932]}},{"type":"Feature","properties":{"osm_id":"418137243","station_name":"Unisinos","element_type":"node","station_id":"418137243"},"geometry":{"type":"Point","coordinates":[-51.14046,-29.786899]}},{"type":"Feature","properties":{"osm_id":"418137207","station_name":"Sapucaia","element_type":"node","station_id":"418137207"},"geometry":{"type":"Point","coordinates":[-51.149039,-29.82324]}},{"type":"Feature","properties":{"osm_id":"418137179","station_name":"Luiz Pasteur","element_type":"node","station_id":"418137179"},"geometry":{"type":"Point","coordinates":[-51.16549,-29.832866]}},{"type":"Feature","properties":{"osm_id":"418137154","station_name":"Esteio","element_type":"node","station_id":"418137154"},"geometry":{"type":"Point","coordinates":[-51.179285,-29.852028]}},{"type":"Feature","properties":{"osm_id":"418133153","station_name":"Petrobras","element_type":"node","station_id":"418133153"},"geometry":{"type":"Point","coordinates":[-51.180857,-29.876814]}},{"type":"Feature","properties":{"osm_id":"418126561","station_name":"São Luís","element_type":"node","station_id":"418126561"},"geometry":{"type":"Point","coordinates":[-51.179573,-29.887564]}},{"type":"Feature","properties":{"osm_id":"656510706","station_name":"Mathias Velho","element_type":"node","station_id":"656510706"},"geometry":{"type":"Point","coordinates":[-51.178806,-29.903706]}},{"type":"Feature","properties":{"osm_id":"429599812","station_name":"Canoas / La Salle","element_type":"node","station_id":"429599812"},"geometry":{"type":"Point","coordinates":[-51.182024,-29.918978]}},{"type":"Feature","properties":{"osm_id":"429598028","station_name":"Fátima","element_type":"node","station_id":"429598028"},"geometry":{"type":"Point","coordinates":[-51.17731,-29.93798]}},{"type":"Feature","properties":{"osm_id":"429598034","station_name":"Niterói","element_type":"node","station_id":"429598034"},"geometry":{"type":"Point","coordinates":[-51.176513,-29.954643]}},{"type":"Feature","properties":{"osm_id":"429598046","station_name":"Anchieta","element_type":"node","station_id":"429598046"},"geometry":{"type":"Point","coordinates":[-51.17886,-29.97678]}},{"type":"Feature","properties":{"osm_id":"429598051","station_name":"Aeroporto","element_type":"node","station_id":"429598051"},"geometry":{"type":"Point","coordinates":[-51.18276,-29.987556]}},{"type":"Feature","properties":{"osm_id":"656505730","station_name":"Farrapos","element_type":"node","station_id":"656505730"},"geometry":{"type":"Point","coordinates":[-51.19749,-29.997307]}},{"type":"Feature","properties":{"osm_id":"656505163","station_name":"São Pedro","element_type":"node","station_id":"656505163"},"geometry":{"type":"Point","coordinates":[-51.209357,-30.006334]}},{"type":"Feature","properties":{"osm_id":"611903060","station_name":"Rodoviária","element_type":"node","station_id":"611903060"},"geometry":{"type":"Point","coordinates":[-51.219881,-30.022203]}},{"type":"Feature","properties":{"osm_id":"3241971474","station_name":"Mercado","element_type":"node","station_id":"3241971474"},"geometry":{"type":"Point","coordinates":[-51.228234,-30.026242]}},{"type":"Feature","properties":{"osm_id":"4321038628","station_name":"Aeromóvel","element_type":"node","station_id":"4321038628"},"geometry":{"type":"Point","coordinates":[-51.175798,-29.989581]}}]}