{"type":"FeatureCollection","generator":"metroOsmFetch (OpenStreetMap / Overpass, ODbL)","features":[{"type":"Feature","properties":{"route_company":"Trensurb","route_id":"1","element_type":"way","color":"#000080","route_name":"Sul: Novo Hamburgo - Mercado","osm_id":"420335","railway":"subway","status":"open"},"geometry":{"type":"LineString","coordinates":[[-51.132908,-29.686756],[-51.134979,-29.700948],[-51.134969,-29.715902],[-51.140361,-29.729735],[-51.145159,-29.749043],[-51.141103,-29.768921],[-51.140505,-29.786914],[-51.149077,-29.8232],[-51.165514,-29.83281],[-51.17935,-29.852021],[-51.180879,-29.876813],[-51.179593,-29.887569],[-51.178827,-29.903701],[-51.182084,-29.918995],[-51.177375,-29.937981],[-51.176562,-29.954644],[-51.178908,-29.97677],[-51.182853,-29.987597],[-51.197491,-29.997264],[-51.20939,-30.006324],[-51.21989,-30.022194],[-51.228238,-30.026221]]}},{"type":"Feature","properties":{"route_company":"Trensurb","route_id":"Conexão Metrô-Aeroporto","element_type":"way","color":"#3cb44b","route_name":"Conexão Metrô-Aeroporto","osm_id":"5465620","railway":"subway","status":"open"},"geometry":{"type":"LineString","coordinates":[[-51.182853,-29.987597],[-51.175798,-29.989581]]}},{"type":"Feature","properties":{"osm_id":"2978228808","station_name":"Novo Hamburgo","element_type":"node","station_id":"2978228808"},"geometry":{"type":"Point","coordinates":[-51.132908,-29.686756]}},{"type":"Feature","properties":{"osm_id":"2978228806","station_name":"Fenac","element_type":"node","station_id":"2978228806"},"geometry":{"type":"Point","coordinates":[-51.134979,-29.700948]}},{"type":"Feature","properties":{"osm_id":"2978228807","station_name":"Industrial / Tintas Killing","element_type":"node","station_id":"2978228807"},"geometry":{"type":"Point","coordinates":[-51.134969,-29.715902]}},{"type":"Feature","properties":{"osm_id":"1825345123","station_name":"Santo Afonso","element_type":"node","station_id":"1825345123"},"geometry":{"type":"Point","coordinates":[-51.140361,-29.729735]}},{"type":"Feature","properties":{"osm_id":"1825345122","station_name":"Rio dos Sinos","element_type":"node","station_id":"1825345122"},"geometry":{"type":"Point","coordinates":[-51.145159,-29.749043]}},{"type":"Feature","properties":{"osm_id":"431707943","station_name":"São Leopoldo","element_type":"node","station_id":"431707943"},"geometry":{"type":"Point","coordinates":[-51.141103,-29.768921]}},{"type":"Feature","properties":{"osm_id":"418137243","station_name":"Unisinos","element_type":"node","station_id":"418137243"},"geometry":{"type":"Point","coordinates":[-51.140505,-29.786914]}},{"type":"Feature","properties":{"osm_id":"418137207","station_name":"Sapucaia","element_type":"node","station_id":"418137207"},"geometry":{"type":"Point","coordinates":[-51.149077,-29.8232]}},{"type":"Feature","properties":{"osm_id":"418137179","station_name":"Luiz Pasteur","element_type":"node","station_id":"418137179"},"geometry":{"type":"Point","coordinates":[-51.165514,-29.83281]}},{"type":"Feature","properties":{"osm_id":"418137154","station_name":"Esteio","element_type":"node","station_id":"418137154"},"geometry":{"type":"Point","coordinates":[-51.17935,-29.852021]}},{"type":"Feature","properties":{"osm_id":"418133153","station_name":"Petrobras","element_type":"node","station_id":"418133153"},"geometry":{"type":"Point","coordinates":[-51.180879,-29.876813]}},{"type":"Feature","properties":{"osm_id":"418126561","station_name":"São Luís","element_type":"node","station_id":"418126561"},"geometry":{"type":"Point","coordinates":[-51.179593,-29.887569]}},{"type":"Feature","properties":{"osm_id":"656510706","station_name":"Mathias Velho","element_type":"node","station_id":"656510706"},"geometry":{"type":"Point","coordinates":[-51.178827,-29.903701]}},{"type":"Feature","properties":{"osm_id":"429599812","station_name":"Canoas / La Salle","element_type":"node","station_id":"429599812"},"geometry":{"type":"Point","coordinates":[-51.182084,-29.918995]}},{"type":"Feature","properties":{"osm_id":"429598028","station_name":"Fátima","element_type":"node","station_id":"429598028"},"geometry":{"type":"Point","coordinates":[-51.177375,-29.937981]}},{"type":"Feature","properties":{"osm_id":"429598034","station_name":"Niterói","element_type":"node","station_id":"429598034"},"geometry":{"type":"Point","coordinates":[-51.176562,-29.954644]}},{"type":"Feature","properties":{"osm_id":"429598046","station_name":"Anchieta","element_type":"node","station_id":"429598046"},"geometry":{"type":"Point","coordinates":[-51.178908,-29.97677]}},{"type":"Feature","properties":{"osm_id":"429598051","station_name":"Aeroporto","element_type":"node","station_id":"429598051"},"geometry":{"type":"Point","coordinates":[-51.182853,-29.987597]}},{"type":"Feature","properties":{"osm_id":"656505730","station_name":"Farrapos","element_type":"node","station_id":"656505730"},"geometry":{"type":"Point","coordinates":[-51.197491,-29.997264]}},{"type":"Feature","properties":{"osm_id":"656505163","station_name":"São Pedro","element_type":"node","station_id":"656505163"},"geometry":{"type":"Point","coordinates":[-51.20939,-30.006324]}},{"type":"Feature","properties":{"osm_id":"611903060","station_name":"Rodoviária","element_type":"node","station_id":"611903060"},"geometry":{"type":"Point","coordinates":[-51.21989,-30.022194]}},{"type":"Feature","properties":{"osm_id":"3241971474","station_name":"Mercado","element_type":"node","station_id":"3241971474"},"geometry":{"type":"Point","coordinates":[-51.228238,-30.026221]}},{"type":"Feature","properties":{"osm_id":"4321038628","station_name":"Aeromóvel","element_type":"node","station_id":"4321038628"},"geometry":{"type":"Point","coordinates":[-51.175798,-29.989581]}}]}