{"type":"FeatureCollection","generator":"metroOsmFetch (OpenStreetMap / Overpass, ODbL)","features":[{"type":"Feature","properties":{"route_company":"Metrô Rio","route_id":"2","element_type":"way","color":"#00ae27","route_name":"Metrô Linha 2: Pavuna → Botafogo","osm_id":"285324","railway":"subway","status":"open"},"geometry":{"type":"LineString","coordinates":[[-43.365533,-22.806366],[-43.358651,-22.8161],[-43.349302,-22.824997],[-43.342919,-22.831873],[-43.334546,-22.84266],[-43.323265,-22.848023],[-43.313154,-22.854041],[-43.306794,-22.8626],[-43.297376,-22.867924],[-43.283456,-22.874568],[-43.271927,-22.879276],[-43.260188,-22.881494],[-43.244478,-22.896855],[-43.23389,-22.909716],[-43.220994,-22.909693],[-43.206298,-22.908746],[-43.190782,-22.905038],[-43.18618,-22.903341],[-43.181819,-22.902909],[-43.178076,-22.907562],[-43.175653,-22.910906],[-43.176656,-22.920648],[-43.17655,-22.925955],[-43.177684,-22.931175],[-43.178533,-22.937199],[-43.184223,-22.950364]]}},{"type":"Feature","properties":{"route_company":"Metrô Rio","route_id":"1","element_type":"way","color":"#ff8500","route_name":"Metrô Rio Linha 1 (Uruguai --> General Osório)","osm_id":"285322","railway":"subway","status":"open"},"geometry":{"type":"LineString","coordinates":[[-43.23827,-22.930941],[-43.232592,-22.924141],[-43.223833,-22.920835],[-43.217745,-22.918448],[-43.206452,-22.913635],[-43.200283,-22.909917],[-43.190782,-22.905038],[-43.18618,-22.903341],[-43.181819,-22.902909],[-43.178076,-22.907562],[-43.175653,-22.910906],[-43.176656,-22.920648],[-43.17655,-22.925955],[-43.177684,-22.931175],[-43.178533,-22.937199],[-43.184223,-22.950364],[-43.181406,-22.963811],[-43.187368,-22.967292],[-43.194505,-22.975675],[-43.196559,-22.981546]]}},{"type":"Feature","properties":{"route_company":"MetrôRio","route_id":"4","element_type":"way","color":"#ffc400","route_name":"Linha 4: General Osório / Ipanema → Jardim Oceânico / Barra da Tijuca","osm_id":"6432700","railway":"subway","status":"open"},"geometry":{"type":"LineString","coordinates":[[-43.196559,-22.981546],[-43.206664,-22.983988],[-43.216582,-22.983658],[-43.224312,-22.984685],[-43.255585,-22.99135],[-43.310953,-23.006803]]}},{"type":"Feature","properties":{"route_company":"Estrada de Ferro do Corcovado","route_id":"ESFECO","element_type":"way","color":"#d32232","route_name":"Trem do Corcovado","osm_id":"933653","railway":"light_rail","status":"open"},"geometry":{"type":"LineString","coordinates":[[-43.198549,-22.940924],[-43.202813,-22.946572],[-43.217414,-22.946601],[-43.210694,-22.951754]]}},{"type":"Feature","properties":{"osm_id":"5372874901","station_name":"Pavuna","element_type":"node","station_id":"5372874901"},"geometry":{"type":"Point","coordinates":[-43.365533,-22.806366]}},{"type":"Feature","properties":{"osm_id":"712848989","station_name":"Acari / Fazenda Botafogo","element_type":"node","station_id":"712848989"},"geometry":{"type":"Point","coordinates":[-43.349302,-22.824997]}},{"type":"Feature","properties":{"osm_id":"712848988","station_name":"Coelho Neto","element_type":"node","station_id":"712848988"},"geometry":{"type":"Point","coordinates":[-43.342919,-22.831873]}},{"type":"Feature","properties":{"osm_id":"712849000","station_name":"Colégio","element_type":"node","station_id":"712849000"},"geometry":{"type":"Point","coordinates":[-43.334546,-22.84266]}},{"type":"Feature","properties":{"osm_id":"712848999","station_name":"Irajá","element_type":"node","station_id":"712848999"},"geometry":{"type":"Point","coordinates":[-43.323265,-22.848023]}},{"type":"Feature","properties":{"osm_id":"712848997","station_name":"Vicente de Carvalho","element_type":"node","station_id":"712848997"},"geometry":{"type":"Point","coordinates":[-43.313154,-22.854041]}},{"type":"Feature","properties":{"osm_id":"712848995","station_name":"Thomáz Coelho","element_type":"node","station_id":"712848995"},"geometry":{"type":"Point","coordinates":[-43.306794,-22.8626]}},{"type":"Feature","properties":{"osm_id":"712849008","station_name":"Engenho da Rainha","element_type":"node","station_id":"712849008"},"geometry":{"type":"Point","coordinates":[-43.297376,-22.867924]}},{"type":"Feature","properties":{"osm_id":"712849006","station_name":"Inhaúma","element_type":"node","station_id":"712849006"},"geometry":{"type":"Point","coordinates":[-43.283456,-22.874568]}},{"type":"Feature","properties":{"osm_id":"712849005","station_name":"Del Castilho","element_type":"node","station_id":"712849005"},"geometry":{"type":"Point","coordinates":[-43.271927,-22.879276]}},{"type":"Feature","properties":{"osm_id":"712849002","station_name":"Maria da Graça","element_type":"node","station_id":"712849002"},"geometry":{"type":"Point","coordinates":[-43.260188,-22.881494]}},{"type":"Feature","properties":{"osm_id":"712849014","station_name":"Triagem","element_type":"node","station_id":"712849014"},"geometry":{"type":"Point","coordinates":[-43.244478,-22.896855]}},{"type":"Feature","properties":{"osm_id":"712849010","station_name":"Maracanã","element_type":"node","station_id":"712849010"},"geometry":{"type":"Point","coordinates":[-43.23389,-22.909716]}},{"type":"Feature","properties":{"osm_id":"712849019","station_name":"São Cristóvão","element_type":"node","station_id":"712849019"},"geometry":{"type":"Point","coordinates":[-43.220994,-22.909693]}},{"type":"Feature","properties":{"osm_id":"974274513","station_name":"Cidade Nova","element_type":"node","station_id":"974274513"},"geometry":{"type":"Point","coordinates":[-43.206298,-22.908746]}},{"type":"Feature","properties":{"osm_id":"712849025","station_name":"Central do Brasil / Centro","element_type":"node","station_id":"CTR"},"geometry":{"type":"Point","coordinates":[-43.190782,-22.905038]}},{"type":"Feature","properties":{"osm_id":"2726866239","station_name":"Saara / Presidente Vargas","element_type":"node","station_id":"2726866239"},"geometry":{"type":"Point","coordinates":[-43.18618,-22.903341]}},{"type":"Feature","properties":{"osm_id":"5284484734","station_name":"Uruguaiana / Engenheiro Fernando Mac Dowell","element_type":"node","station_id":"5284484734"},"geometry":{"type":"Point","coordinates":[-43.181819,-22.902909]}},{"type":"Feature","properties":{"osm_id":"9908441600","station_name":"Carioca","element_type":"node","station_id":"9908441600"},"geometry":{"type":"Point","coordinates":[-43.178076,-22.907562]}},{"type":"Feature","properties":{"osm_id":"712849094","station_name":"Cinelândia / Centro","element_type":"node","station_id":"712849094"},"geometry":{"type":"Point","coordinates":[-43.175653,-22.910906]}},{"type":"Feature","properties":{"osm_id":"180337351","station_name":"Glória","element_type":"node","station_id":"180337351"},"geometry":{"type":"Point","coordinates":[-43.176656,-22.920648]}},{"type":"Feature","properties":{"osm_id":"332517552","station_name":"Catete","element_type":"node","station_id":"332517552"},"geometry":{"type":"Point","coordinates":[-43.17655,-22.925955]}},{"type":"Feature","properties":{"osm_id":"712849086","station_name":"Largo do Machado","element_type":"node","station_id":"712849086"},"geometry":{"type":"Point","coordinates":[-43.177684,-22.931175]}},{"type":"Feature","properties":{"osm_id":"9113671311","station_name":"Flamengo","element_type":"node","station_id":"9113671311"},"geometry":{"type":"Point","coordinates":[-43.178533,-22.937199]}},{"type":"Feature","properties":{"osm_id":"9861438983","station_name":"Botafogo","element_type":"node","station_id":"9861438983"},"geometry":{"type":"Point","coordinates":[-43.184223,-22.950364]}},{"type":"Feature","properties":{"osm_id":"13811700529","station_name":"Uruguai / Tijuca","element_type":"node","station_id":"13811700529"},"geometry":{"type":"Point","coordinates":[-43.23827,-22.930941]}},{"type":"Feature","properties":{"osm_id":"13811686263","station_name":"Saens Peña / Tijuca","element_type":"node","station_id":"13811686263"},"geometry":{"type":"Point","coordinates":[-43.232592,-22.924141]}},{"type":"Feature","properties":{"osm_id":"13811793114","station_name":"São Francisco Xavier / Tijuca","element_type":"node","station_id":"13811793114"},"geometry":{"type":"Point","coordinates":[-43.223833,-22.920835]}},{"type":"Feature","properties":{"osm_id":"13811700578","station_name":"Afonso Pena / Tijuca","element_type":"node","station_id":"13811700578"},"geometry":{"type":"Point","coordinates":[-43.217745,-22.918448]}},{"type":"Feature","properties":{"osm_id":"13811793276","station_name":"Estácio","element_type":"node","station_id":"13811793276"},"geometry":{"type":"Point","coordinates":[-43.206452,-22.913635]}},{"type":"Feature","properties":{"osm_id":"13811827414","station_name":"Praça Onze","element_type":"node","station_id":"13811827414"},"geometry":{"type":"Point","coordinates":[-43.200283,-22.909917]}},{"type":"Feature","properties":{"osm_id":"9797521429","station_name":"Cardeal Arcoverde - Sentido Gen. Osório / Jd. Oceânico","element_type":"node","station_id":"9797521429"},"geometry":{"type":"Point","coordinates":[-43.181406,-22.963811]}},{"type":"Feature","properties":{"osm_id":"9797521426","station_name":"Siqueira Campos / Copacabana - Sentido Gen. Osório / Jd. Ocêanico","element_type":"node","station_id":"9797521426"},"geometry":{"type":"Point","coordinates":[-43.187368,-22.967292]}},{"type":"Feature","properties":{"osm_id":"9797521424","station_name":"Cantagalo / Copacabana - Sentido Gen. Osório / Jd. Oceânico","element_type":"node","station_id":"9797521424"},"geometry":{"type":"Point","coordinates":[-43.194505,-22.975675]}},{"type":"Feature","properties":{"osm_id":"4804770898","station_name":"General Osório / Ipanema","element_type":"node","station_id":"IGO"},"geometry":{"type":"Point","coordinates":[-43.196559,-22.981546]}},{"type":"Feature","properties":{"osm_id":"11154678032","station_name":"Nossa Senhora da Paz / Ipanema","element_type":"node","station_id":"11154678032"},"geometry":{"type":"Point","coordinates":[-43.206664,-22.983988]}},{"type":"Feature","properties":{"osm_id":"11154525559","station_name":"Jardim de Alah / Leblon","element_type":"node","station_id":"11154525559"},"geometry":{"type":"Point","coordinates":[-43.216582,-22.983658]}},{"type":"Feature","properties":{"osm_id":"11154570254","station_name":"Antero de Quental / Leblon","element_type":"node","station_id":"11154570254"},"geometry":{"type":"Point","coordinates":[-43.224312,-22.984685]}},{"type":"Feature","properties":{"osm_id":"11154498636","station_name":"São Conrado","element_type":"node","station_id":"11154498636"},"geometry":{"type":"Point","coordinates":[-43.255585,-22.99135]}},{"type":"Feature","properties":{"osm_id":"5302148205","station_name":"Jardim Oceânico / Barra da Tijuca","element_type":"node","station_id":"5302148205"},"geometry":{"type":"Point","coordinates":[-43.310953,-23.006803]}},{"type":"Feature","properties":{"osm_id":"11157700238","station_name":"Cosme Velho","element_type":"node","station_id":"11157700238"},"geometry":{"type":"Point","coordinates":[-43.198549,-22.940924]}},{"type":"Feature","properties":{"osm_id":"745762499","station_name":"Morro do Inglês","element_type":"node","station_id":"745762499"},"geometry":{"type":"Point","coordinates":[-43.202813,-22.946572]}},{"type":"Feature","properties":{"osm_id":"11157706552","station_name":"Paineiras","element_type":"node","station_id":"11157706552"},"geometry":{"type":"Point","coordinates":[-43.217414,-22.946601]}},{"type":"Feature","properties":{"osm_id":"745762402","station_name":"Cristo Redentor","element_type":"node","station_id":"745762402"},"geometry":{"type":"Point","coordinates":[-43.210694,-22.951754]}}]}