{"type":"FeatureCollection","generator":"metroOsmFetch (OpenStreetMap / Overpass, ODbL)","features":[{"type":"Feature","properties":{"route_company":"Companhia do Metropolitano de São Paulo","route_id":"1","element_type":"way","color":"#1266af","route_name":"Linha 1 - Azul: Jabaquara ⇒ Tucuruvi","osm_id":"2144052","railway":"subway","status":"open"},"geometry":{"type":"LineString","coordinates":[[-46.603284,-23.48005],[-46.609073,-23.487449],[-46.617169,-23.492358],[-46.624799,-23.503054],[-46.624967,-23.509162],[-46.625201,-23.516546],[-46.62939,-23.525468],[-46.632343,-23.530914],[-46.634147,-23.53665],[-46.634172,-23.544102],[-46.632946,-23.550682],[-46.635765,-23.554961],[-46.63863,-23.56162],[-46.639935,-23.568705],[-46.640839,-23.575325],[-46.638416,-23.581377],[-46.634686,-23.589183],[-46.636971,-23.598791],[-46.637935,-23.610439],[-46.639204,-23.618224],[-46.640935,-23.625789],[-46.641313,-23.634989],[-46.641064,-23.646343]]}},{"type":"Feature","properties":{"route_company":"Companhia do Metropolitano de São Paulo","route_id":"3","element_type":"way","color":"#ef3f32","route_name":"Linha 3 - Vermelha: Palmeiras - Barra Funda ⇒ Corinthians - Itaquera","osm_id":"419274","railway":"subway","status":"open"},"geometry":{"type":"LineString","coordinates":[[-46.667457,-23.526028],[-46.655783,-23.533911],[-46.648974,-23.539339],[-46.642833,-23.544071],[-46.639031,-23.548009],[-46.632946,-23.550682],[-46.625936,-23.549722],[-46.615797,-23.547921],[-46.607036,-23.546412],[-46.58953,-23.542976],[-46.576447,-23.54055],[-46.56426,-23.537936],[-46.542487,-23.533591],[-46.530869,-23.531961],[-46.516604,-23.529401],[-46.501561,-23.531185],[-46.484718,-23.540306],[-46.471073,-23.542341]]}},{"type":"Feature","properties":{"route_company":"ViaMobilidade Linhas 5 e 17","route_id":"5","element_type":"way","color":"#9200c3","route_name":"Linha 5 - Lilás: Capão Redondo → Chácara Klabin","osm_id":"419266","railway":"subway","status":"open"},"geometry":{"type":"LineString","coordinates":[[-46.767753,-23.658859],[-46.758729,-23.64888],[-46.745769,-23.640283],[-46.733728,-23.644042],[-46.720918,-23.655686],[-46.710118,-23.654472],[-46.704191,-23.650078],[-46.699169,-23.641295],[-46.692868,-23.633555],[-46.687943,-23.626642],[-46.68287,-23.618588],[-46.668511,-23.60976],[-46.662175,-23.603856],[-46.65231,-23.597846],[-46.645571,-23.598208],[-46.636971,-23.598791],[-46.630766,-23.592668]]}},{"type":"Feature","properties":{"route_company":"Companhia do Metropolitano de São Paulo","route_id":"2","element_type":"way","color":"#008162","route_name":"Linha 2 - Verde: Vila Prudente ⇒ Vila Madalena","osm_id":"419276","railway":"subway","status":"open"},"geometry":{"type":"LineString","coordinates":[[-46.582896,-23.584404],[-46.589572,-23.592793],[-46.602582,-23.601262],[-46.61246,-23.602206],[-46.620952,-23.59574],[-46.630766,-23.592668],[-46.638416,-23.581377],[-46.640839,-23.575325],[-46.647684,-23.568544],[-46.654185,-23.563242],[-46.660493,-23.557735],[-46.67095,-23.553978],[-46.677662,-23.550945],[-46.690778,-23.546428]]}},{"type":"Feature","properties":{"route_company":"ViaQuatro","route_id":"4","element_type":"way","color":"#ffd700","route_name":"Linha 4 - Amarela: Luz → Vila Sônia","osm_id":"419281","railway":"subway","status":"open"},"geometry":{"type":"LineString","coordinates":[[-46.634147,-23.53665],[-46.642833,-23.544071],[-46.652302,-23.548945],[-46.662312,-23.555221],[-46.671959,-23.560676],[-46.684185,-23.56622],[-46.694024,-23.567203],[-46.701952,-23.567215],[-46.708093,-23.571819],[-46.723814,-23.58622],[-46.734817,-23.593419]]}},{"type":"Feature","properties":{"route_company":"Companhia do Metropolitano de São Paulo","route_id":"15","element_type":"way","color":"#7b9192","route_name":"Linha 15 - Prata: Jardim Colonial → Vila Prudente","osm_id":"5887353","railway":"monorail","status":"open"},"geometry":{"type":"LineString","coordinates":[[-46.469132,-23.59915],[-46.477328,-23.612154],[-46.487833,-23.612064],[-46.501303,-23.614722],[-46.507845,-23.60616],[-46.515922,-23.602867],[-46.527341,-23.600669],[-46.537585,-23.595435],[-46.544594,-23.588911],[-46.561861,-23.582105],[-46.582896,-23.584404]]}},{"type":"Feature","properties":{"route_company":"ViaMobilidade Linhas 5 e 17","route_id":"17","element_type":"way","color":"#de7c00","route_name":"Linha 17 - Ouro: Aeroporto de Congonhas → Morumbi","osm_id":"20402218","railway":"monorail","status":"open"},"geometry":{"type":"LineString","coordinates":[[-46.662013,-23.627158],[-46.673694,-23.629371],[-46.678995,-23.621865],[-46.68287,-23.618588],[-46.688783,-23.615459],[-46.695729,-23.613896],[-46.70298,-23.62254]]}},{"type":"Feature","properties":{"route_company":"GRU Airport","route_id":"20404887","element_type":"way","color":"#9a6324","route_name":"Aeromóvel GRU: CPTM → TPS3","osm_id":"20404887","railway":"light_rail","status":"open"},"geometry":{"type":"LineString","coordinates":[[-46.492535,-23.432571],[-46.490221,-23.429492],[-46.481753,-23.425864],[-46.477086,-23.42284]]}},{"type":"Feature","properties":{"osm_id":"2736447263","station_name":"Tucuruvi","element_type":"node","station_id":"TUC"},"geometry":{"type":"Point","coordinates":[-46.603284,-23.48005]}},{"type":"Feature","properties":{"osm_id":"2736447249","station_name":"Parada Inglesa","element_type":"node","station_id":"PIG"},"geometry":{"type":"Point","coordinates":[-46.609073,-23.487449]}},{"type":"Feature","properties":{"osm_id":"2736447237","station_name":"Jardim São Paulo - Ayrton Senna","element_type":"node","station_id":"JPA"},"geometry":{"type":"Point","coordinates":[-46.617169,-23.492358]}},{"type":"Feature","properties":{"osm_id":"2736447255","station_name":"Santana","element_type":"node","station_id":"SAN"},"geometry":{"type":"Point","coordinates":[-46.624799,-23.503054]}},{"type":"Feature","properties":{"osm_id":"2736447222","station_name":"Carandiru","element_type":"node","station_id":"CDU"},"geometry":{"type":"Point","coordinates":[-46.624967,-23.509162]}},{"type":"Feature","properties":{"osm_id":"2736447252","station_name":"Portuguesa - Tietê","element_type":"node","station_id":"TTE"},"geometry":{"type":"Point","coordinates":[-46.625201,-23.516546]}},{"type":"Feature","properties":{"osm_id":"2736447216","station_name":"Armênia","element_type":"node","station_id":"PPQ"},"geometry":{"type":"Point","coordinates":[-46.62939,-23.525468]}},{"type":"Feature","properties":{"osm_id":"2736447262","station_name":"Tiradentes","element_type":"node","station_id":"TRD"},"geometry":{"type":"Point","coordinates":[-46.632343,-23.530914]}},{"type":"Feature","properties":{"osm_id":"2736447248","station_name":"Luz","element_type":"node","station_id":"LUZ"},"geometry":{"type":"Point","coordinates":[-46.634147,-23.53665]}},{"type":"Feature","properties":{"osm_id":"2736447258","station_name":"São Bento","element_type":"node","station_id":"BTO"},"geometry":{"type":"Point","coordinates":[-46.634172,-23.544102]}},{"type":"Feature","properties":{"osm_id":"2736447261","station_name":"Sé","element_type":"node","station_id":"PSE"},"geometry":{"type":"Point","coordinates":[-46.632946,-23.550682]}},{"type":"Feature","properties":{"osm_id":"2736447242","station_name":"Japão - Liberdade","element_type":"node","station_id":"LIB"},"geometry":{"type":"Point","coordinates":[-46.635765,-23.554961]}},{"type":"Feature","properties":{"osm_id":"2736447256","station_name":"São Joaquim","element_type":"node","station_id":"JQM"},"geometry":{"type":"Point","coordinates":[-46.63863,-23.56162]}},{"type":"Feature","properties":{"osm_id":"2736447264","station_name":"Vergueiro","element_type":"node","station_id":"VGO"},"geometry":{"type":"Point","coordinates":[-46.639935,-23.568705]}},{"type":"Feature","properties":{"osm_id":"2736447251","station_name":"Paraíso","element_type":"node","station_id":"PSO"},"geometry":{"type":"Point","coordinates":[-46.640839,-23.575325]}},{"type":"Feature","properties":{"osm_id":"2736447207","station_name":"Ana Rosa","element_type":"node","station_id":"ANR"},"geometry":{"type":"Point","coordinates":[-46.638416,-23.581377]}},{"type":"Feature","properties":{"osm_id":"2736447265","station_name":"Vila Mariana","element_type":"node","station_id":"VMN"},"geometry":{"type":"Point","coordinates":[-46.634686,-23.589183]}},{"type":"Feature","properties":{"osm_id":"2736447254","station_name":"Santa Cruz","element_type":"node","station_id":"SCZ"},"geometry":{"type":"Point","coordinates":[-46.636971,-23.598791]}},{"type":"Feature","properties":{"osm_id":"2736447253","station_name":"Praça da Árvore","element_type":"node","station_id":"ARV"},"geometry":{"type":"Point","coordinates":[-46.637935,-23.610439]}},{"type":"Feature","properties":{"osm_id":"2736447257","station_name":"Saúde – Ultrafarma","element_type":"node","station_id":"SAU"},"geometry":{"type":"Point","coordinates":[-46.639204,-23.618224]}},{"type":"Feature","properties":{"osm_id":"2736447259","station_name":"São Judas","element_type":"node","station_id":"JUD"},"geometry":{"type":"Point","coordinates":[-46.640935,-23.625789]}},{"type":"Feature","properties":{"osm_id":"2736447227","station_name":"Conceição","element_type":"node","station_id":"CON"},"geometry":{"type":"Point","coordinates":[-46.641313,-23.634989]}},{"type":"Feature","properties":{"osm_id":"2736447232","station_name":"Jabaquara","element_type":"node","station_id":"JAB"},"geometry":{"type":"Point","coordinates":[-46.641064,-23.646343]}},{"type":"Feature","properties":{"osm_id":"1700896613","station_name":"Palmeiras - Barra Funda","element_type":"node","station_id":"1700896613"},"geometry":{"type":"Point","coordinates":[-46.667457,-23.526028]}},{"type":"Feature","properties":{"osm_id":"175995653","station_name":"Marechal Deodoro","element_type":"node","station_id":"175995653"},"geometry":{"type":"Point","coordinates":[-46.655783,-23.533911]}},{"type":"Feature","properties":{"osm_id":"175688340","station_name":"Santa Cecília","element_type":"node","station_id":"175688340"},"geometry":{"type":"Point","coordinates":[-46.648974,-23.539339]}},{"type":"Feature","properties":{"osm_id":"2487413802","station_name":"República","element_type":"node","station_id":"2487413802"},"geometry":{"type":"Point","coordinates":[-46.642833,-23.544071]}},{"type":"Feature","properties":{"osm_id":"175684361","station_name":"Anhangabaú","element_type":"node","station_id":"175684361"},"geometry":{"type":"Point","coordinates":[-46.639031,-23.548009]}},{"type":"Feature","properties":{"osm_id":"173997509","station_name":"Pedro II","element_type":"node","station_id":"173997509"},"geometry":{"type":"Point","coordinates":[-46.625936,-23.549722]}},{"type":"Feature","properties":{"osm_id":"173997515","station_name":"Brás","element_type":"node","station_id":"173997515"},"geometry":{"type":"Point","coordinates":[-46.615797,-23.547921]}},{"type":"Feature","properties":{"osm_id":"2249399085","station_name":"Bresser-Mooca","element_type":"node","station_id":"2249399085"},"geometry":{"type":"Point","coordinates":[-46.607036,-23.546412]}},{"type":"Feature","properties":{"osm_id":"173995296","station_name":"Belém","element_type":"node","station_id":"173995296"},"geometry":{"type":"Point","coordinates":[-46.58953,-23.542976]}},{"type":"Feature","properties":{"osm_id":"173992082","station_name":"Tatuapé","element_type":"node","station_id":"173992082"},"geometry":{"type":"Point","coordinates":[-46.576447,-23.54055]}},{"type":"Feature","properties":{"osm_id":"173978268","station_name":"Carrão – Assaí Atacadista","element_type":"node","station_id":"173978268"},"geometry":{"type":"Point","coordinates":[-46.56426,-23.537936]}},{"type":"Feature","properties":{"osm_id":"173978278","station_name":"Penha - Lojas Besni","element_type":"node","station_id":"173978278"},"geometry":{"type":"Point","coordinates":[-46.542487,-23.533591]}},{"type":"Feature","properties":{"osm_id":"173978287","station_name":"Vila Matilde","element_type":"node","station_id":"173978287"},"geometry":{"type":"Point","coordinates":[-46.530869,-23.531961]}},{"type":"Feature","properties":{"osm_id":"173978296","station_name":"Guilhermina-Esperança","element_type":"node","station_id":"173978296"},"geometry":{"type":"Point","coordinates":[-46.516604,-23.529401]}},{"type":"Feature","properties":{"osm_id":"173978308","station_name":"Patriarca • Vila Ré","element_type":"node","station_id":"173978308"},"geometry":{"type":"Point","coordinates":[-46.501561,-23.531185]}},{"type":"Feature","properties":{"osm_id":"173978322","station_name":"Artur Alvim","element_type":"node","station_id":"173978322"},"geometry":{"type":"Point","coordinates":[-46.484718,-23.540306]}},{"type":"Feature","properties":{"osm_id":"173981565","station_name":"Corinthians-Itaquera","element_type":"node","station_id":"173981565"},"geometry":{"type":"Point","coordinates":[-46.471073,-23.542341]}},{"type":"Feature","properties":{"osm_id":"181763110","station_name":"Capão Redondo","element_type":"node","station_id":"181763110"},"geometry":{"type":"Point","coordinates":[-46.767753,-23.658859]}},{"type":"Feature","properties":{"osm_id":"181763124","station_name":"Campo Limpo","element_type":"node","station_id":"181763124"},"geometry":{"type":"Point","coordinates":[-46.758729,-23.64888]}},{"type":"Feature","properties":{"osm_id":"181763144","station_name":"Vila das Belezas","element_type":"node","station_id":"181763144"},"geometry":{"type":"Point","coordinates":[-46.745769,-23.640283]}},{"type":"Feature","properties":{"osm_id":"181763161","station_name":"Giovanni Gronchi","element_type":"node","station_id":"181763161"},"geometry":{"type":"Point","coordinates":[-46.733728,-23.644042]}},{"type":"Feature","properties":{"osm_id":"181763188","station_name":"Santo Amaro","element_type":"node","station_id":"181763188"},"geometry":{"type":"Point","coordinates":[-46.720918,-23.655686]}},{"type":"Feature","properties":{"osm_id":"656064495","station_name":"Largo Treze","element_type":"node","station_id":"656064495"},"geometry":{"type":"Point","coordinates":[-46.710118,-23.654472]}},{"type":"Feature","properties":{"osm_id":"4324789214","station_name":"Adolfo Pinheiro","element_type":"node","station_id":"4324789214"},"geometry":{"type":"Point","coordinates":[-46.704191,-23.650078]}},{"type":"Feature","properties":{"osm_id":"4968320186","station_name":"Alto da Boa Vista","element_type":"node","station_id":"4968320186"},"geometry":{"type":"Point","coordinates":[-46.699169,-23.641295]}},{"type":"Feature","properties":{"osm_id":"4968320189","station_name":"Borba Gato","element_type":"node","station_id":"4968320189"},"geometry":{"type":"Point","coordinates":[-46.692868,-23.633555]}},{"type":"Feature","properties":{"osm_id":"4968320192","station_name":"Brooklin","element_type":"node","station_id":"4968320192"},"geometry":{"type":"Point","coordinates":[-46.687943,-23.626642]}},{"type":"Feature","properties":{"osm_id":"5086228494","station_name":"Campo Belo","element_type":"node","station_id":"5086228494"},"geometry":{"type":"Point","coordinates":[-46.68287,-23.618588]}},{"type":"Feature","properties":{"osm_id":"5086228504","station_name":"Eucaliptos","element_type":"node","station_id":"5086228504"},"geometry":{"type":"Point","coordinates":[-46.668511,-23.60976]}},{"type":"Feature","properties":{"osm_id":"5086228506","station_name":"Moema","element_type":"node","station_id":"5086228506"},"geometry":{"type":"Point","coordinates":[-46.662175,-23.603856]}},{"type":"Feature","properties":{"osm_id":"5086228508","station_name":"AACD – Servidor","element_type":"node","station_id":"5086228508"},"geometry":{"type":"Point","coordinates":[-46.65231,-23.597846]}},{"type":"Feature","properties":{"osm_id":"5086228483","station_name":"Hospital São Paulo","element_type":"node","station_id":"5086228483"},"geometry":{"type":"Point","coordinates":[-46.645571,-23.598208]}},{"type":"Feature","properties":{"osm_id":"5086228492","station_name":"Chácara Klabin","element_type":"node","station_id":"5086228492"},"geometry":{"type":"Point","coordinates":[-46.630766,-23.592668]}},{"type":"Feature","properties":{"osm_id":"922094750","station_name":"Vila Prudente","element_type":"node","station_id":"922094750"},"geometry":{"type":"Point","coordinates":[-46.582896,-23.584404]}},{"type":"Feature","properties":{"osm_id":"2281353319","station_name":"Tamanduateí","element_type":"node","station_id":"TTI"},"geometry":{"type":"Point","coordinates":[-46.589572,-23.592793]}},{"type":"Feature","properties":{"osm_id":"661582968","station_name":"Sacomã","element_type":"node","station_id":"661582968"},"geometry":{"type":"Point","coordinates":[-46.602582,-23.601262]}},{"type":"Feature","properties":{"osm_id":"661582972","station_name":"Alto do Ipiranga","element_type":"node","station_id":"661582972"},"geometry":{"type":"Point","coordinates":[-46.61246,-23.602206]}},{"type":"Feature","properties":{"osm_id":"661582976","station_name":"Santos - Imigrantes","element_type":"node","station_id":"661582976"},"geometry":{"type":"Point","coordinates":[-46.620952,-23.59574]}},{"type":"Feature","properties":{"osm_id":"605663479","station_name":"Brigadeiro","element_type":"node","station_id":"605663479"},"geometry":{"type":"Point","coordinates":[-46.647684,-23.568544]}},{"type":"Feature","properties":{"osm_id":"605663490","station_name":"Trianon-Masp","element_type":"node","station_id":"605663490"},"geometry":{"type":"Point","coordinates":[-46.654185,-23.563242]}},{"type":"Feature","properties":{"osm_id":"605663530","station_name":"Consolação","element_type":"node","station_id":"605663530"},"geometry":{"type":"Point","coordinates":[-46.660493,-23.557735]}},{"type":"Feature","properties":{"osm_id":"605663555","station_name":"Clínicas","element_type":"node","station_id":"605663555"},"geometry":{"type":"Point","coordinates":[-46.67095,-23.553978]}},{"type":"Feature","properties":{"osm_id":"605663569","station_name":"Santuário Nossa Senhora de Fátima - Sumaré","element_type":"node","station_id":"SUM"},"geometry":{"type":"Point","coordinates":[-46.677662,-23.550945]}},{"type":"Feature","properties":{"osm_id":"2736907863","station_name":"Vila Madalena","element_type":"node","station_id":"VMD"},"geometry":{"type":"Point","coordinates":[-46.690778,-23.546428]}},{"type":"Feature","properties":{"osm_id":"656071074","station_name":"Higienópolis-Mackenzie (Linha 4)","element_type":"node","station_id":"656071074"},"geometry":{"type":"Point","coordinates":[-46.652302,-23.548945]}},{"type":"Feature","properties":{"osm_id":"656072831","station_name":"Paulista - Pernambucanas","element_type":"node","station_id":"656072831"},"geometry":{"type":"Point","coordinates":[-46.662312,-23.555221]}},{"type":"Feature","properties":{"osm_id":"2751703402","station_name":"Oscar Freire","element_type":"node","station_id":"2751703402"},"geometry":{"type":"Point","coordinates":[-46.671959,-23.560676]}},{"type":"Feature","properties":{"osm_id":"2751703381","station_name":"Fradique Coutinho","element_type":"node","station_id":"2751703381"},"geometry":{"type":"Point","coordinates":[-46.684185,-23.56622]}},{"type":"Feature","properties":{"osm_id":"926616651","station_name":"Faria Lima","element_type":"node","station_id":"926616651"},"geometry":{"type":"Point","coordinates":[-46.694024,-23.567203]}},{"type":"Feature","properties":{"osm_id":"1403755988","station_name":"Pinheiros","element_type":"node","station_id":"1403755988"},"geometry":{"type":"Point","coordinates":[-46.701952,-23.567215]}},{"type":"Feature","properties":{"osm_id":"1403755994","station_name":"Butantã","element_type":"node","station_id":"1403755994"},"geometry":{"type":"Point","coordinates":[-46.708093,-23.571819]}},{"type":"Feature","properties":{"osm_id":"4531084492","station_name":"São Paulo – Morumbi","element_type":"node","station_id":"4531084492"},"geometry":{"type":"Point","coordinates":[-46.723814,-23.58622]}},{"type":"Feature","properties":{"osm_id":"9225333090","station_name":"Vila Sônia - Professora Elizabeth Tenreiro","element_type":"node","station_id":"9225333090"},"geometry":{"type":"Point","coordinates":[-46.734817,-23.593419]}},{"type":"Feature","properties":{"osm_id":"8428935134","station_name":"Jardim Colonial","element_type":"node","station_id":"8428935134"},"geometry":{"type":"Point","coordinates":[-46.469132,-23.59915]}},{"type":"Feature","properties":{"osm_id":"4439833384","station_name":"São Mateus","element_type":"node","station_id":"4439833384"},"geometry":{"type":"Point","coordinates":[-46.477328,-23.612154]}},{"type":"Feature","properties":{"osm_id":"7058843471","station_name":"Fazenda da Juta","element_type":"node","station_id":"7058843471"},"geometry":{"type":"Point","coordinates":[-46.487833,-23.612064]}},{"type":"Feature","properties":{"osm_id":"7058843482","station_name":"Sapopemba","element_type":"node","station_id":"7058843482"},"geometry":{"type":"Point","coordinates":[-46.501303,-23.614722]}},{"type":"Feature","properties":{"osm_id":"6764734911","station_name":"Jardim Planalto","element_type":"node","station_id":"6764734911"},"geometry":{"type":"Point","coordinates":[-46.507845,-23.60616]}},{"type":"Feature","properties":{"osm_id":"5070450421","station_name":"Vila União","element_type":"node","station_id":"5070450421"},"geometry":{"type":"Point","coordinates":[-46.515922,-23.602867]}},{"type":"Feature","properties":{"osm_id":"5070450437","station_name":"Vila Tolstói","element_type":"node","station_id":"5070450437"},"geometry":{"type":"Point","coordinates":[-46.527341,-23.600669]}},{"type":"Feature","properties":{"osm_id":"5070450452","station_name":"Camilo Haddad","element_type":"node","station_id":"5070450452"},"geometry":{"type":"Point","coordinates":[-46.537585,-23.595435]}},{"type":"Feature","properties":{"osm_id":"5070446538","station_name":"São Lucas","element_type":"node","station_id":"5070446538"},"geometry":{"type":"Point","coordinates":[-46.544594,-23.588911]}},{"type":"Feature","properties":{"osm_id":"5070441405","station_name":"Oratório","element_type":"node","station_id":"5070441405"},"geometry":{"type":"Point","coordinates":[-46.561861,-23.582105]}},{"type":"Feature","properties":{"osm_id":"2790877223","station_name":"Aeroporto de Congonhas","element_type":"node","station_id":"2790877223"},"geometry":{"type":"Point","coordinates":[-46.662013,-23.627158]}},{"type":"Feature","properties":{"osm_id":"6291995577","station_name":"Brooklin Paulista","element_type":"node","station_id":"6291995577"},"geometry":{"type":"Point","coordinates":[-46.673694,-23.629371]}},{"type":"Feature","properties":{"osm_id":"6291995553","station_name":"Vereador José Diniz","element_type":"node","station_id":"6291995553"},"geometry":{"type":"Point","coordinates":[-46.678995,-23.621865]}},{"type":"Feature","properties":{"osm_id":"6291995531","station_name":"Vila Cordeiro","element_type":"node","station_id":"6291995531"},"geometry":{"type":"Point","coordinates":[-46.688783,-23.615459]}},{"type":"Feature","properties":{"osm_id":"6291995510","station_name":"Chucri Zaidan","element_type":"node","station_id":"6291995510"},"geometry":{"type":"Point","coordinates":[-46.695729,-23.613896]}},{"type":"Feature","properties":{"osm_id":"6370302350","station_name":"Morumbi","element_type":"node","station_id":"1"},"geometry":{"type":"Point","coordinates":[-46.70298,-23.62254]}},{"type":"Feature","properties":{"osm_id":"12705334933","station_name":"GRU CPTM","element_type":"node","station_id":"12705334933"},"geometry":{"type":"Point","coordinates":[-46.492535,-23.432571]}},{"type":"Feature","properties":{"osm_id":"9718893171","station_name":"GRU TPS1","element_type":"node","station_id":"9718893171"},"geometry":{"type":"Point","coordinates":[-46.490221,-23.429492]}},{"type":"Feature","properties":{"osm_id":"9718962717","station_name":"GRU TPS2","element_type":"node","station_id":"9718962717"},"geometry":{"type":"Point","coordinates":[-46.481753,-23.425864]}},{"type":"Feature","properties":{"osm_id":"9718962718","station_name":"GRU TPS3","element_type":"node","station_id":"9718962718"},"geometry":{"type":"Point","coordinates":[-46.477086,-23.42284]}}]}