{"type":"FeatureCollection","generator":"metroOsmFetch (OpenStreetMap / Overpass, ODbL)","features":[{"type":"Feature","properties":{"route_company":"Companhia do Metropolitano de São Paulo","route_id":"1","element_type":"way","color":"#1266af","route_name":"Linha 1 - Azul: Jabaquara ⇒ Tucuruvi","osm_id":"2144052","railway":"subway","status":"open"},"geometry":{"type":"LineString","coordinates":[[-46.603267,-23.480066],[-46.608835,-23.486975],[-46.617107,-23.49242],[-46.624759,-23.502561],[-46.624948,-23.509163],[-46.625164,-23.516093],[-46.629372,-23.525486],[-46.632241,-23.530938],[-46.634107,-23.536658],[-46.634172,-23.544102],[-46.632894,-23.550615],[-46.635741,-23.554958],[-46.638608,-23.561587],[-46.639918,-23.568708],[-46.640854,-23.575342],[-46.638427,-23.581363],[-46.634669,-23.589186],[-46.636962,-23.598785],[-46.637918,-23.610439],[-46.639187,-23.618228],[-46.640918,-23.625794],[-46.641296,-23.634987],[-46.641047,-23.64634]]}},{"type":"Feature","properties":{"route_company":"Companhia do Metropolitano de São Paulo","route_id":"3","element_type":"way","color":"#ef3f32","route_name":"Linha 3 - Vermelha: Palmeiras - Barra Funda ⇒ Corinthians - Itaquera","osm_id":"419274","railway":"subway","status":"open"},"geometry":{"type":"LineString","coordinates":[[-46.667455,-23.525988],[-46.655783,-23.533911],[-46.648954,-23.539324],[-46.642792,-23.544067],[-46.639014,-23.547973],[-46.632894,-23.550615],[-46.62594,-23.549694],[-46.615806,-23.547848],[-46.607053,-23.546344],[-46.58955,-23.542895],[-46.576463,-23.540482],[-46.56428,-23.537871],[-46.542508,-23.533518],[-46.530851,-23.531896],[-46.516642,-23.529336],[-46.501521,-23.531124],[-46.484671,-23.540255],[-46.471082,-23.542274]]}},{"type":"Feature","properties":{"route_company":"ViaMobilidade Linhas 5 e 17","route_id":"5","element_type":"way","color":"#9200c3","route_name":"Linha 5 - Lilás: Capão Redondo → Chácara Klabin","osm_id":"419266","railway":"subway","status":"open"},"geometry":{"type":"LineString","coordinates":[[-46.76805,-23.659253],[-46.75898,-23.649268],[-46.745796,-23.640272],[-46.734038,-23.643963],[-46.720918,-23.655668],[-46.710121,-23.65445],[-46.704206,-23.650072],[-46.699532,-23.641811],[-46.692896,-23.633525],[-46.688293,-23.62708],[-46.682823,-23.618657],[-46.66853,-23.609739],[-46.662193,-23.603839],[-46.652305,-23.597823],[-46.645567,-23.598191],[-46.636962,-23.598785],[-46.63081,-23.592703]]}},{"type":"Feature","properties":{"route_company":"Companhia do Metropolitano de São Paulo","route_id":"2","element_type":"way","color":"#008162","route_name":"Linha 2 - Verde: Vila Prudente ⇒ Vila Madalena","osm_id":"419276","railway":"subway","status":"open"},"geometry":{"type":"LineString","coordinates":[[-46.582684,-23.584526],[-46.58955,-23.592814],[-46.602576,-23.601284],[-46.612529,-23.602248],[-46.620647,-23.595939],[-46.63081,-23.592703],[-46.638427,-23.581363],[-46.640854,-23.575342],[-46.647728,-23.568612],[-46.654229,-23.563299],[-46.660543,-23.557803],[-46.670944,-23.553996],[-46.677677,-23.550965],[-46.690793,-23.546443]]}},{"type":"Feature","properties":{"route_company":"ViaQuatro","route_id":"4","element_type":"way","color":"#ffd700","route_name":"Linha 4 - Amarela: Luz → Vila Sônia","osm_id":"419281","railway":"subway","status":"open"},"geometry":{"type":"LineString","coordinates":[[-46.634107,-23.536658],[-46.642792,-23.544067],[-46.652293,-23.548954],[-46.662291,-23.55525],[-46.67194,-23.560706],[-46.684171,-23.566252],[-46.694031,-23.567237],[-46.701945,-23.56725],[-46.708064,-23.57184],[-46.723805,-23.586244],[-46.734809,-23.593434]]}},{"type":"Feature","properties":{"route_company":"Companhia do Metropolitano de São Paulo","route_id":"15","element_type":"way","color":"#7b9192","route_name":"Linha 15 - Prata: Jardim Colonial → Vila Prudente","osm_id":"5887353","railway":"monorail","status":"open"},"geometry":{"type":"LineString","coordinates":[[-46.469072,-23.599206],[-46.477294,-23.612283],[-46.487464,-23.6118],[-46.500835,-23.614699],[-46.507643,-23.606526],[-46.515541,-23.602964],[-46.527344,-23.600743],[-46.537607,-23.595497],[-46.544636,-23.588935],[-46.561841,-23.582146],[-46.582684,-23.584526]]}},{"type":"Feature","properties":{"route_company":"ViaMobilidade Linhas 5 e 17","route_id":"17","element_type":"way","color":"#de7c00","route_name":"Linha 17 - Ouro: Aeroporto de Congonhas → Morumbi","osm_id":"20402218","railway":"monorail","status":"open"},"geometry":{"type":"LineString","coordinates":[[-46.661899,-23.627004],[-46.673585,-23.629546],[-46.678889,-23.62204],[-46.682823,-23.618657],[-46.688581,-23.615578],[-46.695503,-23.613988],[-46.702771,-23.622408]]}},{"type":"Feature","properties":{"route_company":"GRU Airport","route_id":"20404887","element_type":"way","color":"#9a6324","route_name":"Aeromóvel GRU: CPTM → TPS3","osm_id":"20404887","railway":"light_rail","status":"open"},"geometry":{"type":"LineString","coordinates":[[-46.492535,-23.432571],[-46.490221,-23.429492],[-46.481753,-23.425864],[-46.477086,-23.42284]]}},{"type":"Feature","properties":{"osm_id":"2736447263","station_name":"Tucuruvi","element_type":"node","station_id":"TUC"},"geometry":{"type":"Point","coordinates":[-46.603267,-23.480066]}},{"type":"Feature","properties":{"osm_id":"2736447249","station_name":"Parada Inglesa","element_type":"node","station_id":"PIG"},"geometry":{"type":"Point","coordinates":[-46.608835,-23.486975]}},{"type":"Feature","properties":{"osm_id":"2736447237","station_name":"Jardim São Paulo - Ayrton Senna","element_type":"node","station_id":"JPA"},"geometry":{"type":"Point","coordinates":[-46.617107,-23.49242]}},{"type":"Feature","properties":{"osm_id":"2736447255","station_name":"Santana","element_type":"node","station_id":"SAN"},"geometry":{"type":"Point","coordinates":[-46.624759,-23.502561]}},{"type":"Feature","properties":{"osm_id":"2736447222","station_name":"Carandiru","element_type":"node","station_id":"CDU"},"geometry":{"type":"Point","coordinates":[-46.624948,-23.509163]}},{"type":"Feature","properties":{"osm_id":"2736447252","station_name":"Portuguesa - Tietê","element_type":"node","station_id":"TTE"},"geometry":{"type":"Point","coordinates":[-46.625164,-23.516093]}},{"type":"Feature","properties":{"osm_id":"2736447216","station_name":"Armênia","element_type":"node","station_id":"PPQ"},"geometry":{"type":"Point","coordinates":[-46.629372,-23.525486]}},{"type":"Feature","properties":{"osm_id":"2736447262","station_name":"Tiradentes","element_type":"node","station_id":"TRD"},"geometry":{"type":"Point","coordinates":[-46.632241,-23.530938]}},{"type":"Feature","properties":{"osm_id":"2736447248","station_name":"Luz","element_type":"node","station_id":"LUZ"},"geometry":{"type":"Point","coordinates":[-46.634107,-23.536658]}},{"type":"Feature","properties":{"osm_id":"2736447258","station_name":"São Bento","element_type":"node","station_id":"BTO"},"geometry":{"type":"Point","coordinates":[-46.634172,-23.544102]}},{"type":"Feature","properties":{"osm_id":"2736447261","station_name":"Sé","element_type":"node","station_id":"PSE"},"geometry":{"type":"Point","coordinates":[-46.632894,-23.550615]}},{"type":"Feature","properties":{"osm_id":"2736447242","station_name":"Japão - Liberdade","element_type":"node","station_id":"LIB"},"geometry":{"type":"Point","coordinates":[-46.635741,-23.554958]}},{"type":"Feature","properties":{"osm_id":"2736447256","station_name":"São Joaquim","element_type":"node","station_id":"JQM"},"geometry":{"type":"Point","coordinates":[-46.638608,-23.561587]}},{"type":"Feature","properties":{"osm_id":"2736447264","station_name":"Vergueiro","element_type":"node","station_id":"VGO"},"geometry":{"type":"Point","coordinates":[-46.639918,-23.568708]}},{"type":"Feature","properties":{"osm_id":"2736447251","station_name":"Paraíso","element_type":"node","station_id":"PSO"},"geometry":{"type":"Point","coordinates":[-46.640854,-23.575342]}},{"type":"Feature","properties":{"osm_id":"2736447207","station_name":"Ana Rosa","element_type":"node","station_id":"ANR"},"geometry":{"type":"Point","coordinates":[-46.638427,-23.581363]}},{"type":"Feature","properties":{"osm_id":"2736447265","station_name":"Vila Mariana","element_type":"node","station_id":"VMN"},"geometry":{"type":"Point","coordinates":[-46.634669,-23.589186]}},{"type":"Feature","properties":{"osm_id":"2736447254","station_name":"Santa Cruz","element_type":"node","station_id":"SCZ"},"geometry":{"type":"Point","coordinates":[-46.636962,-23.598785]}},{"type":"Feature","properties":{"osm_id":"2736447253","station_name":"Praça da Árvore","element_type":"node","station_id":"ARV"},"geometry":{"type":"Point","coordinates":[-46.637918,-23.610439]}},{"type":"Feature","properties":{"osm_id":"2736447257","station_name":"Saúde – Ultrafarma","element_type":"node","station_id":"SAU"},"geometry":{"type":"Point","coordinates":[-46.639187,-23.618228]}},{"type":"Feature","properties":{"osm_id":"2736447259","station_name":"São Judas","element_type":"node","station_id":"JUD"},"geometry":{"type":"Point","coordinates":[-46.640918,-23.625794]}},{"type":"Feature","properties":{"osm_id":"2736447227","station_name":"Conceição","element_type":"node","station_id":"CON"},"geometry":{"type":"Point","coordinates":[-46.641296,-23.634987]}},{"type":"Feature","properties":{"osm_id":"2736447232","station_name":"Jabaquara","element_type":"node","station_id":"JAB"},"geometry":{"type":"Point","coordinates":[-46.641047,-23.64634]}},{"type":"Feature","properties":{"osm_id":"1700896613","station_name":"Palmeiras - Barra Funda","element_type":"node","station_id":"1700896613"},"geometry":{"type":"Point","coordinates":[-46.667455,-23.525988]}},{"type":"Feature","properties":{"osm_id":"175995653","station_name":"Marechal Deodoro","element_type":"node","station_id":"175995653"},"geometry":{"type":"Point","coordinates":[-46.655783,-23.533911]}},{"type":"Feature","properties":{"osm_id":"175688340","station_name":"Santa Cecília","element_type":"node","station_id":"175688340"},"geometry":{"type":"Point","coordinates":[-46.648954,-23.539324]}},{"type":"Feature","properties":{"osm_id":"2487413802","station_name":"República","element_type":"node","station_id":"2487413802"},"geometry":{"type":"Point","coordinates":[-46.642792,-23.544067]}},{"type":"Feature","properties":{"osm_id":"175684361","station_name":"Anhangabaú","element_type":"node","station_id":"175684361"},"geometry":{"type":"Point","coordinates":[-46.639014,-23.547973]}},{"type":"Feature","properties":{"osm_id":"173997509","station_name":"Pedro II","element_type":"node","station_id":"173997509"},"geometry":{"type":"Point","coordinates":[-46.62594,-23.549694]}},{"type":"Feature","properties":{"osm_id":"173997515","station_name":"Brás","element_type":"node","station_id":"173997515"},"geometry":{"type":"Point","coordinates":[-46.615806,-23.547848]}},{"type":"Feature","properties":{"osm_id":"2249399085","station_name":"Bresser-Mooca","element_type":"node","station_id":"2249399085"},"geometry":{"type":"Point","coordinates":[-46.607053,-23.546344]}},{"type":"Feature","properties":{"osm_id":"173995296","station_name":"Belém","element_type":"node","station_id":"173995296"},"geometry":{"type":"Point","coordinates":[-46.58955,-23.542895]}},{"type":"Feature","properties":{"osm_id":"173992082","station_name":"Tatuapé","element_type":"node","station_id":"173992082"},"geometry":{"type":"Point","coordinates":[-46.576463,-23.540482]}},{"type":"Feature","properties":{"osm_id":"173978268","station_name":"Carrão – Assaí Atacadista","element_type":"node","station_id":"173978268"},"geometry":{"type":"Point","coordinates":[-46.56428,-23.537871]}},{"type":"Feature","properties":{"osm_id":"173978278","station_name":"Penha - Lojas Besni","element_type":"node","station_id":"173978278"},"geometry":{"type":"Point","coordinates":[-46.542508,-23.533518]}},{"type":"Feature","properties":{"osm_id":"173978287","station_name":"Vila Matilde","element_type":"node","station_id":"173978287"},"geometry":{"type":"Point","coordinates":[-46.530851,-23.531896]}},{"type":"Feature","properties":{"osm_id":"173978296","station_name":"Guilhermina-Esperança","element_type":"node","station_id":"173978296"},"geometry":{"type":"Point","coordinates":[-46.516642,-23.529336]}},{"type":"Feature","properties":{"osm_id":"173978308","station_name":"Patriarca • Vila Ré","element_type":"node","station_id":"173978308"},"geometry":{"type":"Point","coordinates":[-46.501521,-23.531124]}},{"type":"Feature","properties":{"osm_id":"173978322","station_name":"Artur Alvim","element_type":"node","station_id":"173978322"},"geometry":{"type":"Point","coordinates":[-46.484671,-23.540255]}},{"type":"Feature","properties":{"osm_id":"173981565","station_name":"Corinthians-Itaquera","element_type":"node","station_id":"173981565"},"geometry":{"type":"Point","coordinates":[-46.471082,-23.542274]}},{"type":"Feature","properties":{"osm_id":"181763110","station_name":"Capão Redondo","element_type":"node","station_id":"181763110"},"geometry":{"type":"Point","coordinates":[-46.76805,-23.659253]}},{"type":"Feature","properties":{"osm_id":"181763124","station_name":"Campo Limpo","element_type":"node","station_id":"181763124"},"geometry":{"type":"Point","coordinates":[-46.75898,-23.649268]}},{"type":"Feature","properties":{"osm_id":"181763144","station_name":"Vila das Belezas","element_type":"node","station_id":"181763144"},"geometry":{"type":"Point","coordinates":[-46.745796,-23.640272]}},{"type":"Feature","properties":{"osm_id":"181763161","station_name":"Giovanni Gronchi","element_type":"node","station_id":"181763161"},"geometry":{"type":"Point","coordinates":[-46.734038,-23.643963]}},{"type":"Feature","properties":{"osm_id":"181763188","station_name":"Santo Amaro","element_type":"node","station_id":"181763188"},"geometry":{"type":"Point","coordinates":[-46.720918,-23.655668]}},{"type":"Feature","properties":{"osm_id":"656064495","station_name":"Largo Treze","element_type":"node","station_id":"656064495"},"geometry":{"type":"Point","coordinates":[-46.710121,-23.65445]}},{"type":"Feature","properties":{"osm_id":"4324789214","station_name":"Adolfo Pinheiro","element_type":"node","station_id":"4324789214"},"geometry":{"type":"Point","coordinates":[-46.704206,-23.650072]}},{"type":"Feature","properties":{"osm_id":"4968320186","station_name":"Alto da Boa Vista","element_type":"node","station_id":"4968320186"},"geometry":{"type":"Point","coordinates":[-46.699532,-23.641811]}},{"type":"Feature","properties":{"osm_id":"4968320189","station_name":"Borba Gato","element_type":"node","station_id":"4968320189"},"geometry":{"type":"Point","coordinates":[-46.692896,-23.633525]}},{"type":"Feature","properties":{"osm_id":"4968320192","station_name":"Brooklin","element_type":"node","station_id":"4968320192"},"geometry":{"type":"Point","coordinates":[-46.688293,-23.62708]}},{"type":"Feature","properties":{"osm_id":"5086228494","station_name":"Campo Belo","element_type":"node","station_id":"5086228494"},"geometry":{"type":"Point","coordinates":[-46.682823,-23.618657]}},{"type":"Feature","properties":{"osm_id":"5086228504","station_name":"Eucaliptos","element_type":"node","station_id":"5086228504"},"geometry":{"type":"Point","coordinates":[-46.66853,-23.609739]}},{"type":"Feature","properties":{"osm_id":"5086228506","station_name":"Moema","element_type":"node","station_id":"5086228506"},"geometry":{"type":"Point","coordinates":[-46.662193,-23.603839]}},{"type":"Feature","properties":{"osm_id":"5086228508","station_name":"AACD – Servidor","element_type":"node","station_id":"5086228508"},"geometry":{"type":"Point","coordinates":[-46.652305,-23.597823]}},{"type":"Feature","properties":{"osm_id":"5086228483","station_name":"Hospital São Paulo","element_type":"node","station_id":"5086228483"},"geometry":{"type":"Point","coordinates":[-46.645567,-23.598191]}},{"type":"Feature","properties":{"osm_id":"5086228492","station_name":"Chácara Klabin","element_type":"node","station_id":"5086228492"},"geometry":{"type":"Point","coordinates":[-46.63081,-23.592703]}},{"type":"Feature","properties":{"osm_id":"922094750","station_name":"Vila Prudente","element_type":"node","station_id":"922094750"},"geometry":{"type":"Point","coordinates":[-46.582684,-23.584526]}},{"type":"Feature","properties":{"osm_id":"2281353319","station_name":"Tamanduateí","element_type":"node","station_id":"TTI"},"geometry":{"type":"Point","coordinates":[-46.58955,-23.592814]}},{"type":"Feature","properties":{"osm_id":"661582968","station_name":"Sacomã","element_type":"node","station_id":"661582968"},"geometry":{"type":"Point","coordinates":[-46.602576,-23.601284]}},{"type":"Feature","properties":{"osm_id":"661582972","station_name":"Alto do Ipiranga","element_type":"node","station_id":"661582972"},"geometry":{"type":"Point","coordinates":[-46.612529,-23.602248]}},{"type":"Feature","properties":{"osm_id":"661582976","station_name":"Santos - Imigrantes","element_type":"node","station_id":"661582976"},"geometry":{"type":"Point","coordinates":[-46.620647,-23.595939]}},{"type":"Feature","properties":{"osm_id":"605663479","station_name":"Brigadeiro","element_type":"node","station_id":"605663479"},"geometry":{"type":"Point","coordinates":[-46.647728,-23.568612]}},{"type":"Feature","properties":{"osm_id":"605663490","station_name":"Trianon-Masp","element_type":"node","station_id":"605663490"},"geometry":{"type":"Point","coordinates":[-46.654229,-23.563299]}},{"type":"Feature","properties":{"osm_id":"605663530","station_name":"Consolação","element_type":"node","station_id":"605663530"},"geometry":{"type":"Point","coordinates":[-46.660543,-23.557803]}},{"type":"Feature","properties":{"osm_id":"605663555","station_name":"Clínicas","element_type":"node","station_id":"605663555"},"geometry":{"type":"Point","coordinates":[-46.670944,-23.553996]}},{"type":"Feature","properties":{"osm_id":"605663569","station_name":"Santuário Nossa Senhora de Fátima - Sumaré","element_type":"node","station_id":"SUM"},"geometry":{"type":"Point","coordinates":[-46.677677,-23.550965]}},{"type":"Feature","properties":{"osm_id":"2736907863","station_name":"Vila Madalena","element_type":"node","station_id":"VMD"},"geometry":{"type":"Point","coordinates":[-46.690793,-23.546443]}},{"type":"Feature","properties":{"osm_id":"656071074","station_name":"Higienópolis-Mackenzie (Linha 4)","element_type":"node","station_id":"656071074"},"geometry":{"type":"Point","coordinates":[-46.652293,-23.548954]}},{"type":"Feature","properties":{"osm_id":"656072831","station_name":"Paulista - Pernambucanas","element_type":"node","station_id":"656072831"},"geometry":{"type":"Point","coordinates":[-46.662291,-23.55525]}},{"type":"Feature","properties":{"osm_id":"2751703402","station_name":"Oscar Freire","element_type":"node","station_id":"2751703402"},"geometry":{"type":"Point","coordinates":[-46.67194,-23.560706]}},{"type":"Feature","properties":{"osm_id":"2751703381","station_name":"Fradique Coutinho","element_type":"node","station_id":"2751703381"},"geometry":{"type":"Point","coordinates":[-46.684171,-23.566252]}},{"type":"Feature","properties":{"osm_id":"926616651","station_name":"Faria Lima","element_type":"node","station_id":"926616651"},"geometry":{"type":"Point","coordinates":[-46.694031,-23.567237]}},{"type":"Feature","properties":{"osm_id":"1403755988","station_name":"Pinheiros","element_type":"node","station_id":"1403755988"},"geometry":{"type":"Point","coordinates":[-46.701945,-23.56725]}},{"type":"Feature","properties":{"osm_id":"1403755994","station_name":"Butantã","element_type":"node","station_id":"1403755994"},"geometry":{"type":"Point","coordinates":[-46.708064,-23.57184]}},{"type":"Feature","properties":{"osm_id":"4531084492","station_name":"São Paulo – Morumbi","element_type":"node","station_id":"4531084492"},"geometry":{"type":"Point","coordinates":[-46.723805,-23.586244]}},{"type":"Feature","properties":{"osm_id":"9225333090","station_name":"Vila Sônia - Professora Elizabeth Tenreiro","element_type":"node","station_id":"9225333090"},"geometry":{"type":"Point","coordinates":[-46.734809,-23.593434]}},{"type":"Feature","properties":{"osm_id":"8428935134","station_name":"Jardim Colonial","element_type":"node","station_id":"8428935134"},"geometry":{"type":"Point","coordinates":[-46.469072,-23.599206]}},{"type":"Feature","properties":{"osm_id":"4439833384","station_name":"São Mateus","element_type":"node","station_id":"4439833384"},"geometry":{"type":"Point","coordinates":[-46.477294,-23.612283]}},{"type":"Feature","properties":{"osm_id":"7058843471","station_name":"Fazenda da Juta","element_type":"node","station_id":"7058843471"},"geometry":{"type":"Point","coordinates":[-46.487464,-23.6118]}},{"type":"Feature","properties":{"osm_id":"7058843482","station_name":"Sapopemba","element_type":"node","station_id":"7058843482"},"geometry":{"type":"Point","coordinates":[-46.500835,-23.614699]}},{"type":"Feature","properties":{"osm_id":"6764734911","station_name":"Jardim Planalto","element_type":"node","station_id":"6764734911"},"geometry":{"type":"Point","coordinates":[-46.507643,-23.606526]}},{"type":"Feature","properties":{"osm_id":"5070450421","station_name":"Vila União","element_type":"node","station_id":"5070450421"},"geometry":{"type":"Point","coordinates":[-46.515541,-23.602964]}},{"type":"Feature","properties":{"osm_id":"5070450437","station_name":"Vila Tolstói","element_type":"node","station_id":"5070450437"},"geometry":{"type":"Point","coordinates":[-46.527344,-23.600743]}},{"type":"Feature","properties":{"osm_id":"5070450452","station_name":"Camilo Haddad","element_type":"node","station_id":"5070450452"},"geometry":{"type":"Point","coordinates":[-46.537607,-23.595497]}},{"type":"Feature","properties":{"osm_id":"5070446538","station_name":"São Lucas","element_type":"node","station_id":"5070446538"},"geometry":{"type":"Point","coordinates":[-46.544636,-23.588935]}},{"type":"Feature","properties":{"osm_id":"5070441405","station_name":"Oratório","element_type":"node","station_id":"5070441405"},"geometry":{"type":"Point","coordinates":[-46.561841,-23.582146]}},{"type":"Feature","properties":{"osm_id":"2790877223","station_name":"Aeroporto de Congonhas","element_type":"node","station_id":"2790877223"},"geometry":{"type":"Point","coordinates":[-46.661899,-23.627004]}},{"type":"Feature","properties":{"osm_id":"6291995577","station_name":"Brooklin Paulista","element_type":"node","station_id":"6291995577"},"geometry":{"type":"Point","coordinates":[-46.673585,-23.629546]}},{"type":"Feature","properties":{"osm_id":"6291995553","station_name":"Vereador José Diniz","element_type":"node","station_id":"6291995553"},"geometry":{"type":"Point","coordinates":[-46.678889,-23.62204]}},{"type":"Feature","properties":{"osm_id":"6291995531","station_name":"Vila Cordeiro","element_type":"node","station_id":"6291995531"},"geometry":{"type":"Point","coordinates":[-46.688581,-23.615578]}},{"type":"Feature","properties":{"osm_id":"6291995510","station_name":"Chucri Zaidan","element_type":"node","station_id":"6291995510"},"geometry":{"type":"Point","coordinates":[-46.695503,-23.613988]}},{"type":"Feature","properties":{"osm_id":"6370302350","station_name":"Morumbi","element_type":"node","station_id":"1"},"geometry":{"type":"Point","coordinates":[-46.702771,-23.622408]}},{"type":"Feature","properties":{"osm_id":"12705334933","station_name":"GRU CPTM","element_type":"node","station_id":"12705334933"},"geometry":{"type":"Point","coordinates":[-46.492535,-23.432571]}},{"type":"Feature","properties":{"osm_id":"9718893171","station_name":"GRU TPS1","element_type":"node","station_id":"9718893171"},"geometry":{"type":"Point","coordinates":[-46.490221,-23.429492]}},{"type":"Feature","properties":{"osm_id":"9718962717","station_name":"GRU TPS2","element_type":"node","station_id":"9718962717"},"geometry":{"type":"Point","coordinates":[-46.481753,-23.425864]}},{"type":"Feature","properties":{"osm_id":"9718962718","station_name":"GRU TPS3","element_type":"node","station_id":"9718962718"},"geometry":{"type":"Point","coordinates":[-46.477086,-23.42284]}}]}