{"type":"FeatureCollection","generator":"metroOsmFetch (OpenStreetMap / Overpass, ODbL)","features":[{"type":"Feature","properties":{"route_company":"Keolis Rennes","route_id":"a","element_type":"way","color":"#ed1c24","route_name":"Métro Rennes Ligne a Direction Rennes (La Poterie)","osm_id":"23518","railway":"subway"},"geometry":{"type":"LineString","coordinates":[[-1.711275,48.121313],[-1.703922,48.121228],[-1.693399,48.121545],[-1.687616,48.118123],[-1.680225,48.114626],[-1.677652,48.110153],[-1.676856,48.105451],[-1.672164,48.104017],[-1.675473,48.097545],[-1.67444,48.093493],[-1.674832,48.087676],[-1.66792,48.086554],[-1.660359,48.086425],[-1.654282,48.087719],[-1.644575,48.087477]]}},{"type":"Feature","properties":{"route_company":"Keolis Rennes","route_id":"b","element_type":"way","color":"#00893e","route_name":"Métro Rennes Ligne b Direction Cesson-Sévigné (Viasilva)","osm_id":"4521994","railway":"subway"},"geometry":{"type":"LineString","coordinates":[[-1.703654,48.091993],[-1.69825,48.096431],[-1.70639,48.100941],[-1.692808,48.105058],[-1.682059,48.105905],[-1.672164,48.104017],[-1.677652,48.110153],[-1.680225,48.114626],[-1.670928,48.118656],[-1.664403,48.125177],[-1.657156,48.129408],[-1.65144,48.124055],[-1.639132,48.122106],[-1.628105,48.127118],[-1.620037,48.131485]]}},{"type":"Feature","properties":{"osm_id":"283117224","station_name":"J.F. Kennedy","element_type":"node","station_id":"283117224"},"geometry":{"type":"Point","coordinates":[-1.711275,48.121313]}},{"type":"Feature","properties":{"osm_id":"3416759459","station_name":"Villejean - Université","element_type":"node","station_id":"3416759459"},"geometry":{"type":"Point","coordinates":[-1.703922,48.121228]}},{"type":"Feature","properties":{"osm_id":"3988224001","station_name":"Pontchaillou","element_type":"node","station_id":"3988224001"},"geometry":{"type":"Point","coordinates":[-1.693399,48.121545]}},{"type":"Feature","properties":{"osm_id":"3416759437","station_name":"Anatole France","element_type":"node","station_id":"3416759437"},"geometry":{"type":"Point","coordinates":[-1.687616,48.118123]}},{"type":"Feature","properties":{"osm_id":"3416759455","station_name":"Sainte-Anne","element_type":"node","station_id":"3416759455"},"geometry":{"type":"Point","coordinates":[-1.680225,48.114626]}},{"type":"Feature","properties":{"osm_id":"3416759454","station_name":"République","element_type":"node","station_id":"3416759454"},"geometry":{"type":"Point","coordinates":[-1.677652,48.110153]}},{"type":"Feature","properties":{"osm_id":"3416759439","station_name":"Charles de Gaulle","element_type":"node","station_id":"3416759439"},"geometry":{"type":"Point","coordinates":[-1.676856,48.105451]}},{"type":"Feature","properties":{"osm_id":"3416759443","station_name":"Gares","element_type":"node","station_id":"3416759443"},"geometry":{"type":"Point","coordinates":[-1.672164,48.104017]}},{"type":"Feature","properties":{"osm_id":"3416759449","station_name":"Jacques Cartier","element_type":"node","station_id":"3416759449"},"geometry":{"type":"Point","coordinates":[-1.675473,48.097545]}},{"type":"Feature","properties":{"osm_id":"3416759441","station_name":"Clemenceau","element_type":"node","station_id":"3416759441"},"geometry":{"type":"Point","coordinates":[-1.67444,48.093493]}},{"type":"Feature","properties":{"osm_id":"3416759446","station_name":"Henri Fréville","element_type":"node","station_id":"3416759446"},"geometry":{"type":"Point","coordinates":[-1.674832,48.087676]}},{"type":"Feature","properties":{"osm_id":"3416759447","station_name":"Italie","element_type":"node","station_id":"3416759447"},"geometry":{"type":"Point","coordinates":[-1.66792,48.086554]}},{"type":"Feature","properties":{"osm_id":"3416759457","station_name":"Triangle","element_type":"node","station_id":"3416759457"},"geometry":{"type":"Point","coordinates":[-1.660359,48.086425]}},{"type":"Feature","properties":{"osm_id":"3416759451","station_name":"Le Blosne","element_type":"node","station_id":"3416759451"},"geometry":{"type":"Point","coordinates":[-1.654282,48.087719]}},{"type":"Feature","properties":{"osm_id":"2962755129","station_name":"La Poterie","element_type":"node","station_id":"2962755129"},"geometry":{"type":"Point","coordinates":[-1.644575,48.087477]}},{"type":"Feature","properties":{"osm_id":"3241021770","station_name":"Saint-Jacques - Gaîté","element_type":"node","station_id":"3241021770"},"geometry":{"type":"Point","coordinates":[-1.703654,48.091993]}},{"type":"Feature","properties":{"osm_id":"4466504159","station_name":"La Courrouze","element_type":"node","station_id":"4466504159"},"geometry":{"type":"Point","coordinates":[-1.69825,48.096431]}},{"type":"Feature","properties":{"osm_id":"4466504147","station_name":"Cleunay","element_type":"node","station_id":"4466504147"},"geometry":{"type":"Point","coordinates":[-1.70639,48.100941]}},{"type":"Feature","properties":{"osm_id":"2666829725","station_name":"Mabilais","element_type":"node","station_id":"2666829725"},"geometry":{"type":"Point","coordinates":[-1.692808,48.105058]}},{"type":"Feature","properties":{"osm_id":"4466504148","station_name":"Colombier","element_type":"node","station_id":"4466504148"},"geometry":{"type":"Point","coordinates":[-1.682059,48.105905]}},{"type":"Feature","properties":{"osm_id":"4466504158","station_name":"Jules Ferry","element_type":"node","station_id":"4466504158"},"geometry":{"type":"Point","coordinates":[-1.670928,48.118656]}},{"type":"Feature","properties":{"osm_id":"4466504154","station_name":"Gros-Chêne","element_type":"node","station_id":"4466504154"},"geometry":{"type":"Point","coordinates":[-1.664403,48.125177]}},{"type":"Feature","properties":{"osm_id":"4466504160","station_name":"Les Gayeulles","element_type":"node","station_id":"4466504160"},"geometry":{"type":"Point","coordinates":[-1.657156,48.129408]}},{"type":"Feature","properties":{"osm_id":"4466504157","station_name":"Joliot-Curie - Chateaubriand","element_type":"node","station_id":"4466504157"},"geometry":{"type":"Point","coordinates":[-1.65144,48.124055]}},{"type":"Feature","properties":{"osm_id":"2666829658","station_name":"Beaulieu - Université","element_type":"node","station_id":"2666829658"},"geometry":{"type":"Point","coordinates":[-1.639132,48.122106]}},{"type":"Feature","properties":{"osm_id":"4466504142","station_name":"Atalante","element_type":"node","station_id":"4466504142"},"geometry":{"type":"Point","coordinates":[-1.628105,48.127118]}},{"type":"Feature","properties":{"osm_id":"3241021859","station_name":"Cesson - Viasilva","element_type":"node","station_id":"3241021859"},"geometry":{"type":"Point","coordinates":[-1.620037,48.131485]}}]}