{"type":"FeatureCollection","generator":"metroOsmFetch (OpenStreetMap / Overpass, ODbL)","features":[{"type":"Feature","properties":{"osm_id":"3211607573","station_name":"Młociny","element_type":"node","station_id":"3211607573"},"geometry":{"type":"Point","coordinates":[20.929868,52.290771]}},{"type":"Feature","properties":{"osm_id":"3211607584","station_name":"Wawrzyszew","element_type":"node","station_id":"3211607584"},"geometry":{"type":"Point","coordinates":[20.939515,52.286348]}},{"type":"Feature","properties":{"osm_id":"3211607579","station_name":"Stare Bielany","element_type":"node","station_id":"3211607579"},"geometry":{"type":"Point","coordinates":[20.949351,52.281828]}},{"type":"Feature","properties":{"osm_id":"3211607581","station_name":"Słodowiec","element_type":"node","station_id":"3211607581"},"geometry":{"type":"Point","coordinates":[20.960126,52.276826]}},{"type":"Feature","properties":{"osm_id":"3672328641","station_name":"Marymont","element_type":"node","station_id":"3672328641"},"geometry":{"type":"Point","coordinates":[20.971701,52.271631]}},{"type":"Feature","properties":{"osm_id":"3211607575","station_name":"Plac Wilsona","element_type":"node","station_id":"3211607575"},"geometry":{"type":"Point","coordinates":[20.984368,52.269296]}},{"type":"Feature","properties":{"osm_id":"2535268336","station_name":"Dworzec Gdański","element_type":"node","station_id":"2535268336"},"geometry":{"type":"Point","coordinates":[20.994186,52.258059]}},{"type":"Feature","properties":{"osm_id":"3672328642","station_name":"Ratusz Arsenał","element_type":"node","station_id":"3672328642"},"geometry":{"type":"Point","coordinates":[21.000883,52.245217]}},{"type":"Feature","properties":{"osm_id":"35121251","station_name":"Świętokrzyska","element_type":"node","station_id":"35121251"},"geometry":{"type":"Point","coordinates":[21.008216,52.235558]}},{"type":"Feature","properties":{"osm_id":"35121252","station_name":"Centrum","element_type":"node","station_id":"35121252"},"geometry":{"type":"Point","coordinates":[21.010186,52.231007]}},{"type":"Feature","properties":{"osm_id":"35121253","station_name":"Politechnika","element_type":"node","station_id":"35121253"},"geometry":{"type":"Point","coordinates":[21.015347,52.218754]}},{"type":"Feature","properties":{"osm_id":"35121256","station_name":"Pole Mokotowskie","element_type":"node","station_id":"35121256"},"geometry":{"type":"Point","coordinates":[21.007931,52.208778]}},{"type":"Feature","properties":{"osm_id":"35121257","station_name":"Racławicka","element_type":"node","station_id":"35121257"},"geometry":{"type":"Point","coordinates":[21.012235,52.198864]}},{"type":"Feature","properties":{"osm_id":"35121258","station_name":"Wierzbno","element_type":"node","station_id":"35121258"},"geometry":{"type":"Point","coordinates":[21.016796,52.189872]}},{"type":"Feature","properties":{"osm_id":"35121259","station_name":"Wilanowska","element_type":"node","station_id":"35121259"},"geometry":{"type":"Point","coordinates":[21.023146,52.181817]}},{"type":"Feature","properties":{"osm_id":"35121260","station_name":"Służew","element_type":"node","station_id":"35121260"},"geometry":{"type":"Point","coordinates":[21.026307,52.172762]}},{"type":"Feature","properties":{"osm_id":"35121261","station_name":"Ursynów","element_type":"node","station_id":"35121261"},"geometry":{"type":"Point","coordinates":[21.027632,52.162025]}},{"type":"Feature","properties":{"osm_id":"35121262","station_name":"Stokłosy","element_type":"node","station_id":"35121262"},"geometry":{"type":"Point","coordinates":[21.034753,52.156074]}},{"type":"Feature","properties":{"osm_id":"35121263","station_name":"Imielin","element_type":"node","station_id":"35121263"},"geometry":{"type":"Point","coordinates":[21.046141,52.14927]}},{"type":"Feature","properties":{"osm_id":"35121264","station_name":"Natolin","element_type":"node","station_id":"35121264"},"geometry":{"type":"Point","coordinates":[21.056447,52.141097]}},{"type":"Feature","properties":{"osm_id":"35121265","station_name":"Kabaty","element_type":"node","station_id":"35121265"},"geometry":{"type":"Point","coordinates":[21.065065,52.132074]}},{"type":"Feature","properties":{"osm_id":"8565947450","station_name":"Bródno","element_type":"node","station_id":"8565947450"},"geometry":{"type":"Point","coordinates":[21.028939,52.293585]}},{"type":"Feature","properties":{"osm_id":"10058224347","station_name":"Kondratowicza","element_type":"node","station_id":"10058224347"},"geometry":{"type":"Point","coordinates":[21.048689,52.292085]}},{"type":"Feature","properties":{"osm_id":"2547404990","station_name":"Zacisze","element_type":"node","station_id":"2547404990"},"geometry":{"type":"Point","coordinates":[21.062148,52.28375]}},{"type":"Feature","properties":{"osm_id":"6969186379","station_name":"Trocka","element_type":"node","station_id":"6969186379"},"geometry":{"type":"Point","coordinates":[21.055059,52.275103]}},{"type":"Feature","properties":{"osm_id":"5521176870","station_name":"Targówek Mieszkaniowy","element_type":"node","station_id":"5521176870"},"geometry":{"type":"Point","coordinates":[21.051366,52.269252]}},{"type":"Feature","properties":{"osm_id":"6969186375","station_name":"Szwedzka","element_type":"node","station_id":"6969186375"},"geometry":{"type":"Point","coordinates":[21.045523,52.263471]}},{"type":"Feature","properties":{"osm_id":"3208963705","station_name":"Dworzec Wileński","element_type":"node","station_id":"3208963705"},"geometry":{"type":"Point","coordinates":[21.035796,52.253777]}},{"type":"Feature","properties":{"osm_id":"3208963712","station_name":"Stadion Narodowy","element_type":"node","station_id":"3208963712"},"geometry":{"type":"Point","coordinates":[21.042847,52.246835]}},{"type":"Feature","properties":{"osm_id":"3208963704","station_name":"Centrum Nauki Kopernik","element_type":"node","station_id":"3208963704"},"geometry":{"type":"Point","coordinates":[21.03179,52.239908]}},{"type":"Feature","properties":{"osm_id":"3208963707","station_name":"Nowy Świat-Uniwersytet","element_type":"node","station_id":"3208963707"},"geometry":{"type":"Point","coordinates":[21.016817,52.23682]}},{"type":"Feature","properties":{"osm_id":"3208963710","station_name":"Rondo ONZ","element_type":"node","station_id":"3208963710"},"geometry":{"type":"Point","coordinates":[20.998282,52.23311]}},{"type":"Feature","properties":{"osm_id":"3208963708","station_name":"Rondo Daszyńskiego","element_type":"node","station_id":"3208963708"},"geometry":{"type":"Point","coordinates":[20.982895,52.230082]}},{"type":"Feature","properties":{"osm_id":"7371940294","station_name":"Płocka","element_type":"node","station_id":"7371940294"},"geometry":{"type":"Point","coordinates":[20.966369,52.232502]}},{"type":"Feature","properties":{"osm_id":"7371940295","station_name":"Młynów","element_type":"node","station_id":"7371940295"},"geometry":{"type":"Point","coordinates":[20.960105,52.237663]}},{"type":"Feature","properties":{"osm_id":"7362944802","station_name":"Księcia Janusza","element_type":"node","station_id":"7362944802"},"geometry":{"type":"Point","coordinates":[20.944378,52.239182]}},{"type":"Feature","properties":{"osm_id":"9859052675","station_name":"Ulrychów","element_type":"node","station_id":"9859052675"},"geometry":{"type":"Point","coordinates":[20.930006,52.240322]}},{"type":"Feature","properties":{"osm_id":"9859052672","station_name":"Bemowo","element_type":"node","station_id":"9859052672"},"geometry":{"type":"Point","coordinates":[20.9155,52.239208]}},{"type":"Feature","properties":{"route_company":"Metro Warszawskie","route_id":"M1","element_type":"way","color":"#3cb44b","route_name":"M1: Młociny => Kabaty","osm_id":"4236800","railway":"subway","status":"open"},"geometry":{"type":"LineString","coordinates":[[20.929868,52.290771],[20.939515,52.286348],[20.949351,52.281828],[20.960126,52.276826],[20.971701,52.271631],[20.984368,52.269296],[20.994186,52.258059],[21.000883,52.245217],[21.008216,52.235558]]}},{"type":"Feature","properties":{"route_company":"Metro Warszawskie","route_id":"M1","element_type":"way","color":"#3cb44b","route_name":"M1: Młociny => Kabaty","osm_id":"4236800","railway":"subway","status":"open"},"geometry":{"type":"LineString","coordinates":[[21.008216,52.235558],[21.010186,52.231007],[21.015347,52.218754],[21.007931,52.208778],[21.012235,52.198864],[21.016796,52.189872],[21.023146,52.181817],[21.026307,52.172762],[21.027632,52.162025],[21.034753,52.156074],[21.046141,52.14927],[21.056447,52.141097],[21.065065,52.132074]]}},{"type":"Feature","properties":{"route_company":"Metro Warszawskie","route_id":"M2","element_type":"way","color":"#c60c30","route_name":"M2: Bródno -> Bemowo","osm_id":"4232533","railway":"subway","status":"open"},"geometry":{"type":"LineString","coordinates":[[21.028939,52.293585],[21.048689,52.292085],[21.062148,52.28375],[21.055059,52.275103],[21.051366,52.269252],[21.045523,52.263471],[21.035796,52.253777],[21.042847,52.246835],[21.03179,52.239908],[21.016817,52.23682],[21.008216,52.235558]]}},{"type":"Feature","properties":{"route_company":"Metro Warszawskie","route_id":"M2","element_type":"way","color":"#c60c30","route_name":"M2: Bródno -> Bemowo","osm_id":"4232533","railway":"subway","status":"open"},"geometry":{"type":"LineString","coordinates":[[21.008216,52.235558],[20.998282,52.23311],[20.982895,52.230082],[20.966369,52.232502],[20.960105,52.237663],[20.944378,52.239182],[20.930006,52.240322],[20.9155,52.239208]]}}]}