{"type":"FeatureCollection","generator":"metroOsmFetch (OpenStreetMap / Overpass, ODbL)","features":[{"type":"Feature","properties":{"route_company":"Metro Warszawskie","route_id":"M1","element_type":"way","color":"#0057b8","route_name":"M1","osm_id":"4236800","railway":"subway"},"geometry":{"type":"LineString","coordinates":[[20.929847,52.290753],[20.939494,52.28633],[20.94933,52.281811],[20.960105,52.276809],[20.971683,52.271573],[20.984328,52.269239],[20.994093,52.258037],[21.000784,52.245188],[21.008145,52.23558],[21.010143,52.230996],[21.015249,52.218771],[21.007835,52.208768],[21.012146,52.198847],[21.016709,52.189856],[21.023065,52.181777],[21.026219,52.17276],[21.027545,52.162029],[21.034681,52.156044],[21.046104,52.149229],[21.056355,52.141079],[21.064974,52.132057]]}},{"type":"Feature","properties":{"route_company":"Metro Warszawskie","route_id":"M2","element_type":"way","color":"#c8102e","route_name":"M2","osm_id":"4232533","railway":"subway"},"geometry":{"type":"LineString","coordinates":[[21.028924,52.293523],[21.048684,52.292022],[21.062055,52.283737],[21.054985,52.275146],[21.051263,52.269257],[21.045466,52.263523],[21.03571,52.253742],[21.042744,52.246833],[21.031722,52.239956],[21.01679,52.236876],[21.008145,52.23558],[20.99825,52.23317],[20.982868,52.230143],[20.96647,52.232513],[20.960121,52.237725],[20.944393,52.239244],[20.930019,52.240384],[20.915479,52.239269]]}},{"type":"Feature","properties":{"osm_id":"3211607573","station_name":"Młociny","element_type":"node","station_id":"3211607573"},"geometry":{"type":"Point","coordinates":[20.929847,52.290753]}},{"type":"Feature","properties":{"osm_id":"3211607584","station_name":"Wawrzyszew","element_type":"node","station_id":"3211607584"},"geometry":{"type":"Point","coordinates":[20.939494,52.28633]}},{"type":"Feature","properties":{"osm_id":"3211607579","station_name":"Stare Bielany","element_type":"node","station_id":"3211607579"},"geometry":{"type":"Point","coordinates":[20.94933,52.281811]}},{"type":"Feature","properties":{"osm_id":"3211607581","station_name":"Słodowiec","element_type":"node","station_id":"3211607581"},"geometry":{"type":"Point","coordinates":[20.960105,52.276809]}},{"type":"Feature","properties":{"osm_id":"3672328641","station_name":"Marymont","element_type":"node","station_id":"3672328641"},"geometry":{"type":"Point","coordinates":[20.971683,52.271573]}},{"type":"Feature","properties":{"osm_id":"3211607575","station_name":"Plac Wilsona","element_type":"node","station_id":"3211607575"},"geometry":{"type":"Point","coordinates":[20.984328,52.269239]}},{"type":"Feature","properties":{"osm_id":"2535268336","station_name":"Dworzec Gdański","element_type":"node","station_id":"2535268336"},"geometry":{"type":"Point","coordinates":[20.994093,52.258037]}},{"type":"Feature","properties":{"osm_id":"3672328642","station_name":"Ratusz Arsenał","element_type":"node","station_id":"3672328642"},"geometry":{"type":"Point","coordinates":[21.000784,52.245188]}},{"type":"Feature","properties":{"osm_id":"35121251","station_name":"Świętokrzyska","element_type":"node","station_id":"35121251"},"geometry":{"type":"Point","coordinates":[21.008145,52.23558]}},{"type":"Feature","properties":{"osm_id":"35121252","station_name":"Centrum","element_type":"node","station_id":"35121252"},"geometry":{"type":"Point","coordinates":[21.010143,52.230996]}},{"type":"Feature","properties":{"osm_id":"35121253","station_name":"Politechnika","element_type":"node","station_id":"35121253"},"geometry":{"type":"Point","coordinates":[21.015249,52.218771]}},{"type":"Feature","properties":{"osm_id":"35121256","station_name":"Pole Mokotowskie","element_type":"node","station_id":"35121256"},"geometry":{"type":"Point","coordinates":[21.007835,52.208768]}},{"type":"Feature","properties":{"osm_id":"35121257","station_name":"Racławicka","element_type":"node","station_id":"35121257"},"geometry":{"type":"Point","coordinates":[21.012146,52.198847]}},{"type":"Feature","properties":{"osm_id":"35121258","station_name":"Wierzbno","element_type":"node","station_id":"35121258"},"geometry":{"type":"Point","coordinates":[21.016709,52.189856]}},{"type":"Feature","properties":{"osm_id":"35121259","station_name":"Wilanowska","element_type":"node","station_id":"35121259"},"geometry":{"type":"Point","coordinates":[21.023065,52.181777]}},{"type":"Feature","properties":{"osm_id":"35121260","station_name":"Służew","element_type":"node","station_id":"35121260"},"geometry":{"type":"Point","coordinates":[21.026219,52.17276]}},{"type":"Feature","properties":{"osm_id":"35121261","station_name":"Ursynów","element_type":"node","station_id":"35121261"},"geometry":{"type":"Point","coordinates":[21.027545,52.162029]}},{"type":"Feature","properties":{"osm_id":"35121262","station_name":"Stokłosy","element_type":"node","station_id":"35121262"},"geometry":{"type":"Point","coordinates":[21.034681,52.156044]}},{"type":"Feature","properties":{"osm_id":"35121263","station_name":"Imielin","element_type":"node","station_id":"35121263"},"geometry":{"type":"Point","coordinates":[21.046104,52.149229]}},{"type":"Feature","properties":{"osm_id":"35121264","station_name":"Natolin","element_type":"node","station_id":"35121264"},"geometry":{"type":"Point","coordinates":[21.056355,52.141079]}},{"type":"Feature","properties":{"osm_id":"35121265","station_name":"Kabaty","element_type":"node","station_id":"35121265"},"geometry":{"type":"Point","coordinates":[21.064974,52.132057]}},{"type":"Feature","properties":{"osm_id":"8565947450","station_name":"Bródno","element_type":"node","station_id":"8565947450"},"geometry":{"type":"Point","coordinates":[21.028924,52.293523]}},{"type":"Feature","properties":{"osm_id":"10058224347","station_name":"Kondratowicza","element_type":"node","station_id":"10058224347"},"geometry":{"type":"Point","coordinates":[21.048684,52.292022]}},{"type":"Feature","properties":{"osm_id":"2547404990","station_name":"Zacisze","element_type":"node","station_id":"2547404990"},"geometry":{"type":"Point","coordinates":[21.062055,52.283737]}},{"type":"Feature","properties":{"osm_id":"6969186379","station_name":"Trocka","element_type":"node","station_id":"6969186379"},"geometry":{"type":"Point","coordinates":[21.054985,52.275146]}},{"type":"Feature","properties":{"osm_id":"5521176870","station_name":"Targówek Mieszkaniowy","element_type":"node","station_id":"5521176870"},"geometry":{"type":"Point","coordinates":[21.051263,52.269257]}},{"type":"Feature","properties":{"osm_id":"6969186375","station_name":"Szwedzka","element_type":"node","station_id":"6969186375"},"geometry":{"type":"Point","coordinates":[21.045466,52.263523]}},{"type":"Feature","properties":{"osm_id":"3208963705","station_name":"Dworzec Wileński","element_type":"node","station_id":"3208963705"},"geometry":{"type":"Point","coordinates":[21.03571,52.253742]}},{"type":"Feature","properties":{"osm_id":"3208963712","station_name":"Stadion Narodowy","element_type":"node","station_id":"3208963712"},"geometry":{"type":"Point","coordinates":[21.042744,52.246833]}},{"type":"Feature","properties":{"osm_id":"3208963704","station_name":"Centrum Nauki Kopernik","element_type":"node","station_id":"3208963704"},"geometry":{"type":"Point","coordinates":[21.031722,52.239956]}},{"type":"Feature","properties":{"osm_id":"3208963707","station_name":"Nowy Świat-Uniwersytet","element_type":"node","station_id":"3208963707"},"geometry":{"type":"Point","coordinates":[21.01679,52.236876]}},{"type":"Feature","properties":{"osm_id":"3208963710","station_name":"Rondo ONZ","element_type":"node","station_id":"3208963710"},"geometry":{"type":"Point","coordinates":[20.99825,52.23317]}},{"type":"Feature","properties":{"osm_id":"3208963708","station_name":"Rondo Daszyńskiego","element_type":"node","station_id":"3208963708"},"geometry":{"type":"Point","coordinates":[20.982868,52.230143]}},{"type":"Feature","properties":{"osm_id":"7371940294","station_name":"Płocka","element_type":"node","station_id":"7371940294"},"geometry":{"type":"Point","coordinates":[20.96647,52.232513]}},{"type":"Feature","properties":{"osm_id":"7371940295","station_name":"Młynów","element_type":"node","station_id":"7371940295"},"geometry":{"type":"Point","coordinates":[20.960121,52.237725]}},{"type":"Feature","properties":{"osm_id":"7362944802","station_name":"Księcia Janusza","element_type":"node","station_id":"7362944802"},"geometry":{"type":"Point","coordinates":[20.944393,52.239244]}},{"type":"Feature","properties":{"osm_id":"9859052675","station_name":"Ulrychów","element_type":"node","station_id":"9859052675"},"geometry":{"type":"Point","coordinates":[20.930019,52.240384]}},{"type":"Feature","properties":{"osm_id":"9859052672","station_name":"Bemowo","element_type":"node","station_id":"9859052672"},"geometry":{"type":"Point","coordinates":[20.915479,52.239269]}}]}