{"type":"FeatureCollection","generator":"metroOsmFetch (OpenStreetMap / Overpass, ODbL)","features":[{"type":"Feature","properties":{"osm_id":"13164289457","station_name":"Côte-Vertu","element_type":"node","station_id":""},"geometry":{"type":"Point","coordinates":[-73.683001,45.514348]}},{"type":"Feature","properties":{"osm_id":"13164289474","station_name":"Du Collège","element_type":"node","station_id":""},"geometry":{"type":"Point","coordinates":[-73.673309,45.508387]}},{"type":"Feature","properties":{"osm_id":"13164289478","station_name":"De La Savane","element_type":"node","station_id":""},"geometry":{"type":"Point","coordinates":[-73.661621,45.50029]}},{"type":"Feature","properties":{"osm_id":"13164309202","station_name":"Namur","element_type":"node","station_id":""},"geometry":{"type":"Point","coordinates":[-73.652912,45.494881]}},{"type":"Feature","properties":{"osm_id":"13164309201","station_name":"Plamondon","element_type":"node","station_id":""},"geometry":{"type":"Point","coordinates":[-73.637804,45.494392]}},{"type":"Feature","properties":{"osm_id":"9862727718","station_name":"Côte-Sainte-Catherine","element_type":"node","station_id":""},"geometry":{"type":"Point","coordinates":[-73.632878,45.492292]}},{"type":"Feature","properties":{"osm_id":"9862727729","station_name":"Snowdon","element_type":"node","station_id":""},"geometry":{"type":"Point","coordinates":[-73.628029,45.486281]}},{"type":"Feature","properties":{"osm_id":"9862694906","station_name":"Villa-Maria","element_type":"node","station_id":""},"geometry":{"type":"Point","coordinates":[-73.619757,45.479748]}},{"type":"Feature","properties":{"osm_id":"10749020165","station_name":"Vendôme","element_type":"node","station_id":""},"geometry":{"type":"Point","coordinates":[-73.603782,45.473911]}},{"type":"Feature","properties":{"osm_id":"13164309344","station_name":"Place Saint-Henri","element_type":"node","station_id":""},"geometry":{"type":"Point","coordinates":[-73.58666,45.477198]}},{"type":"Feature","properties":{"osm_id":"13164309345","station_name":"Lionel-Groulx","element_type":"node","station_id":""},"geometry":{"type":"Point","coordinates":[-73.580227,45.482463]}},{"type":"Feature","properties":{"osm_id":"13164309292","station_name":"Georges-Vanier","element_type":"node","station_id":""},"geometry":{"type":"Point","coordinates":[-73.576496,45.488973]}},{"type":"Feature","properties":{"osm_id":"13164309342","station_name":"Lucien-L'Allier","element_type":"node","station_id":""},"geometry":{"type":"Point","coordinates":[-73.570953,45.494985]}},{"type":"Feature","properties":{"osm_id":"13164309340","station_name":"Bonaventure","element_type":"node","station_id":""},"geometry":{"type":"Point","coordinates":[-73.567076,45.498261]}},{"type":"Feature","properties":{"osm_id":"13164309339","station_name":"Square-Victoria-OACI","element_type":"node","station_id":""},"geometry":{"type":"Point","coordinates":[-73.563108,45.502025]}},{"type":"Feature","properties":{"osm_id":"13164309336","station_name":"Place d’Armes","element_type":"node","station_id":""},"geometry":{"type":"Point","coordinates":[-73.559733,45.50605]}},{"type":"Feature","properties":{"osm_id":"13164309335","station_name":"Champ-de-Mars","element_type":"node","station_id":""},"geometry":{"type":"Point","coordinates":[-73.556399,45.510075]}},{"type":"Feature","properties":{"osm_id":"13164309439","station_name":"Berri-UQAM","element_type":"node","station_id":""},"geometry":{"type":"Point","coordinates":[-73.561514,45.515063]}},{"type":"Feature","properties":{"osm_id":"13164309438","station_name":"Sherbrooke","element_type":"node","station_id":""},"geometry":{"type":"Point","coordinates":[-73.567214,45.517978]}},{"type":"Feature","properties":{"osm_id":"13164309434","station_name":"Mont-Royal","element_type":"node","station_id":""},"geometry":{"type":"Point","coordinates":[-73.581433,45.524729]}},{"type":"Feature","properties":{"osm_id":"13164309508","station_name":"Laurier","element_type":"node","station_id":""},"geometry":{"type":"Point","coordinates":[-73.588598,45.528236]}},{"type":"Feature","properties":{"osm_id":"13164309493","station_name":"Rosemont","element_type":"node","station_id":""},"geometry":{"type":"Point","coordinates":[-73.597397,45.531579]}},{"type":"Feature","properties":{"osm_id":"13164309491","station_name":"Beaubien","element_type":"node","station_id":""},"geometry":{"type":"Point","coordinates":[-73.60495,45.535058]}},{"type":"Feature","properties":{"osm_id":"13164309487","station_name":"Jean-Talon","element_type":"node","station_id":""},"geometry":{"type":"Point","coordinates":[-73.6143,45.539045]}},{"type":"Feature","properties":{"osm_id":"13164309486","station_name":"Jarry","element_type":"node","station_id":""},"geometry":{"type":"Point","coordinates":[-73.62875,45.543179]}},{"type":"Feature","properties":{"osm_id":"13164309485","station_name":"Crémazie","element_type":"node","station_id":""},"geometry":{"type":"Point","coordinates":[-73.638918,45.546019]}},{"type":"Feature","properties":{"osm_id":"13164309483","station_name":"Sauvé","element_type":"node","station_id":""},"geometry":{"type":"Point","coordinates":[-73.65626,45.550943]}},{"type":"Feature","properties":{"osm_id":"10047655256","station_name":"Henri-Bourassa","element_type":"node","station_id":""},"geometry":{"type":"Point","coordinates":[-73.667915,45.554594]}},{"type":"Feature","properties":{"osm_id":"13157321397","station_name":"Cartier","element_type":"node","station_id":""},"geometry":{"type":"Point","coordinates":[-73.682005,45.559939]}},{"type":"Feature","properties":{"osm_id":"13157321381","station_name":"De la Concorde","element_type":"node","station_id":""},"geometry":{"type":"Point","coordinates":[-73.709458,45.560712]}},{"type":"Feature","properties":{"osm_id":"13157321368","station_name":"Montmorency","element_type":"node","station_id":""},"geometry":{"type":"Point","coordinates":[-73.722012,45.558684]}},{"type":"Feature","properties":{"osm_id":"246656713","station_name":"Honoré-Beaugrand","element_type":"node","station_id":""},"geometry":{"type":"Point","coordinates":[-73.53542,45.596409]}},{"type":"Feature","properties":{"osm_id":"246656708","station_name":"Radisson","element_type":"node","station_id":""},"geometry":{"type":"Point","coordinates":[-73.53942,45.589156]}},{"type":"Feature","properties":{"osm_id":"246656707","station_name":"Langelier","element_type":"node","station_id":""},"geometry":{"type":"Point","coordinates":[-73.543183,45.58275]}},{"type":"Feature","properties":{"osm_id":"246655684","station_name":"Cadillac","element_type":"node","station_id":""},"geometry":{"type":"Point","coordinates":[-73.546718,45.576839]}},{"type":"Feature","properties":{"osm_id":"246654576","station_name":"Assomption","element_type":"node","station_id":""},"geometry":{"type":"Point","coordinates":[-73.547212,45.569165]}},{"type":"Feature","properties":{"osm_id":"26232890","station_name":"Viau","element_type":"node","station_id":""},"geometry":{"type":"Point","coordinates":[-73.547217,45.561211]}},{"type":"Feature","properties":{"osm_id":"264271702","station_name":"Pie IX","element_type":"node","station_id":""},"geometry":{"type":"Point","coordinates":[-73.551501,45.5542]}},{"type":"Feature","properties":{"osm_id":"218356349","station_name":"Joliette","element_type":"node","station_id":""},"geometry":{"type":"Point","coordinates":[-73.551127,45.54689]}},{"type":"Feature","properties":{"osm_id":"218356337","station_name":"Préfontaine","element_type":"node","station_id":""},"geometry":{"type":"Point","coordinates":[-73.554221,45.541717]}},{"type":"Feature","properties":{"osm_id":"218283857","station_name":"Frontenac","element_type":"node","station_id":""},"geometry":{"type":"Point","coordinates":[-73.552479,45.532993]}},{"type":"Feature","properties":{"osm_id":"213403939","station_name":"Papineau","element_type":"node","station_id":""},"geometry":{"type":"Point","coordinates":[-73.552944,45.524049]}},{"type":"Feature","properties":{"osm_id":"11483331210","station_name":"Beaudry","element_type":"node","station_id":""},"geometry":{"type":"Point","coordinates":[-73.557162,45.519543]}},{"type":"Feature","properties":{"osm_id":"208949406","station_name":"Saint-Laurent","element_type":"node","station_id":""},"geometry":{"type":"Point","coordinates":[-73.564822,45.510924]}},{"type":"Feature","properties":{"osm_id":"208949390","station_name":"Place-des-Arts","element_type":"node","station_id":""},"geometry":{"type":"Point","coordinates":[-73.568337,45.508037]}},{"type":"Feature","properties":{"osm_id":"208949385","station_name":"McGill","element_type":"node","station_id":""},"geometry":{"type":"Point","coordinates":[-73.571533,45.504069]}},{"type":"Feature","properties":{"osm_id":"208949381","station_name":"Peel","element_type":"node","station_id":""},"geometry":{"type":"Point","coordinates":[-73.575024,45.500564]}},{"type":"Feature","properties":{"osm_id":"208949374","station_name":"Guy-Concordia","element_type":"node","station_id":""},"geometry":{"type":"Point","coordinates":[-73.579815,45.495351]}},{"type":"Feature","properties":{"osm_id":"213329687","station_name":"Atwater","element_type":"node","station_id":""},"geometry":{"type":"Point","coordinates":[-73.586313,45.489679]}},{"type":"Feature","properties":{"osm_id":"213331953","station_name":"Charlevoix","element_type":"node","station_id":""},"geometry":{"type":"Point","coordinates":[-73.569375,45.478395]}},{"type":"Feature","properties":{"osm_id":"311564344","station_name":"LaSalle","element_type":"node","station_id":""},"geometry":{"type":"Point","coordinates":[-73.566245,45.471028]}},{"type":"Feature","properties":{"osm_id":"311564349","station_name":"De l'Église","element_type":"node","station_id":""},"geometry":{"type":"Point","coordinates":[-73.567044,45.462771]}},{"type":"Feature","properties":{"osm_id":"10938614688","station_name":"Verdun","element_type":"node","station_id":""},"geometry":{"type":"Point","coordinates":[-73.573163,45.459457]}},{"type":"Feature","properties":{"osm_id":"225689808","station_name":"Jolicoeur","element_type":"node","station_id":""},"geometry":{"type":"Point","coordinates":[-73.582035,45.456758]}},{"type":"Feature","properties":{"osm_id":"225690774","station_name":"Monk","element_type":"node","station_id":""},"geometry":{"type":"Point","coordinates":[-73.593731,45.451102]}},{"type":"Feature","properties":{"osm_id":"311564466","station_name":"Angrignon","element_type":"node","station_id":""},"geometry":{"type":"Point","coordinates":[-73.603611,45.446228]}},{"type":"Feature","properties":{"osm_id":"213481727","station_name":"Côte-des-Neiges","element_type":"node","station_id":""},"geometry":{"type":"Point","coordinates":[-73.623471,45.496642]}},{"type":"Feature","properties":{"osm_id":"29482323","station_name":"Université-de-Montréal","element_type":"node","station_id":""},"geometry":{"type":"Point","coordinates":[-73.617564,45.503452]}},{"type":"Feature","properties":{"osm_id":"213656965","station_name":"Édouard-Montpetit","element_type":"node","station_id":""},"geometry":{"type":"Point","coordinates":[-73.612563,45.510131]}},{"type":"Feature","properties":{"osm_id":"6975099127","station_name":"Outremont","element_type":"node","station_id":""},"geometry":{"type":"Point","coordinates":[-73.614904,45.520087]}},{"type":"Feature","properties":{"osm_id":"214042695","station_name":"Acadie","element_type":"node","station_id":""},"geometry":{"type":"Point","coordinates":[-73.623772,45.52322]}},{"type":"Feature","properties":{"osm_id":"214052252","station_name":"Parc","element_type":"node","station_id":""},"geometry":{"type":"Point","coordinates":[-73.624454,45.530434]}},{"type":"Feature","properties":{"osm_id":"214052255","station_name":"De Castelnau","element_type":"node","station_id":""},"geometry":{"type":"Point","coordinates":[-73.620029,45.535284]}},{"type":"Feature","properties":{"osm_id":"214052275","station_name":"Fabre","element_type":"node","station_id":""},"geometry":{"type":"Point","coordinates":[-73.607922,45.546727]}},{"type":"Feature","properties":{"osm_id":"214052280","station_name":"D’Iberville","element_type":"node","station_id":""},"geometry":{"type":"Point","coordinates":[-73.602274,45.553078]}},{"type":"Feature","properties":{"osm_id":"218271645","station_name":"Saint-Michel","element_type":"node","station_id":""},"geometry":{"type":"Point","coordinates":[-73.59986,45.559765]}},{"type":"Feature","properties":{"osm_id":"26233453","station_name":"Jean-Drapeau","element_type":"node","station_id":""},"geometry":{"type":"Point","coordinates":[-73.533166,45.512435]}},{"type":"Feature","properties":{"osm_id":"1299955161","station_name":"Longueuil–Université-de-Sherbrooke","element_type":"node","station_id":""},"geometry":{"type":"Point","coordinates":[-73.521971,45.52495]}},{"type":"Feature","properties":{"route_company":"","route_id":"2","element_type":"way","color":"#d06d07","route_name":"Ligne orange vers Montmorency","osm_id":"270251","railway":"subway","status":"open"},"geometry":{"type":"LineString","coordinates":[[-73.683001,45.514348],[-73.673309,45.508387],[-73.661621,45.50029],[-73.652912,45.494881],[-73.637804,45.494392],[-73.632878,45.492292],[-73.628029,45.486281]]}},{"type":"Feature","properties":{"route_company":"","route_id":"2","element_type":"way","color":"#d06d07","route_name":"Ligne orange vers Montmorency","osm_id":"270251","railway":"subway","status":"open"},"geometry":{"type":"LineString","coordinates":[[-73.628029,45.486281],[-73.619757,45.479748],[-73.603782,45.473911],[-73.58666,45.477198],[-73.580227,45.482463]]}},{"type":"Feature","properties":{"route_company":"","route_id":"2","element_type":"way","color":"#d06d07","route_name":"Ligne orange vers Montmorency","osm_id":"270251","railway":"subway","status":"open"},"geometry":{"type":"LineString","coordinates":[[-73.580227,45.482463],[-73.576496,45.488973],[-73.570953,45.494985],[-73.567076,45.498261],[-73.563108,45.502025],[-73.559733,45.50605],[-73.556399,45.510075],[-73.561514,45.515063]]}},{"type":"Feature","properties":{"route_company":"","route_id":"2","element_type":"way","color":"#d06d07","route_name":"Ligne orange vers Montmorency","osm_id":"270251","railway":"subway","status":"open"},"geometry":{"type":"LineString","coordinates":[[-73.561514,45.515063],[-73.567214,45.517978],[-73.581433,45.524729],[-73.588598,45.528236],[-73.597397,45.531579],[-73.60495,45.535058],[-73.6143,45.539045]]}},{"type":"Feature","properties":{"route_company":"","route_id":"2","element_type":"way","color":"#d06d07","route_name":"Ligne orange vers Montmorency","osm_id":"270251","railway":"subway","status":"open"},"geometry":{"type":"LineString","coordinates":[[-73.6143,45.539045],[-73.62875,45.543179],[-73.638918,45.546019],[-73.65626,45.550943],[-73.667915,45.554594],[-73.682005,45.559939],[-73.709458,45.560712],[-73.722012,45.558684]]}},{"type":"Feature","properties":{"route_company":"","route_id":"1","element_type":"way","color":"#069037","route_name":"Ligne verte vers Honoré-Beaugrand","osm_id":"58433","railway":"subway","status":"open"},"geometry":{"type":"LineString","coordinates":[[-73.53542,45.596409],[-73.53942,45.589156],[-73.543183,45.58275],[-73.546718,45.576839],[-73.547212,45.569165],[-73.547217,45.561211],[-73.551501,45.5542],[-73.551127,45.54689],[-73.554221,45.541717],[-73.552479,45.532993],[-73.552944,45.524049],[-73.557162,45.519543],[-73.561514,45.515063]]}},{"type":"Feature","properties":{"route_company":"","route_id":"1","element_type":"way","color":"#069037","route_name":"Ligne verte vers Honoré-Beaugrand","osm_id":"58433","railway":"subway","status":"open"},"geometry":{"type":"LineString","coordinates":[[-73.561514,45.515063],[-73.564822,45.510924],[-73.568337,45.508037],[-73.571533,45.504069],[-73.575024,45.500564],[-73.579815,45.495351],[-73.586313,45.489679],[-73.580227,45.482463]]}},{"type":"Feature","properties":{"route_company":"","route_id":"1","element_type":"way","color":"#069037","route_name":"Ligne verte vers Honoré-Beaugrand","osm_id":"58433","railway":"subway","status":"open"},"geometry":{"type":"LineString","coordinates":[[-73.580227,45.482463],[-73.569375,45.478395],[-73.566245,45.471028],[-73.567044,45.462771],[-73.573163,45.459457],[-73.582035,45.456758],[-73.593731,45.451102],[-73.603611,45.446228]]}},{"type":"Feature","properties":{"route_company":"Société de transport de Montréal","route_id":"5","element_type":"way","color":"#3465b4","route_name":"Ligne bleue vers Saint-Michel","osm_id":"270255","railway":"subway","status":"open"},"geometry":{"type":"LineString","coordinates":[[-73.628029,45.486281],[-73.623471,45.496642],[-73.617564,45.503452],[-73.612563,45.510131],[-73.614904,45.520087],[-73.623772,45.52322],[-73.624454,45.530434],[-73.620029,45.535284],[-73.6143,45.539045]]}},{"type":"Feature","properties":{"route_company":"Société de transport de Montréal","route_id":"5","element_type":"way","color":"#3465b4","route_name":"Ligne bleue vers Saint-Michel","osm_id":"270255","railway":"subway","status":"open"},"geometry":{"type":"LineString","coordinates":[[-73.6143,45.539045],[-73.607922,45.546727],[-73.602274,45.553078],[-73.59986,45.559765]]}},{"type":"Feature","properties":{"route_company":"","route_id":"4","element_type":"way","color":"#f1ce00","route_name":"Ligne jaune vers Berri-UQAM","osm_id":"270252","railway":"subway","status":"open"},"geometry":{"type":"LineString","coordinates":[[-73.561514,45.515063],[-73.533166,45.512435],[-73.521971,45.52495]]}}]}