{"type":"FeatureCollection","generator":"metroOsmFetch (OpenStreetMap / Overpass, ODbL)","features":[{"type":"Feature","properties":{"route_company":"","route_id":"1","element_type":"way","color":"#cd5c5c","route_name":"常州地铁1号线 森林公园-南夏墅","osm_id":"10149400","railway":"subway","status":"open"},"geometry":{"type":"LineString","coordinates":[[119.960243,31.902471],[119.956584,31.88971],[119.95278,31.875941],[119.949663,31.865228],[119.951097,31.856875],[119.962621,31.85616],[119.972437,31.853569],[119.975745,31.841029],[119.981946,31.83023],[119.98049,31.821797],[119.976854,31.813238],[119.970282,31.804862],[119.971329,31.795133],[119.969228,31.788933],[119.963913,31.784773],[119.959528,31.777249],[119.956944,31.770339],[119.95551,31.763055],[119.952324,31.75188],[119.94431,31.736697],[119.94426,31.724227],[119.944017,31.714914],[119.94374,31.708181],[119.94349,31.699031],[119.94282,31.690665],[119.942779,31.676576],[119.943869,31.662014],[119.946166,31.647582],[119.947326,31.634168]]}},{"type":"Feature","properties":{"route_company":"常州地铁","route_id":"2","element_type":"way","color":"#529fc9","route_name":"常州地铁2号线 青枫公园-五一路","osm_id":"12770688","railway":"subway","status":"open"},"geometry":{"type":"LineString","coordinates":[[119.894781,31.804344],[119.903507,31.800388],[119.912487,31.795252],[119.923249,31.788753],[119.937427,31.782219],[119.94852,31.781825],[119.959528,31.777249],[119.968253,31.772263],[119.980942,31.771719],[119.987409,31.779364],[120.00075,31.771041],[120.012291,31.761714],[120.022598,31.75537],[120.04533,31.757381],[120.059381,31.759811]]}},{"type":"Feature","properties":{"osm_id":"6463402853","station_name":"森林公园","element_type":"node","station_id":"6463402853"},"geometry":{"type":"Point","coordinates":[119.960243,31.902471]}},{"type":"Feature","properties":{"osm_id":"6253614281","station_name":"新龙","element_type":"node","station_id":"6253614281"},"geometry":{"type":"Point","coordinates":[119.956584,31.88971]}},{"type":"Feature","properties":{"osm_id":"6285548728","station_name":"旅游学校","element_type":"node","station_id":"6285548728"},"geometry":{"type":"Point","coordinates":[119.95278,31.875941]}},{"type":"Feature","properties":{"osm_id":"5353379409","station_name":"新桥","element_type":"node","station_id":"5353379409"},"geometry":{"type":"Point","coordinates":[119.949663,31.865228]}},{"type":"Feature","properties":{"osm_id":"6416097423","station_name":"常州北站","element_type":"node","station_id":"6416097423"},"geometry":{"type":"Point","coordinates":[119.951097,31.856875]}},{"type":"Feature","properties":{"osm_id":"6555656087","station_name":"北郊中学","element_type":"node","station_id":"6555656087"},"geometry":{"type":"Point","coordinates":[119.962621,31.85616]}},{"type":"Feature","properties":{"osm_id":"6885059984","station_name":"外国语学校","element_type":"node","station_id":"6885059984"},"geometry":{"type":"Point","coordinates":[119.972437,31.853569]}},{"type":"Feature","properties":{"osm_id":"6556682848","station_name":"环球港","element_type":"node","station_id":"6556682848"},"geometry":{"type":"Point","coordinates":[119.975745,31.841029]}},{"type":"Feature","properties":{"osm_id":"5288529185","station_name":"新区公园","element_type":"node","station_id":"5288529185"},"geometry":{"type":"Point","coordinates":[119.981946,31.83023]}},{"type":"Feature","properties":{"osm_id":"6886240066","station_name":"河海","element_type":"node","station_id":"6886240066"},"geometry":{"type":"Point","coordinates":[119.98049,31.821797]}},{"type":"Feature","properties":{"osm_id":"6886240065","station_name":"奥体中心","element_type":"node","station_id":"6886240065"},"geometry":{"type":"Point","coordinates":[119.976854,31.813238]}},{"type":"Feature","properties":{"osm_id":"5353379416","station_name":"市民广场","element_type":"node","station_id":"5353379416"},"geometry":{"type":"Point","coordinates":[119.970282,31.804862]}},{"type":"Feature","properties":{"osm_id":"6741884316","station_name":"翠竹","element_type":"node","station_id":"6741884316"},"geometry":{"type":"Point","coordinates":[119.971329,31.795133]}},{"type":"Feature","properties":{"osm_id":"9250855736","station_name":"常州火车站","element_type":"node","station_id":"9250855736"},"geometry":{"type":"Point","coordinates":[119.969228,31.788933]}},{"type":"Feature","properties":{"osm_id":"6886240064","station_name":"博爱路","element_type":"node","station_id":"6886240064"},"geometry":{"type":"Point","coordinates":[119.963913,31.784773]}},{"type":"Feature","properties":{"osm_id":"6741884410","station_name":"文化宫","element_type":"node","station_id":"6741884410"},"geometry":{"type":"Point","coordinates":[119.959528,31.777249]}},{"type":"Feature","properties":{"osm_id":"6407079719","station_name":"同济桥","element_type":"node","station_id":"L01-18"},"geometry":{"type":"Point","coordinates":[119.956944,31.770339]}},{"type":"Feature","properties":{"osm_id":"6743772132","station_name":"清凉寺","element_type":"node","station_id":"6743772132"},"geometry":{"type":"Point","coordinates":[119.95551,31.763055]}},{"type":"Feature","properties":{"osm_id":"6886240061","station_name":"茶山","element_type":"node","station_id":"6886240061"},"geometry":{"type":"Point","coordinates":[119.952324,31.75188]}},{"type":"Feature","properties":{"osm_id":"6743772293","station_name":"聚湖路","element_type":"node","station_id":"6743772293"},"geometry":{"type":"Point","coordinates":[119.94431,31.736697]}},{"type":"Feature","properties":{"osm_id":"6886240060","station_name":"湖塘","element_type":"node","station_id":"6886240060"},"geometry":{"type":"Point","coordinates":[119.94426,31.724227]}},{"type":"Feature","properties":{"osm_id":"6743772379","station_name":"新天地公园","element_type":"node","station_id":"6743772379"},"geometry":{"type":"Point","coordinates":[119.944017,31.714914]}},{"type":"Feature","properties":{"osm_id":"6743772449","station_name":"长虹路","element_type":"node","station_id":"6743772449"},"geometry":{"type":"Point","coordinates":[119.94374,31.708181]}},{"type":"Feature","properties":{"osm_id":"6743772484","station_name":"延政大道","element_type":"node","station_id":"6743772484"},"geometry":{"type":"Point","coordinates":[119.94349,31.699031]}},{"type":"Feature","properties":{"osm_id":"6743772509","station_name":"科教城北","element_type":"node","station_id":"6743772509"},"geometry":{"type":"Point","coordinates":[119.94282,31.690665]}},{"type":"Feature","properties":{"osm_id":"6885085685","station_name":"科教城南","element_type":"node","station_id":"6885085685"},"geometry":{"type":"Point","coordinates":[119.942779,31.676576]}},{"type":"Feature","properties":{"osm_id":"5353416731","station_name":"武进沿江城际站","element_type":"node","station_id":"5353416731"},"geometry":{"type":"Point","coordinates":[119.943869,31.662014]}},{"type":"Feature","properties":{"osm_id":"6743772572","station_name":"阳湖路","element_type":"node","station_id":"6743772572"},"geometry":{"type":"Point","coordinates":[119.946166,31.647582]}},{"type":"Feature","properties":{"osm_id":"6885085688","station_name":"南夏墅","element_type":"node","station_id":"6885085688"},"geometry":{"type":"Point","coordinates":[119.947326,31.634168]}},{"type":"Feature","properties":{"osm_id":"7504976301","station_name":"青枫公园","element_type":"node","station_id":"7504976301"},"geometry":{"type":"Point","coordinates":[119.894781,31.804344]}},{"type":"Feature","properties":{"osm_id":"8778201915","station_name":"海棠路","element_type":"node","station_id":"8778201915"},"geometry":{"type":"Point","coordinates":[119.903507,31.800388]}},{"type":"Feature","properties":{"osm_id":"8778201895","station_name":"五星","element_type":"node","station_id":"8778201895"},"geometry":{"type":"Point","coordinates":[119.912487,31.795252]}},{"type":"Feature","properties":{"osm_id":"8778201889","station_name":"勤业","element_type":"node","station_id":"8778201889"},"geometry":{"type":"Point","coordinates":[119.923249,31.788753]}},{"type":"Feature","properties":{"osm_id":"8778201883","station_name":"怀德","element_type":"node","station_id":"8778201883"},"geometry":{"type":"Point","coordinates":[119.937427,31.782219]}},{"type":"Feature","properties":{"osm_id":"7504952074","station_name":"南大街","element_type":"node","station_id":"7504952074"},"geometry":{"type":"Point","coordinates":[119.94852,31.781825]}},{"type":"Feature","properties":{"osm_id":"8778201740","station_name":"红梅公园","element_type":"node","station_id":"8778201740"},"geometry":{"type":"Point","coordinates":[119.968253,31.772263]}},{"type":"Feature","properties":{"osm_id":"8778201758","station_name":"五角场","element_type":"node","station_id":"8778201758"},"geometry":{"type":"Point","coordinates":[119.980942,31.771719]}},{"type":"Feature","properties":{"osm_id":"8778201771","station_name":"三角场","element_type":"node","station_id":"8778201771"},"geometry":{"type":"Point","coordinates":[119.987409,31.779364]}},{"type":"Feature","properties":{"osm_id":"8778201777","station_name":"紫云","element_type":"node","station_id":"8778201777"},"geometry":{"type":"Point","coordinates":[120.00075,31.771041]}},{"type":"Feature","properties":{"osm_id":"8778201792","station_name":"青洋路","element_type":"node","station_id":"8778201792"},"geometry":{"type":"Point","coordinates":[120.012291,31.761714]}},{"type":"Feature","properties":{"osm_id":"8778201794","station_name":"丁堰","element_type":"node","station_id":"8778201794"},"geometry":{"type":"Point","coordinates":[120.022598,31.75537]}},{"type":"Feature","properties":{"osm_id":"8778201796","station_name":"潞城","element_type":"node","station_id":"8778201796"},"geometry":{"type":"Point","coordinates":[120.04533,31.757381]}},{"type":"Feature","properties":{"osm_id":"8816058292","station_name":"五一路","element_type":"node","station_id":"8816058292"},"geometry":{"type":"Point","coordinates":[120.059381,31.759811]}},{"type":"Feature","properties":{"route_company":"","route_id":"802330021","element_type":"way","color":"#4363d8","route_name":"常州地铁5号线","osm_id":"802330021","railway":"subway","status":"construction"},"geometry":{"type":"LineString","coordinates":[[120.053537,31.792544],[120.046657,31.796043],[120.035645,31.79933],[120.008549,31.799686],[119.996559,31.799066],[119.9754,31.792665],[119.967705,31.798576],[119.958958,31.801481],[119.95687,31.801327],[119.954377,31.798215],[119.947199,31.794025],[119.94531,31.785187],[119.940037,31.782173],[119.933608,31.780263],[119.917619,31.779298],[119.901787,31.773783],[119.898644,31.761747],[119.892454,31.751973],[119.895511,31.745546],[119.894423,31.736621],[119.895584,31.71717],[119.89503,31.715126],[119.892017,31.713821],[119.876775,31.713891],[119.8673,31.707675],[119.864066,31.70799],[119.858429,31.710589],[119.847786,31.711528],[119.846047,31.708486],[119.842419,31.688841]]}},{"type":"Feature","properties":{"route_company":"","route_id":"1211776036","element_type":"way","color":"#f58231","route_name":"常州地铁6号线","osm_id":"1211776036","railway":"subway","status":"construction"},"geometry":{"type":"LineString","coordinates":[[119.941574,31.661401],[119.946866,31.662573],[119.950167,31.667177],[119.965859,31.667193],[119.969608,31.669898],[119.971779,31.684087],[119.970727,31.704898],[119.974486,31.720259],[119.974059,31.733145],[119.972928,31.738817],[119.974518,31.757289],[119.975915,31.763658],[119.977185,31.765281],[119.979852,31.765699],[119.985646,31.762968],[119.990991,31.763422],[120.006674,31.776725],[120.007431,31.77916],[120.006991,31.781067],[120.004035,31.783749],[119.999824,31.790892],[120.001323,31.810364],[120.000922,31.823824],[119.999695,31.826234],[119.996505,31.827909],[119.975509,31.831311],[119.959975,31.835815],[119.958267,31.83687],[119.95543,31.842614],[119.943885,31.846178]]}}]}