{"type":"FeatureCollection","generator":"metroOsmFetch (OpenStreetMap / Overpass, ODbL)","features":[{"type":"Feature","properties":{"route_company":"","route_id":"1","element_type":"way","color":"#cd5c5c","route_name":"常州地铁1号线 森林公园-南夏墅","osm_id":"10149400","railway":"subway"},"geometry":{"type":"LineString","coordinates":[[119.960243,31.902471],[119.956584,31.88971],[119.95278,31.875941],[119.949663,31.865228],[119.951097,31.856875],[119.962621,31.85616],[119.972437,31.853569],[119.975745,31.841029],[119.981946,31.83023],[119.98049,31.821797],[119.976854,31.813238],[119.970282,31.804862],[119.971329,31.795133],[119.969228,31.788933],[119.963913,31.784773],[119.959528,31.777249],[119.956944,31.770339],[119.95551,31.763055],[119.952324,31.75188],[119.94431,31.736697],[119.94426,31.724227],[119.944017,31.714914],[119.94374,31.708181],[119.94349,31.699031],[119.94282,31.690665],[119.942779,31.676576],[119.943869,31.662014],[119.946166,31.647582],[119.947326,31.634168]]}},{"type":"Feature","properties":{"route_company":"无锡地铁","route_id":"1","element_type":"way","color":"#f03b3f","route_name":"无锡地铁1号线","osm_id":"5454535","railway":"subway"},"geometry":{"type":"LineString","coordinates":[[120.310285,31.677504],[120.310245,31.664167],[120.298998,31.647712],[120.299734,31.6397],[120.299448,31.62793],[120.300278,31.612023],[120.299059,31.60345],[120.301709,31.590998],[120.294896,31.58401],[120.295176,31.577698],[120.301913,31.568789],[120.300441,31.563924],[120.300565,31.556772],[120.306788,31.55101],[120.314445,31.543713],[120.323648,31.535308],[120.319554,31.522883],[120.31945,31.511711],[120.321197,31.502487],[120.315253,31.495218],[120.302126,31.493428],[120.286447,31.491885],[120.274009,31.485679],[120.272466,31.474866],[120.274683,31.462751],[120.270095,31.449791],[120.267256,31.438681]]}},{"type":"Feature","properties":{"route_company":"无锡地铁","route_id":"2","element_type":"way","color":"#00a43c","route_name":"无锡地铁2号线: 梅园开原寺→无锡东站","osm_id":"5454536","railway":"subway"},"geometry":{"type":"LineString","coordinates":[[120.214739,31.55287],[120.232031,31.558571],[120.245235,31.561128],[120.257667,31.563987],[120.271189,31.566752],[120.281692,31.569148],[120.286174,31.575693],[120.295176,31.577698],[120.303702,31.580324],[120.316016,31.584179],[120.325346,31.585086],[120.337251,31.588299],[120.346235,31.587735],[120.358892,31.583869],[120.374255,31.579914],[120.390347,31.581354],[120.404028,31.582184],[120.426653,31.582862],[120.444604,31.5886],[120.450118,31.593709],[120.454865,31.598156]]}},{"type":"Feature","properties":{"route_company":"无锡地铁","route_id":"3","element_type":"way","color":"#00a9e0","route_name":"无锡地铁3号线","osm_id":"11798334","railway":"subway"},"geometry":{"type":"LineString","coordinates":[[120.211291,31.598651],[120.225657,31.598356],[120.239386,31.602379],[120.254616,31.599269],[120.266961,31.594122],[120.281274,31.595702],[120.292458,31.592802],[120.301709,31.590998],[120.315434,31.590693],[120.325346,31.585086],[120.327955,31.575511],[120.332606,31.568062],[120.33919,31.560973],[120.347969,31.551221],[120.353821,31.543179],[120.365188,31.531451],[120.371584,31.525172],[120.381131,31.515536],[120.387565,31.500987],[120.398472,31.499013],[120.426646,31.503924]]}},{"type":"Feature","properties":{"route_company":"无锡地铁","route_id":"4","element_type":"way","color":"#800080","route_name":"无锡地铁四号线","osm_id":"13540932","railway":"subway"},"geometry":{"type":"LineString","coordinates":[[120.321074,31.478928],[120.310814,31.476096],[120.303881,31.485232],[120.302126,31.493428],[120.296869,31.506216],[120.282579,31.507767],[120.276881,31.513717],[120.261509,31.524045],[120.258985,31.534098],[120.258406,31.542829],[120.257679,31.550713],[120.257667,31.563987],[120.265276,31.570649],[120.273138,31.5834],[120.266961,31.594122],[120.275418,31.601185],[120.286221,31.620028],[120.299448,31.62793]]}},{"type":"Feature","properties":{"route_company":"常州地铁","route_id":"2","element_type":"way","color":"#529fc9","route_name":"常州地铁2号线 青枫公园-五一路","osm_id":"12770688","railway":"subway"},"geometry":{"type":"LineString","coordinates":[[119.894781,31.804344],[119.903507,31.800388],[119.912487,31.795252],[119.923249,31.788753],[119.937427,31.782219],[119.94852,31.781825],[119.959528,31.777249],[119.968253,31.772263],[119.980942,31.771719],[119.987409,31.779364],[120.00075,31.771041],[120.012291,31.761714],[120.022598,31.75537],[120.04533,31.757381],[120.059381,31.759811]]}},{"type":"Feature","properties":{"route_company":"无锡地铁","route_id":"S1","element_type":"way","color":"#ee2737","route_name":"无锡地铁S1号线 (堰桥方向)","osm_id":"17126907","railway":"subway"},"geometry":{"type":"LineString","coordinates":[[120.253763,31.925135],[120.266542,31.908961],[120.267083,31.893261],[120.267578,31.878017],[120.2744,31.864132],[120.262553,31.843781],[120.267564,31.818474],[120.289617,31.772618],[120.30671,31.710181],[120.310285,31.677504]]}},{"type":"Feature","properties":{"osm_id":"6463402853","station_name":"森林公园","element_type":"node","station_id":"6463402853"},"geometry":{"type":"Point","coordinates":[119.960243,31.902471]}},{"type":"Feature","properties":{"osm_id":"6253614281","station_name":"新龙","element_type":"node","station_id":"6253614281"},"geometry":{"type":"Point","coordinates":[119.956584,31.88971]}},{"type":"Feature","properties":{"osm_id":"6285548728","station_name":"旅游学校","element_type":"node","station_id":"6285548728"},"geometry":{"type":"Point","coordinates":[119.95278,31.875941]}},{"type":"Feature","properties":{"osm_id":"5353379409","station_name":"新桥","element_type":"node","station_id":"5353379409"},"geometry":{"type":"Point","coordinates":[119.949663,31.865228]}},{"type":"Feature","properties":{"osm_id":"6416097423","station_name":"常州北站","element_type":"node","station_id":"6416097423"},"geometry":{"type":"Point","coordinates":[119.951097,31.856875]}},{"type":"Feature","properties":{"osm_id":"6555656087","station_name":"北郊中学","element_type":"node","station_id":"6555656087"},"geometry":{"type":"Point","coordinates":[119.962621,31.85616]}},{"type":"Feature","properties":{"osm_id":"6885059984","station_name":"外国语学校","element_type":"node","station_id":"6885059984"},"geometry":{"type":"Point","coordinates":[119.972437,31.853569]}},{"type":"Feature","properties":{"osm_id":"6556682848","station_name":"环球港","element_type":"node","station_id":"6556682848"},"geometry":{"type":"Point","coordinates":[119.975745,31.841029]}},{"type":"Feature","properties":{"osm_id":"5288529185","station_name":"新区公园","element_type":"node","station_id":"5288529185"},"geometry":{"type":"Point","coordinates":[119.981946,31.83023]}},{"type":"Feature","properties":{"osm_id":"6886240066","station_name":"河海","element_type":"node","station_id":"6886240066"},"geometry":{"type":"Point","coordinates":[119.98049,31.821797]}},{"type":"Feature","properties":{"osm_id":"6886240065","station_name":"奥体中心","element_type":"node","station_id":"6886240065"},"geometry":{"type":"Point","coordinates":[119.976854,31.813238]}},{"type":"Feature","properties":{"osm_id":"5353379416","station_name":"市民广场","element_type":"node","station_id":"5353379416"},"geometry":{"type":"Point","coordinates":[119.970282,31.804862]}},{"type":"Feature","properties":{"osm_id":"6741884316","station_name":"翠竹","element_type":"node","station_id":"6741884316"},"geometry":{"type":"Point","coordinates":[119.971329,31.795133]}},{"type":"Feature","properties":{"osm_id":"9250855736","station_name":"常州火车站","element_type":"node","station_id":"9250855736"},"geometry":{"type":"Point","coordinates":[119.969228,31.788933]}},{"type":"Feature","properties":{"osm_id":"6886240064","station_name":"博爱路","element_type":"node","station_id":"6886240064"},"geometry":{"type":"Point","coordinates":[119.963913,31.784773]}},{"type":"Feature","properties":{"osm_id":"6741884410","station_name":"文化宫","element_type":"node","station_id":"6741884410"},"geometry":{"type":"Point","coordinates":[119.959528,31.777249]}},{"type":"Feature","properties":{"osm_id":"6407079719","station_name":"同济桥","element_type":"node","station_id":"L01-18"},"geometry":{"type":"Point","coordinates":[119.956944,31.770339]}},{"type":"Feature","properties":{"osm_id":"6743772132","station_name":"清凉寺","element_type":"node","station_id":"6743772132"},"geometry":{"type":"Point","coordinates":[119.95551,31.763055]}},{"type":"Feature","properties":{"osm_id":"6886240061","station_name":"茶山","element_type":"node","station_id":"6886240061"},"geometry":{"type":"Point","coordinates":[119.952324,31.75188]}},{"type":"Feature","properties":{"osm_id":"6743772293","station_name":"聚湖路","element_type":"node","station_id":"6743772293"},"geometry":{"type":"Point","coordinates":[119.94431,31.736697]}},{"type":"Feature","properties":{"osm_id":"6886240060","station_name":"湖塘","element_type":"node","station_id":"6886240060"},"geometry":{"type":"Point","coordinates":[119.94426,31.724227]}},{"type":"Feature","properties":{"osm_id":"6743772379","station_name":"新天地公园","element_type":"node","station_id":"6743772379"},"geometry":{"type":"Point","coordinates":[119.944017,31.714914]}},{"type":"Feature","properties":{"osm_id":"6743772449","station_name":"长虹路","element_type":"node","station_id":"6743772449"},"geometry":{"type":"Point","coordinates":[119.94374,31.708181]}},{"type":"Feature","properties":{"osm_id":"6743772484","station_name":"延政大道","element_type":"node","station_id":"6743772484"},"geometry":{"type":"Point","coordinates":[119.94349,31.699031]}},{"type":"Feature","properties":{"osm_id":"6743772509","station_name":"科教城北","element_type":"node","station_id":"6743772509"},"geometry":{"type":"Point","coordinates":[119.94282,31.690665]}},{"type":"Feature","properties":{"osm_id":"6885085685","station_name":"科教城南","element_type":"node","station_id":"6885085685"},"geometry":{"type":"Point","coordinates":[119.942779,31.676576]}},{"type":"Feature","properties":{"osm_id":"5353416731","station_name":"武进沿江城际站","element_type":"node","station_id":"5353416731"},"geometry":{"type":"Point","coordinates":[119.943869,31.662014]}},{"type":"Feature","properties":{"osm_id":"6743772572","station_name":"阳湖路","element_type":"node","station_id":"6743772572"},"geometry":{"type":"Point","coordinates":[119.946166,31.647582]}},{"type":"Feature","properties":{"osm_id":"6885085688","station_name":"南夏墅","element_type":"node","station_id":"6885085688"},"geometry":{"type":"Point","coordinates":[119.947326,31.634168]}},{"type":"Feature","properties":{"osm_id":"2421500195","station_name":"堰桥","element_type":"node","station_id":"2421500195"},"geometry":{"type":"Point","coordinates":[120.310285,31.677504]}},{"type":"Feature","properties":{"osm_id":"2421500230","station_name":"锡北运河站","element_type":"node","station_id":"2421500230"},"geometry":{"type":"Point","coordinates":[120.310245,31.664167]}},{"type":"Feature","properties":{"osm_id":"2421500194","station_name":"西漳站","element_type":"node","station_id":"2421500194"},"geometry":{"type":"Point","coordinates":[120.298998,31.647712]}},{"type":"Feature","properties":{"osm_id":"2421500197","station_name":"天一站","element_type":"node","station_id":"2421500197"},"geometry":{"type":"Point","coordinates":[120.299734,31.6397]}},{"type":"Feature","properties":{"osm_id":"2421500222","station_name":"刘潭站","element_type":"node","station_id":"2421500222"},"geometry":{"type":"Point","coordinates":[120.299448,31.62793]}},{"type":"Feature","properties":{"osm_id":"2455137761","station_name":"庄前站","element_type":"node","station_id":"2455137761"},"geometry":{"type":"Point","coordinates":[120.300278,31.612023]}},{"type":"Feature","properties":{"osm_id":"2455137764","station_name":"民丰站","element_type":"node","station_id":"2455137764"},"geometry":{"type":"Point","coordinates":[120.299059,31.60345]}},{"type":"Feature","properties":{"osm_id":"2455158399","station_name":"无锡火车站","element_type":"node","station_id":"2455158399"},"geometry":{"type":"Point","coordinates":[120.301709,31.590998]}},{"type":"Feature","properties":{"osm_id":"2455158368","station_name":"胜利门站","element_type":"node","station_id":"2455158368"},"geometry":{"type":"Point","coordinates":[120.294896,31.58401]}},{"type":"Feature","properties":{"osm_id":"2455158362","station_name":"三阳广场站","element_type":"node","station_id":"2455158362"},"geometry":{"type":"Point","coordinates":[120.295176,31.577698]}},{"type":"Feature","properties":{"osm_id":"2455158406","station_name":"南禅寺站","element_type":"node","station_id":"2455158406"},"geometry":{"type":"Point","coordinates":[120.301913,31.568789]}},{"type":"Feature","properties":{"osm_id":"2455158385","station_name":"谈渡桥站","element_type":"node","station_id":"2455158385"},"geometry":{"type":"Point","coordinates":[120.300441,31.563924]}},{"type":"Feature","properties":{"osm_id":"2455158407","station_name":"太湖广场站","element_type":"node","station_id":"2455158407"},"geometry":{"type":"Point","coordinates":[120.300565,31.556772]}},{"type":"Feature","properties":{"osm_id":"2455158408","station_name":"清名桥站","element_type":"node","station_id":"2455158408"},"geometry":{"type":"Point","coordinates":[120.306788,31.55101]}},{"type":"Feature","properties":{"osm_id":"2455158367","station_name":"人民医院站","element_type":"node","station_id":"2455158367"},"geometry":{"type":"Point","coordinates":[120.314445,31.543713]}},{"type":"Feature","properties":{"osm_id":"2455158369","station_name":"华清大桥站","element_type":"node","station_id":"2455158369"},"geometry":{"type":"Point","coordinates":[120.323648,31.535308]}},{"type":"Feature","properties":{"osm_id":"2456443014","station_name":"扬名站","element_type":"node","station_id":"2456443014"},"geometry":{"type":"Point","coordinates":[120.319554,31.522883]}},{"type":"Feature","properties":{"osm_id":"2456446922","station_name":"南湖家园站","element_type":"node","station_id":"2456446922"},"geometry":{"type":"Point","coordinates":[120.31945,31.511711]}},{"type":"Feature","properties":{"osm_id":"2456446927","station_name":"塘铁桥站","element_type":"node","station_id":"2456446927"},"geometry":{"type":"Point","coordinates":[120.321197,31.502487]}},{"type":"Feature","properties":{"osm_id":"2456446918","station_name":"金匮公园站","element_type":"node","station_id":"2456446918"},"geometry":{"type":"Point","coordinates":[120.315253,31.495218]}},{"type":"Feature","properties":{"osm_id":"2456449549","station_name":"市民中心","element_type":"node","station_id":"2456449549"},"geometry":{"type":"Point","coordinates":[120.302126,31.493428]}},{"type":"Feature","properties":{"osm_id":"2456452291","station_name":"文化宫站","element_type":"node","station_id":"2456452291"},"geometry":{"type":"Point","coordinates":[120.286447,31.491885]}},{"type":"Feature","properties":{"osm_id":"2456459198","station_name":"江南大学站","element_type":"node","station_id":"2456459198"},"geometry":{"type":"Point","coordinates":[120.274009,31.485679]}},{"type":"Feature","properties":{"osm_id":"2456459191","station_name":"长广溪","element_type":"node","station_id":"2456459191"},"geometry":{"type":"Point","coordinates":[120.272466,31.474866]}},{"type":"Feature","properties":{"osm_id":"7018485888","station_name":"雪浪","element_type":"node","station_id":"7018485888"},"geometry":{"type":"Point","coordinates":[120.274683,31.462751]}},{"type":"Feature","properties":{"osm_id":"7018442972","station_name":"葛埭桥","element_type":"node","station_id":"7018442972"},"geometry":{"type":"Point","coordinates":[120.270095,31.449791]}},{"type":"Feature","properties":{"osm_id":"7018442984","station_name":"南方泉","element_type":"node","station_id":"7018442984"},"geometry":{"type":"Point","coordinates":[120.267256,31.438681]}},{"type":"Feature","properties":{"osm_id":"3088526271","station_name":"梅园开原寺","element_type":"node","station_id":"3088526271"},"geometry":{"type":"Point","coordinates":[120.214739,31.55287]}},{"type":"Feature","properties":{"osm_id":"2678512902","station_name":"荣巷","element_type":"node","station_id":"2678512902"},"geometry":{"type":"Point","coordinates":[120.232031,31.558571]}},{"type":"Feature","properties":{"osm_id":"2950151446","station_name":"小桃源","element_type":"node","station_id":"2950151446"},"geometry":{"type":"Point","coordinates":[120.245235,31.561128]}},{"type":"Feature","properties":{"osm_id":"2940471940","station_name":"河埒口","element_type":"node","station_id":"2940471940"},"geometry":{"type":"Point","coordinates":[120.257667,31.563987]}},{"type":"Feature","properties":{"osm_id":"3266308745","station_name":"大王基","element_type":"node","station_id":"3266308745"},"geometry":{"type":"Point","coordinates":[120.271189,31.566752]}},{"type":"Feature","properties":{"osm_id":"2668561303","station_name":"梁溪大桥","element_type":"node","station_id":"2668561303"},"geometry":{"type":"Point","coordinates":[120.281692,31.569148]}},{"type":"Feature","properties":{"osm_id":"2668561291","station_name":"五爱广场","element_type":"node","station_id":"2668561291"},"geometry":{"type":"Point","coordinates":[120.286174,31.575693]}},{"type":"Feature","properties":{"osm_id":"2668561311","station_name":"东林广场","element_type":"node","station_id":"2668561311"},"geometry":{"type":"Point","coordinates":[120.303702,31.580324]}},{"type":"Feature","properties":{"osm_id":"2668561286","station_name":"上马墩","element_type":"node","station_id":"2668561286"},"geometry":{"type":"Point","coordinates":[120.316016,31.584179]}},{"type":"Feature","properties":{"osm_id":"2668561306","station_name":"靖海","element_type":"node","station_id":"2668561306"},"geometry":{"type":"Point","coordinates":[120.325346,31.585086]}},{"type":"Feature","properties":{"osm_id":"2668561302","station_name":"广益","element_type":"node","station_id":"2668561302"},"geometry":{"type":"Point","coordinates":[120.337251,31.588299]}},{"type":"Feature","properties":{"osm_id":"2668561323","station_name":"柏庄","element_type":"node","station_id":"2668561323"},"geometry":{"type":"Point","coordinates":[120.346235,31.587735]}},{"type":"Feature","properties":{"osm_id":"2668561315","station_name":"东亭","element_type":"node","station_id":"2668561315"},"geometry":{"type":"Point","coordinates":[120.358892,31.583869]}},{"type":"Feature","properties":{"osm_id":"2668561342","station_name":"庄桥","element_type":"node","station_id":"2668561342"},"geometry":{"type":"Point","coordinates":[120.374255,31.579914]}},{"type":"Feature","properties":{"osm_id":"3266308750","station_name":"云林","element_type":"node","station_id":"3266308750"},"geometry":{"type":"Point","coordinates":[120.390347,31.581354]}},{"type":"Feature","properties":{"osm_id":"3266308748","station_name":"九里河公园","element_type":"node","station_id":"3266308748"},"geometry":{"type":"Point","coordinates":[120.404028,31.582184]}},{"type":"Feature","properties":{"osm_id":"3266308742","station_name":"查桥","element_type":"node","station_id":"3266308742"},"geometry":{"type":"Point","coordinates":[120.426653,31.582862]}},{"type":"Feature","properties":{"osm_id":"5224327708","station_name":"映月湖公园","element_type":"node","station_id":"5224327708"},"geometry":{"type":"Point","coordinates":[120.444604,31.5886]}},{"type":"Feature","properties":{"osm_id":"5224327704","station_name":"迎宾广场","element_type":"node","station_id":"5224327704"},"geometry":{"type":"Point","coordinates":[120.450118,31.593709]}},{"type":"Feature","properties":{"osm_id":"2668561281","station_name":"无锡东站","element_type":"node","station_id":"2668561281"},"geometry":{"type":"Point","coordinates":[120.454865,31.598156]}},{"type":"Feature","properties":{"osm_id":"6966717072","station_name":"苏庙","element_type":"node","station_id":"6966717072"},"geometry":{"type":"Point","coordinates":[120.211291,31.598651]}},{"type":"Feature","properties":{"osm_id":"6966717076","station_name":"钱桥","element_type":"node","station_id":"6966717076"},"geometry":{"type":"Point","coordinates":[120.225657,31.598356]}},{"type":"Feature","properties":{"osm_id":"6966717082","station_name":"龙山梢","element_type":"node","station_id":"6966717082"},"geometry":{"type":"Point","coordinates":[120.239386,31.602379]}},{"type":"Feature","properties":{"osm_id":"6966740185","station_name":"石门路","element_type":"node","station_id":"6966740185"},"geometry":{"type":"Point","coordinates":[120.254616,31.599269]}},{"type":"Feature","properties":{"osm_id":"6966740190","station_name":"盛岸站","element_type":"node","station_id":"6966740190"},"geometry":{"type":"Point","coordinates":[120.266961,31.594122]}},{"type":"Feature","properties":{"osm_id":"6966740194","station_name":"吴桥","element_type":"node","station_id":"6966740194"},"geometry":{"type":"Point","coordinates":[120.281274,31.595702]}},{"type":"Feature","properties":{"osm_id":"6966740199","station_name":"北栅口","element_type":"node","station_id":"6966740199"},"geometry":{"type":"Point","coordinates":[120.292458,31.592802]}},{"type":"Feature","properties":{"osm_id":"6898507267","station_name":"广瑞","element_type":"node","station_id":"6898507267"},"geometry":{"type":"Point","coordinates":[120.315434,31.590693]}},{"type":"Feature","properties":{"osm_id":"6966733111","station_name":"东风","element_type":"node","station_id":"6966733111"},"geometry":{"type":"Point","coordinates":[120.327955,31.575511]}},{"type":"Feature","properties":{"osm_id":"6966733155","station_name":"叙丰","element_type":"node","station_id":"6966733155"},"geometry":{"type":"Point","coordinates":[120.332606,31.568062]}},{"type":"Feature","properties":{"osm_id":"6966733159","station_name":"太湖花园","element_type":"node","station_id":"6966733159"},"geometry":{"type":"Point","coordinates":[120.33919,31.560973]}},{"type":"Feature","properties":{"osm_id":"6966733161","station_name":"新光路","element_type":"node","station_id":"6966733161"},"geometry":{"type":"Point","coordinates":[120.347969,31.551221]}},{"type":"Feature","properties":{"osm_id":"6898507235","station_name":"旺庄路","element_type":"node","station_id":"6898507235"},"geometry":{"type":"Point","coordinates":[120.353821,31.543179]}},{"type":"Feature","properties":{"osm_id":"6966733170","station_name":"黄山路","element_type":"node","station_id":"6966733170"},"geometry":{"type":"Point","coordinates":[120.365188,31.531451]}},{"type":"Feature","properties":{"osm_id":"6898507230","station_name":"高浪东路","element_type":"node","station_id":"6898507230"},"geometry":{"type":"Point","coordinates":[120.371584,31.525172]}},{"type":"Feature","properties":{"osm_id":"6966733174","station_name":"周泾巷","element_type":"node","station_id":"6966733174"},"geometry":{"type":"Point","coordinates":[120.381131,31.515536]}},{"type":"Feature","properties":{"osm_id":"6966733177","station_name":"无锡新区站","element_type":"node","station_id":"6966733177"},"geometry":{"type":"Point","coordinates":[120.387565,31.500987]}},{"type":"Feature","properties":{"osm_id":"6966733181","station_name":"长江南路","element_type":"node","station_id":"6966733181"},"geometry":{"type":"Point","coordinates":[120.398472,31.499013]}},{"type":"Feature","properties":{"osm_id":"6898507342","station_name":"硕放机场","element_type":"node","station_id":"6898507342"},"geometry":{"type":"Point","coordinates":[120.426646,31.503924]}},{"type":"Feature","properties":{"osm_id":"9330967379","station_name":"博览中心","element_type":"node","station_id":"9330967379"},"geometry":{"type":"Point","coordinates":[120.321074,31.478928]}},{"type":"Feature","properties":{"osm_id":"9330967381","station_name":"丰润道","element_type":"node","station_id":"9330967381"},"geometry":{"type":"Point","coordinates":[120.310814,31.476096]}},{"type":"Feature","properties":{"osm_id":"9330967384","station_name":"吴都路","element_type":"node","station_id":"9330967384"},"geometry":{"type":"Point","coordinates":[120.303881,31.485232]}},{"type":"Feature","properties":{"osm_id":"9330967388","station_name":"周新苑","element_type":"node","station_id":"9330967388"},"geometry":{"type":"Point","coordinates":[120.296869,31.506216]}},{"type":"Feature","properties":{"osm_id":"6898507350","station_name":"五湖大道","element_type":"node","station_id":"6898507350"},"geometry":{"type":"Point","coordinates":[120.282579,31.507767]}},{"type":"Feature","properties":{"osm_id":"9330967390","station_name":"大剧院","element_type":"node","station_id":"9330967390"},"geometry":{"type":"Point","coordinates":[120.276881,31.513717]}},{"type":"Feature","properties":{"osm_id":"9330967391","station_name":"蠡湖大桥","element_type":"node","station_id":"9330967391"},"geometry":{"type":"Point","coordinates":[120.261509,31.524045]}},{"type":"Feature","properties":{"osm_id":"9330967394","station_name":"夏家边","element_type":"node","station_id":"9330967394"},"geometry":{"type":"Point","coordinates":[120.258985,31.534098]}},{"type":"Feature","properties":{"osm_id":"9330967396","station_name":"体育中心","element_type":"node","station_id":"9330967396"},"geometry":{"type":"Point","coordinates":[120.258406,31.542829]}},{"type":"Feature","properties":{"osm_id":"9330967398","station_name":"西园弄","element_type":"node","station_id":"9330967398"},"geometry":{"type":"Point","coordinates":[120.257679,31.550713]}},{"type":"Feature","properties":{"osm_id":"9330967400","station_name":"青山湾荣院","element_type":"node","station_id":"9330967400"},"geometry":{"type":"Point","coordinates":[120.265276,31.570649]}},{"type":"Feature","properties":{"osm_id":"9330967402","station_name":"惠山古镇","element_type":"node","station_id":"9330967402"},"geometry":{"type":"Point","coordinates":[120.273138,31.5834]}},{"type":"Feature","properties":{"osm_id":"9330967406","station_name":"黄巷站","element_type":"node","station_id":"9330967406"},"geometry":{"type":"Point","coordinates":[120.275418,31.601185]}},{"type":"Feature","properties":{"osm_id":"9330967408","station_name":"广石路站","element_type":"node","station_id":"9330967408"},"geometry":{"type":"Point","coordinates":[120.286221,31.620028]}},{"type":"Feature","properties":{"osm_id":"7504976301","station_name":"青枫公园","element_type":"node","station_id":"7504976301"},"geometry":{"type":"Point","coordinates":[119.894781,31.804344]}},{"type":"Feature","properties":{"osm_id":"8778201915","station_name":"海棠路","element_type":"node","station_id":"8778201915"},"geometry":{"type":"Point","coordinates":[119.903507,31.800388]}},{"type":"Feature","properties":{"osm_id":"8778201895","station_name":"五星","element_type":"node","station_id":"8778201895"},"geometry":{"type":"Point","coordinates":[119.912487,31.795252]}},{"type":"Feature","properties":{"osm_id":"8778201889","station_name":"勤业","element_type":"node","station_id":"8778201889"},"geometry":{"type":"Point","coordinates":[119.923249,31.788753]}},{"type":"Feature","properties":{"osm_id":"8778201883","station_name":"怀德","element_type":"node","station_id":"8778201883"},"geometry":{"type":"Point","coordinates":[119.937427,31.782219]}},{"type":"Feature","properties":{"osm_id":"7504952074","station_name":"南大街","element_type":"node","station_id":"7504952074"},"geometry":{"type":"Point","coordinates":[119.94852,31.781825]}},{"type":"Feature","properties":{"osm_id":"8778201740","station_name":"红梅公园","element_type":"node","station_id":"8778201740"},"geometry":{"type":"Point","coordinates":[119.968253,31.772263]}},{"type":"Feature","properties":{"osm_id":"8778201758","station_name":"五角场","element_type":"node","station_id":"8778201758"},"geometry":{"type":"Point","coordinates":[119.980942,31.771719]}},{"type":"Feature","properties":{"osm_id":"8778201771","station_name":"三角场","element_type":"node","station_id":"8778201771"},"geometry":{"type":"Point","coordinates":[119.987409,31.779364]}},{"type":"Feature","properties":{"osm_id":"8778201777","station_name":"紫云","element_type":"node","station_id":"8778201777"},"geometry":{"type":"Point","coordinates":[120.00075,31.771041]}},{"type":"Feature","properties":{"osm_id":"8778201792","station_name":"青洋路","element_type":"node","station_id":"8778201792"},"geometry":{"type":"Point","coordinates":[120.012291,31.761714]}},{"type":"Feature","properties":{"osm_id":"8778201794","station_name":"丁堰","element_type":"node","station_id":"8778201794"},"geometry":{"type":"Point","coordinates":[120.022598,31.75537]}},{"type":"Feature","properties":{"osm_id":"8778201796","station_name":"潞城","element_type":"node","station_id":"8778201796"},"geometry":{"type":"Point","coordinates":[120.04533,31.757381]}},{"type":"Feature","properties":{"osm_id":"8816058292","station_name":"五一路","element_type":"node","station_id":"8816058292"},"geometry":{"type":"Point","coordinates":[120.059381,31.759811]}},{"type":"Feature","properties":{"osm_id":"11568871433","station_name":"江阴外滩","element_type":"node","station_id":"11568871433"},"geometry":{"type":"Point","coordinates":[120.253763,31.925135]}},{"type":"Feature","properties":{"osm_id":"11568921283","station_name":"中山公园","element_type":"node","station_id":"11568921283"},"geometry":{"type":"Point","coordinates":[120.266542,31.908961]}},{"type":"Feature","properties":{"osm_id":"11568869850","station_name":"南门","element_type":"node","station_id":"11568869850"},"geometry":{"type":"Point","coordinates":[120.267083,31.893261]}},{"type":"Feature","properties":{"osm_id":"11568939340","station_name":"江阴中医院","element_type":"node","station_id":"11568939340"},"geometry":{"type":"Point","coordinates":[120.267578,31.878017]}},{"type":"Feature","properties":{"osm_id":"11568964917","station_name":"江阴高铁站","element_type":"node","station_id":"11568964917"},"geometry":{"type":"Point","coordinates":[120.2744,31.864132]}},{"type":"Feature","properties":{"osm_id":"11568964919","station_name":"南闸","element_type":"node","station_id":"11568964919"},"geometry":{"type":"Point","coordinates":[120.262553,31.843781]}},{"type":"Feature","properties":{"osm_id":"11568964924","station_name":"峭岐","element_type":"node","station_id":"11568964924"},"geometry":{"type":"Point","coordinates":[120.267564,31.818474]}},{"type":"Feature","properties":{"osm_id":"11568964922","station_name":"青阳","element_type":"node","station_id":"11568964922"},"geometry":{"type":"Point","coordinates":[120.289617,31.772618]}},{"type":"Feature","properties":{"osm_id":"11568964926","station_name":"马镇","element_type":"node","station_id":"11568964926"},"geometry":{"type":"Point","coordinates":[120.30671,31.710181]}}]}