{"type":"FeatureCollection","generator":"metroOsmFetch (OpenStreetMap / Overpass, ODbL)","features":[{"type":"Feature","properties":{"route_company":"重庆轨道交通运营有限公司","route_id":"3","element_type":"way","color":"#003da5","route_name":"重庆轨道交通3号线：鱼洞 → 江北机场T2航站楼","osm_id":"2341149","railway":"monorail","status":"open"},"geometry":{"type":"LineString","coordinates":[[106.50202,29.378782],[106.520114,29.37838],[106.53547,29.380585],[106.539346,29.400907],[106.539921,29.415761],[106.54661,29.435071],[106.550878,29.451504],[106.555453,29.461364],[106.558935,29.46972],[106.562212,29.481002],[106.569128,29.491426],[106.56968,29.500534],[106.570176,29.510164],[106.573215,29.520181],[106.566035,29.529776],[106.559602,29.534535],[106.547799,29.540001],[106.545113,29.555651],[106.53883,29.562685],[106.533506,29.56671],[106.530036,29.576039],[106.522522,29.588027],[106.517639,29.599359],[106.526262,29.602198],[106.536916,29.601972],[106.545443,29.604089],[106.546259,29.609658],[106.546037,29.619674],[106.551509,29.631237],[106.566987,29.63819],[106.563738,29.646176],[106.556526,29.664163],[106.560089,29.677429],[106.569019,29.688676],[106.585038,29.690355],[106.602153,29.693191],[106.615183,29.700762],[106.628948,29.713884],[106.633873,29.720559]]}},{"type":"Feature","properties":{"route_company":"重庆轨道交通运营有限公司","route_id":"环","element_type":"way","color":"#f2a900","route_name":"重庆轨道交通环线：顺时针","osm_id":"7662492","railway":"subway","status":"open"},"geometry":{"type":"LineString","coordinates":[[106.435513,29.50272],[106.438442,29.520342],[106.44461,29.526769],[106.45167,29.534815],[106.455004,29.544379],[106.455891,29.558275],[106.459691,29.569958],[106.472095,29.583364],[106.478436,29.592922],[106.483288,29.601192],[106.495042,29.601302],[106.501443,29.606575],[106.508478,29.610349],[106.524647,29.61143],[106.546259,29.609658],[106.555977,29.59812],[106.562767,29.588213],[106.588536,29.588729],[106.596279,29.578988],[106.595633,29.567991],[106.593372,29.558999],[106.590287,29.54954],[106.583343,29.537478],[106.579187,29.529169],[106.573215,29.520181],[106.553072,29.518905],[106.542535,29.521306],[106.51469,29.522479],[106.497809,29.527007],[106.485359,29.526535],[106.467628,29.518524],[106.458177,29.507761],[106.448863,29.498226],[106.435513,29.50272]]}},{"type":"Feature","properties":{"route_company":"重庆轨道交通运营有限公司","route_id":"5","element_type":"way","color":"#00a3e0","route_name":"重庆轨道交通5号线：跳磴 → 悦港北路","osm_id":"7676337","railway":"subway","status":"open"},"geometry":{"type":"LineString","coordinates":[[106.433847,29.410821],[106.43639,29.43172],[106.438066,29.445157],[106.442168,29.461828],[106.44652,29.475568],[106.449517,29.482819],[106.440937,29.496855],[106.435513,29.50272],[106.450163,29.516196],[106.465707,29.523199],[106.473889,29.528333],[106.481226,29.535365],[106.494906,29.539734],[106.490046,29.553425],[106.490118,29.56563],[106.492159,29.573837],[106.494903,29.592372],[106.495042,29.601302],[106.504671,29.619285],[106.518458,29.625904],[106.529729,29.632396],[106.52664,29.651628],[106.534798,29.662437],[106.547378,29.66963],[106.556878,29.678482],[106.565666,29.697003],[106.565529,29.705765],[106.5674,29.71383],[106.568764,29.725871],[106.56714,29.736718],[106.565699,29.747493],[106.565895,29.75593]]}},{"type":"Feature","properties":{"route_company":"重庆轨道四号线建设运营有限公司","route_id":"4","element_type":"way","color":"#dc8633","route_name":"重庆轨道交通4号线：石马河立交→ 黄岭","osm_id":"7677819","railway":"subway","status":"open"},"geometry":{"type":"LineString","coordinates":[[106.465997,29.587634],[106.472095,29.583364],[106.479403,29.578122],[106.492159,29.573837],[106.500329,29.578994],[106.509268,29.585434],[106.512629,29.592047],[106.517639,29.599359],[106.524647,29.61143],[106.547399,29.614839],[106.570039,29.611022],[106.580009,29.619422],[106.602358,29.624614],[106.617486,29.62742],[106.6284,29.622544],[106.637827,29.608543],[106.655738,29.608321],[106.66563,29.616584],[106.712227,29.60332],[106.734894,29.612394],[106.758575,29.626015],[106.771921,29.629626],[106.795864,29.64135],[106.796503,29.658816],[106.793657,29.670443],[106.790956,29.692685],[106.798106,29.704216],[106.798986,29.713921],[106.79956,29.730629],[106.811331,29.744658],[106.829797,29.762297],[106.837567,29.774741]]}},{"type":"Feature","properties":{"route_company":"重庆轨道交通运营有限公司","route_id":"9","element_type":"way","color":"#862041","route_name":"重庆轨道交通9号线：花石沟 → 高滩岩","osm_id":"14004562","railway":"subway","status":"open"},"geometry":{"type":"LineString","coordinates":[[106.586333,29.755406],[106.581329,29.747393],[106.58924,29.726616],[106.592902,29.717166],[106.595961,29.709513],[106.599624,29.690397],[106.605421,29.680977],[106.61306,29.664385],[106.605675,29.652934],[106.593757,29.641688],[106.592351,29.627763],[106.580009,29.619422],[106.570039,29.611022],[106.567772,29.597158],[106.562767,29.588213],[106.568356,29.578745],[106.56029,29.575751],[106.547109,29.57654],[106.530036,29.576039],[106.521677,29.57297],[106.517289,29.566832],[106.514793,29.552773],[106.499717,29.553732],[106.490046,29.553425],[106.476538,29.553749],[106.465345,29.555684],[106.455891,29.558275],[106.44653,29.552528],[106.44537,29.541499]]}},{"type":"Feature","properties":{"route_company":"重庆轨道交通运营有限公司","route_id":"6","element_type":"way","color":"#f67599","route_name":"重庆轨道交通6号线：北碚 → 茶园","osm_id":"2768660","railway":"subway","status":"open"},"geometry":{"type":"LineString","coordinates":[[106.433842,29.828302],[106.419644,29.818776],[106.394815,29.805719],[106.399756,29.792036],[106.469414,29.741705],[106.4875,29.738798],[106.490285,29.723604],[106.488047,29.682252],[106.484224,29.669664],[106.478923,29.656588],[106.475073,29.637514],[106.474413,29.630776],[106.495424,29.618695],[106.495042,29.601302],[106.494903,29.592372],[106.509268,29.585434],[106.522522,29.588027],[106.53443,29.591191],[106.547202,29.586849],[106.562767,29.588213],[106.568356,29.578745],[106.573491,29.571912],[106.579602,29.562356],[106.593372,29.558999],[106.651979,29.527592],[106.654129,29.513699],[106.645803,29.500812],[106.639105,29.490547]]}},{"type":"Feature","properties":{"route_company":"重庆轨道交通运营有限公司","route_id":"10","element_type":"way","color":"#3c1053","route_name":"重庆轨道交通10号线：王家庄 → 兰花路","osm_id":"7913721","railway":"subway","status":"open"},"geometry":{"type":"LineString","coordinates":[[106.541804,29.746392],[106.544252,29.728562],[106.568764,29.725871],[106.579969,29.726434],[106.58924,29.726616],[106.603607,29.723462],[106.625178,29.721403],[106.633873,29.720559],[106.650832,29.71052],[106.625644,29.676921],[106.61836,29.661795],[106.605675,29.652934],[106.580992,29.641079],[106.56545,29.630292],[106.547399,29.614839],[106.546259,29.609658],[106.54692,29.601454],[106.547202,29.586849],[106.547109,29.57654],[106.546361,29.569444],[106.552468,29.564377],[106.558543,29.557466],[106.565419,29.541064],[106.558426,29.526161],[106.566035,29.529776],[106.553072,29.518905],[106.553931,29.506783]]}},{"type":"Feature","properties":{"route_company":"重庆轨道交通运营有限公司","route_id":"2","element_type":"way","color":"#007a33","route_name":"重庆轨道交通2号线：鱼洞 → 较场口","osm_id":"444083","railway":"monorail","status":"open"},"geometry":{"type":"LineString","coordinates":[[106.50202,29.378782],[106.497266,29.386938],[106.488554,29.418215],[106.478779,29.430276],[106.471556,29.440515],[106.470832,29.452542],[106.468376,29.469303],[106.472417,29.474549],[106.47433,29.484452],[106.481087,29.491401],[106.484939,29.498744],[106.495313,29.502346],[106.50561,29.502757],[106.510966,29.510899],[106.51469,29.522479],[106.509968,29.531577],[106.515419,29.543807],[106.528625,29.551426],[106.533942,29.555649],[106.53883,29.562685],[106.546361,29.569444],[106.554809,29.56886],[106.56122,29.566123],[106.571111,29.561028],[106.56929,29.556543]]}},{"type":"Feature","properties":{"route_company":"重庆轨道交通运营有限公司","route_id":"1","element_type":"way","color":"#e4002b","route_name":"重庆轨道交通1号线：璧山 → 朝天门","osm_id":"2336456","railway":"subway","status":"open"},"geometry":{"type":"LineString","coordinates":[[106.228783,29.614753],[106.289227,29.609987],[106.305117,29.609996],[106.324644,29.610018],[106.358993,29.612195],[106.377454,29.612705],[106.440337,29.608276],[106.440267,29.591984],[106.442396,29.579268],[106.441282,29.570247],[106.446407,29.564252],[106.455891,29.558275],[106.465345,29.555684],[106.46428,29.547621],[106.465761,29.538685],[106.481226,29.535365],[106.494906,29.539734],[106.504419,29.540938],[106.515419,29.543807],[106.528625,29.551426],[106.545113,29.555651],[106.558543,29.557466],[106.56929,29.556543],[106.579602,29.562356],[106.582589,29.567261]]}},{"type":"Feature","properties":{"route_company":"重庆轨道十八号线建设运营有限公司","route_id":"18","element_type":"way","color":"#2cd5c4","route_name":"重庆轨道交通18号线：跳磴南 → 富华路","osm_id":"15749312","railway":"subway","status":"open"},"geometry":{"type":"LineString","coordinates":[[106.43119,29.396379],[106.433847,29.410821],[106.455142,29.417424],[106.477128,29.418343],[106.488554,29.418215],[106.500334,29.426852],[106.513881,29.435608],[106.513185,29.451072],[106.51707,29.463259],[106.524008,29.471607],[106.534245,29.485518],[106.539519,29.491193],[106.533032,29.499045],[106.52309,29.502325],[106.510966,29.510899],[106.502453,29.518474],[106.497809,29.527007],[106.494906,29.539734],[106.499717,29.553732]]}},{"type":"Feature","properties":{"route_company":"重庆云巴轨道交通运营管理有限公司","route_id":"12759727","element_type":"way","color":"#1974d2","route_name":"璧山云巴1号线（南向）","osm_id":"12759727","railway":"light_rail","status":"open"},"geometry":{"type":"LineString","coordinates":[[106.228783,29.614753],[106.216419,29.614112],[106.21482,29.608514],[106.21164,29.599667],[106.207478,29.590472],[106.205981,29.578538],[106.201985,29.570597],[106.202294,29.558482],[106.199759,29.543604],[106.196422,29.534561],[106.196358,29.525948],[106.199027,29.519534],[106.204658,29.513468],[106.211698,29.504008],[106.21841,29.506885]]}},{"type":"Feature","properties":{"route_company":"重庆轨道交通运营有限公司","route_id":"4–环–5","element_type":"way","color":"#c16c18","route_name":"重庆轨道交通4–环–5直通快速：唐家沱 → 跳磴","osm_id":"11353824","railway":"subway","status":"open"},"geometry":{"type":"LineString","coordinates":[[106.655738,29.608321],[106.570039,29.611022],[106.547399,29.614839],[106.524647,29.61143],[106.495042,29.601302],[106.455891,29.558275],[106.45167,29.534815],[106.438442,29.520342],[106.435513,29.50272],[106.438066,29.445157],[106.43639,29.43172],[106.433847,29.410821]]}},{"type":"Feature","properties":{"route_company":"重庆璧铜线轨道交通运营管理有限公司","route_id":"BT","element_type":"way","color":"#0057b8","route_name":"重庆市郊铁路璧铜线: 铜梁西 → 璧山","osm_id":"17135614","railway":"subway","status":"open"},"geometry":{"type":"LineString","coordinates":[[106.041902,29.828042],[106.075254,29.833805],[106.104171,29.818568],[106.145665,29.792013],[106.215654,29.725525],[106.207299,29.704433],[106.206576,29.653963],[106.217525,29.627358],[106.228783,29.614753]]}},{"type":"Feature","properties":{"route_company":"重庆轨道交通","route_id":"JT","element_type":"way","color":"#469990","route_name":"重庆市郊铁路江跳线: 跳磴 → 圣泉寺","osm_id":"10176833","railway":"subway","status":"open"},"geometry":{"type":"LineString","coordinates":[[106.433847,29.410821],[106.426109,29.406912],[106.350871,29.4018],[106.308398,29.401387],[106.257904,29.384386],[106.25298,29.345526],[106.25586,29.310418]]}},{"type":"Feature","properties":{"osm_id":"7686492527","station_name":"鱼洞","element_type":"node","station_id":"3/01"},"geometry":{"type":"Point","coordinates":[106.50202,29.378782]}},{"type":"Feature","properties":{"osm_id":"10175486106","station_name":"金竹","element_type":"node","station_id":"3/02"},"geometry":{"type":"Point","coordinates":[106.520114,29.37838]}},{"type":"Feature","properties":{"osm_id":"10175628687","station_name":"鱼胡路","element_type":"node","station_id":"3/03"},"geometry":{"type":"Point","coordinates":[106.53547,29.380585]}},{"type":"Feature","properties":{"osm_id":"10176016391","station_name":"学堂湾","element_type":"node","station_id":"3/04"},"geometry":{"type":"Point","coordinates":[106.539346,29.400907]}},{"type":"Feature","properties":{"osm_id":"10176016389","station_name":"大山村","element_type":"node","station_id":"3/05"},"geometry":{"type":"Point","coordinates":[106.539921,29.415761]}},{"type":"Feature","properties":{"osm_id":"10176016388","station_name":"花溪","element_type":"node","station_id":"3/06"},"geometry":{"type":"Point","coordinates":[106.54661,29.435071]}},{"type":"Feature","properties":{"osm_id":"10176016385","station_name":"岔路口","element_type":"node","station_id":"3/07"},"geometry":{"type":"Point","coordinates":[106.550878,29.451504]}},{"type":"Feature","properties":{"osm_id":"10175717730","station_name":"九公里","element_type":"node","station_id":"3/08"},"geometry":{"type":"Point","coordinates":[106.555453,29.461364]}},{"type":"Feature","properties":{"osm_id":"10176016383","station_name":"麒龙","element_type":"node","station_id":"3/09"},"geometry":{"type":"Point","coordinates":[106.558935,29.46972]}},{"type":"Feature","properties":{"osm_id":"10176016381","station_name":"八公里","element_type":"node","station_id":"3/10"},"geometry":{"type":"Point","coordinates":[106.562212,29.481002]}},{"type":"Feature","properties":{"osm_id":"10176016379","station_name":"重庆交通大学","element_type":"node","station_id":"3/11"},"geometry":{"type":"Point","coordinates":[106.569128,29.491426]}},{"type":"Feature","properties":{"osm_id":"10176016377","station_name":"六公里","element_type":"node","station_id":"3/12"},"geometry":{"type":"Point","coordinates":[106.56968,29.500534]}},{"type":"Feature","properties":{"osm_id":"10175714851","station_name":"重庆工商大学","element_type":"node","station_id":"3/13"},"geometry":{"type":"Point","coordinates":[106.570176,29.510164]}},{"type":"Feature","properties":{"osm_id":"10176016376","station_name":"四公里","element_type":"node","station_id":"3/14"},"geometry":{"type":"Point","coordinates":[106.573215,29.520181]}},{"type":"Feature","properties":{"osm_id":"10175722077","station_name":"南坪","element_type":"node","station_id":"3/15"},"geometry":{"type":"Point","coordinates":[106.566035,29.529776]}},{"type":"Feature","properties":{"osm_id":"9702282522","station_name":"工贸","element_type":"node","station_id":"3/16"},"geometry":{"type":"Point","coordinates":[106.559602,29.534535]}},{"type":"Feature","properties":{"osm_id":"1871618098","station_name":"铜元局","element_type":"node","station_id":"3/17"},"geometry":{"type":"Point","coordinates":[106.547799,29.540001]}},{"type":"Feature","properties":{"osm_id":"7165542389","station_name":"两路口","element_type":"node","station_id":"3/18"},"geometry":{"type":"Point","coordinates":[106.545113,29.555651]}},{"type":"Feature","properties":{"osm_id":"1854002077","station_name":"牛角沱","element_type":"node","station_id":"3/19"},"geometry":{"type":"Point","coordinates":[106.53883,29.562685]}},{"type":"Feature","properties":{"osm_id":"9702282354","station_name":"华新街","element_type":"node","station_id":"3/20"},"geometry":{"type":"Point","coordinates":[106.533506,29.56671]}},{"type":"Feature","properties":{"osm_id":"10176114666","station_name":"观音桥","element_type":"node","station_id":"3/21"},"geometry":{"type":"Point","coordinates":[106.530036,29.576039]}},{"type":"Feature","properties":{"osm_id":"10176114657","station_name":"红旗河沟","element_type":"node","station_id":"3/22"},"geometry":{"type":"Point","coordinates":[106.522522,29.588027]}},{"type":"Feature","properties":{"osm_id":"10176114645","station_name":"嘉州路","element_type":"node","station_id":"3/23"},"geometry":{"type":"Point","coordinates":[106.517639,29.599359]}},{"type":"Feature","properties":{"osm_id":"10176114627","station_name":"郑家院子","element_type":"node","station_id":"3/24"},"geometry":{"type":"Point","coordinates":[106.526262,29.602198]}},{"type":"Feature","properties":{"osm_id":"10176095680","station_name":"唐家院子","element_type":"node","station_id":"3/25"},"geometry":{"type":"Point","coordinates":[106.536916,29.601972]}},{"type":"Feature","properties":{"osm_id":"10176095678","station_name":"狮子坪","element_type":"node","station_id":"3/26"},"geometry":{"type":"Point","coordinates":[106.545443,29.604089]}},{"type":"Feature","properties":{"osm_id":"10176244869","station_name":"重庆北站南广场","element_type":"node","station_id":"3/27"},"geometry":{"type":"Point","coordinates":[106.546259,29.609658]}},{"type":"Feature","properties":{"osm_id":"10176244859","station_name":"龙头寺","element_type":"node","station_id":"3/28"},"geometry":{"type":"Point","coordinates":[106.546037,29.619674]}},{"type":"Feature","properties":{"osm_id":"10176244850","station_name":"童家院子","element_type":"node","station_id":"3/29"},"geometry":{"type":"Point","coordinates":[106.551509,29.631237]}},{"type":"Feature","properties":{"osm_id":"10176244823","station_name":"金渝","element_type":"node","station_id":"3/30"},"geometry":{"type":"Point","coordinates":[106.566987,29.63819]}},{"type":"Feature","properties":{"osm_id":"10176244821","station_name":"金童路","element_type":"node","station_id":"3/31"},"geometry":{"type":"Point","coordinates":[106.563738,29.646176]}},{"type":"Feature","properties":{"osm_id":"10176244463","station_name":"鸳鸯","element_type":"node","station_id":"3/32"},"geometry":{"type":"Point","coordinates":[106.556526,29.664163]}},{"type":"Feature","properties":{"osm_id":"10176244465","station_name":"园博园","element_type":"node","station_id":"3/33"},"geometry":{"type":"Point","coordinates":[106.560089,29.677429]}},{"type":"Feature","properties":{"osm_id":"10176244467","station_name":"翠云","element_type":"node","station_id":"3/34"},"geometry":{"type":"Point","coordinates":[106.569019,29.688676]}},{"type":"Feature","properties":{"osm_id":"10176244474","station_name":"长福路","element_type":"node","station_id":"3/35"},"geometry":{"type":"Point","coordinates":[106.585038,29.690355]}},{"type":"Feature","properties":{"osm_id":"10176244476","station_name":"回兴","element_type":"node","station_id":"3/36"},"geometry":{"type":"Point","coordinates":[106.602153,29.693191]}},{"type":"Feature","properties":{"osm_id":"10176244478","station_name":"双龙","element_type":"node","station_id":"3/37"},"geometry":{"type":"Point","coordinates":[106.615183,29.700762]}},{"type":"Feature","properties":{"osm_id":"10176244482","station_name":"碧津","element_type":"node","station_id":"3/38"},"geometry":{"type":"Point","coordinates":[106.628948,29.713884]}},{"type":"Feature","properties":{"osm_id":"10176244485","station_name":"江北机场T2航站楼","element_type":"node","station_id":"3/39"},"geometry":{"type":"Point","coordinates":[106.633873,29.720559]}},{"type":"Feature","properties":{"osm_id":"10180069079","station_name":"重庆西站","element_type":"node","station_id":"0/01"},"geometry":{"type":"Point","coordinates":[106.435513,29.50272]}},{"type":"Feature","properties":{"osm_id":"10180144468","station_name":"上桥","element_type":"node","station_id":"10180144468"},"geometry":{"type":"Point","coordinates":[106.438442,29.520342]}},{"type":"Feature","properties":{"osm_id":"10180144477","station_name":"凤鸣山","element_type":"node","station_id":"10180144477"},"geometry":{"type":"Point","coordinates":[106.44461,29.526769]}},{"type":"Feature","properties":{"osm_id":"10180144489","station_name":"重庆图书馆","element_type":"node","station_id":"0/04"},"geometry":{"type":"Point","coordinates":[106.45167,29.534815]}},{"type":"Feature","properties":{"osm_id":"10180144498","station_name":"天星桥","element_type":"node","station_id":"0/05"},"geometry":{"type":"Point","coordinates":[106.455004,29.544379]}},{"type":"Feature","properties":{"osm_id":"9458207714","station_name":"沙坪坝","element_type":"node","station_id":"0/06"},"geometry":{"type":"Point","coordinates":[106.455891,29.558275]}},{"type":"Feature","properties":{"osm_id":"10180144516","station_name":"重庆大学","element_type":"node","station_id":"0/07"},"geometry":{"type":"Point","coordinates":[106.459691,29.569958]}},{"type":"Feature","properties":{"osm_id":"10180186040","station_name":"玉带山","element_type":"node","station_id":"0/08"},"geometry":{"type":"Point","coordinates":[106.472095,29.583364]}},{"type":"Feature","properties":{"osm_id":"10180186025","station_name":"南桥寺","element_type":"node","station_id":"0/09"},"geometry":{"type":"Point","coordinates":[106.478436,29.592922]}},{"type":"Feature","properties":{"osm_id":"10180186070","station_name":"体育公园","element_type":"node","station_id":"0/10"},"geometry":{"type":"Point","coordinates":[106.483288,29.601192]}},{"type":"Feature","properties":{"osm_id":"10180186073","station_name":"冉家坝","element_type":"node","station_id":"6/15"},"geometry":{"type":"Point","coordinates":[106.495042,29.601302]}},{"type":"Feature","properties":{"osm_id":"10180186086","station_name":"动步公园","element_type":"node","station_id":"0/12"},"geometry":{"type":"Point","coordinates":[106.501443,29.606575]}},{"type":"Feature","properties":{"osm_id":"10180186101","station_name":"洪湖东路","element_type":"node","station_id":"0/13"},"geometry":{"type":"Point","coordinates":[106.508478,29.610349]}},{"type":"Feature","properties":{"osm_id":"10180134025","station_name":"民安大道","element_type":"node","station_id":"0/14"},"geometry":{"type":"Point","coordinates":[106.524647,29.61143]}},{"type":"Feature","properties":{"osm_id":"10180119405","station_name":"渝鲁","element_type":"node","station_id":"0/16"},"geometry":{"type":"Point","coordinates":[106.555977,29.59812]}},{"type":"Feature","properties":{"osm_id":"5185916328","station_name":"五里店","element_type":"node","station_id":"0/17"},"geometry":{"type":"Point","coordinates":[106.562767,29.588213]}},{"type":"Feature","properties":{"osm_id":"10180121918","station_name":"弹子石","element_type":"node","station_id":"0/18"},"geometry":{"type":"Point","coordinates":[106.588536,29.588729]}},{"type":"Feature","properties":{"osm_id":"10180121929","station_name":"涂山","element_type":"node","station_id":"0/19"},"geometry":{"type":"Point","coordinates":[106.596279,29.578988]}},{"type":"Feature","properties":{"osm_id":"9159693817","station_name":"仁济","element_type":"node","station_id":"0/20"},"geometry":{"type":"Point","coordinates":[106.595633,29.567991]}},{"type":"Feature","properties":{"osm_id":"10180121947","station_name":"上新街","element_type":"node","station_id":"0/21"},"geometry":{"type":"Point","coordinates":[106.593372,29.558999]}},{"type":"Feature","properties":{"osm_id":"11247352722","station_name":"上浩","element_type":"node","station_id":"11247352722"},"geometry":{"type":"Point","coordinates":[106.590287,29.54954]}},{"type":"Feature","properties":{"osm_id":"10180121955","station_name":"海棠溪","element_type":"node","station_id":"0/23"},"geometry":{"type":"Point","coordinates":[106.583343,29.537478]}},{"type":"Feature","properties":{"osm_id":"10180121965","station_name":"罗家坝","element_type":"node","station_id":"0/24"},"geometry":{"type":"Point","coordinates":[106.579187,29.529169]}},{"type":"Feature","properties":{"osm_id":"10180068925","station_name":"南湖","element_type":"node","station_id":"0/26"},"geometry":{"type":"Point","coordinates":[106.553072,29.518905]}},{"type":"Feature","properties":{"osm_id":"10180068933","station_name":"海峡路","element_type":"node","station_id":"0/27"},"geometry":{"type":"Point","coordinates":[106.542535,29.521306]}},{"type":"Feature","properties":{"osm_id":"10180068945","station_name":"谢家湾","element_type":"node","station_id":"0/28"},"geometry":{"type":"Point","coordinates":[106.51469,29.522479]}},{"type":"Feature","properties":{"osm_id":"10180068966","station_name":"奥体中心","element_type":"node","station_id":"10180068966"},"geometry":{"type":"Point","coordinates":[106.497809,29.527007]}},{"type":"Feature","properties":{"osm_id":"10180068968","station_name":"陈家坪","element_type":"node","station_id":"0/30"},"geometry":{"type":"Point","coordinates":[106.485359,29.526535]}},{"type":"Feature","properties":{"osm_id":"10180068990","station_name":"彩云湖","element_type":"node","station_id":"0/31"},"geometry":{"type":"Point","coordinates":[106.467628,29.518524]}},{"type":"Feature","properties":{"osm_id":"10180069053","station_name":"二郎","element_type":"node","station_id":"0/32"},"geometry":{"type":"Point","coordinates":[106.458177,29.507761]}},{"type":"Feature","properties":{"osm_id":"10180069062","station_name":"华龙","element_type":"node","station_id":"0/33"},"geometry":{"type":"Point","coordinates":[106.448863,29.498226]}},{"type":"Feature","properties":{"osm_id":"8395751722","station_name":"跳磴","element_type":"node","station_id":"5/25"},"geometry":{"type":"Point","coordinates":[106.433847,29.410821]}},{"type":"Feature","properties":{"osm_id":"8395751758","station_name":"华岩中心","element_type":"node","station_id":"8395751758"},"geometry":{"type":"Point","coordinates":[106.43639,29.43172]}},{"type":"Feature","properties":{"osm_id":"8395751779","station_name":"金建路","element_type":"node","station_id":"8395751779"},"geometry":{"type":"Point","coordinates":[106.438066,29.445157]}},{"type":"Feature","properties":{"osm_id":"10182015162","station_name":"中梁山","element_type":"node","station_id":"10182015162"},"geometry":{"type":"Point","coordinates":[106.442168,29.461828]}},{"type":"Feature","properties":{"osm_id":"10182020260","station_name":"半山","element_type":"node","station_id":"10182020260"},"geometry":{"type":"Point","coordinates":[106.44652,29.475568]}},{"type":"Feature","properties":{"osm_id":"10182020233","station_name":"华成路","element_type":"node","station_id":"10182020233"},"geometry":{"type":"Point","coordinates":[106.449517,29.482819]}},{"type":"Feature","properties":{"osm_id":"10182020217","station_name":"华岩寺","element_type":"node","station_id":"10182020217"},"geometry":{"type":"Point","coordinates":[106.440937,29.496855]}},{"type":"Feature","properties":{"osm_id":"10182015193","station_name":"凤西路","element_type":"node","station_id":"10182015193"},"geometry":{"type":"Point","coordinates":[106.450163,29.516196]}},{"type":"Feature","properties":{"osm_id":"10182015182","station_name":"巴山","element_type":"node","station_id":"10182015182"},"geometry":{"type":"Point","coordinates":[106.465707,29.523199]}},{"type":"Feature","properties":{"osm_id":"10182015173","station_name":"石新路","element_type":"node","station_id":"10182015173"},"geometry":{"type":"Point","coordinates":[106.473889,29.528333]}},{"type":"Feature","properties":{"osm_id":"10182015164","station_name":"石桥铺","element_type":"node","station_id":"5/14"},"geometry":{"type":"Point","coordinates":[106.481226,29.535365]}},{"type":"Feature","properties":{"osm_id":"11193733908","station_name":"歇台子","element_type":"node","station_id":"11193733908"},"geometry":{"type":"Point","coordinates":[106.494906,29.539734]}},{"type":"Feature","properties":{"osm_id":"11205302955","station_name":"红岩村","element_type":"node","station_id":"11205302955"},"geometry":{"type":"Point","coordinates":[106.490046,29.553425]}},{"type":"Feature","properties":{"osm_id":"11205190633","station_name":"忠恕沱","element_type":"node","station_id":"11205190633"},"geometry":{"type":"Point","coordinates":[106.490118,29.56563]}},{"type":"Feature","properties":{"osm_id":"10186265760","station_name":"大石坝","element_type":"node","station_id":"5/10"},"geometry":{"type":"Point","coordinates":[106.492159,29.573837]}},{"type":"Feature","properties":{"osm_id":"10186265773","station_name":"大龙山","element_type":"node","station_id":"10186265773"},"geometry":{"type":"Point","coordinates":[106.494903,29.592372]}},{"type":"Feature","properties":{"osm_id":"5318575227","station_name":"幸福广场","element_type":"node","station_id":"5318575227"},"geometry":{"type":"Point","coordinates":[106.504671,29.619285]}},{"type":"Feature","properties":{"osm_id":"5318575081","station_name":"人和","element_type":"node","station_id":"5318575081"},"geometry":{"type":"Point","coordinates":[106.518458,29.625904]}},{"type":"Feature","properties":{"osm_id":"5318575072","station_name":"和睦路","element_type":"node","station_id":"5318575072"},"geometry":{"type":"Point","coordinates":[106.529729,29.632396]}},{"type":"Feature","properties":{"osm_id":"5318575049","station_name":"重光","element_type":"node","station_id":"5318575049"},"geometry":{"type":"Point","coordinates":[106.52664,29.651628]}},{"type":"Feature","properties":{"osm_id":"5318575043","station_name":"湖霞街","element_type":"node","station_id":"5318575043"},"geometry":{"type":"Point","coordinates":[106.534798,29.662437]}},{"type":"Feature","properties":{"osm_id":"5318575032","station_name":"丹鹤","element_type":"node","station_id":"5318575032"},"geometry":{"type":"Point","coordinates":[106.547378,29.66963]}},{"type":"Feature","properties":{"osm_id":"5318575021","station_name":"园博中心","element_type":"node","station_id":"5318575021"},"geometry":{"type":"Point","coordinates":[106.556878,29.678482]}},{"type":"Feature","properties":{"osm_id":"10727310951","station_name":"玉河沟","element_type":"node","station_id":"10727310951"},"geometry":{"type":"Point","coordinates":[106.565666,29.697003]}},{"type":"Feature","properties":{"osm_id":"10727310948","station_name":"甘悦大道","element_type":"node","station_id":"10727310948"},"geometry":{"type":"Point","coordinates":[106.565529,29.705765]}},{"type":"Feature","properties":{"osm_id":"10701970209","station_name":"鲁家沟","element_type":"node","station_id":"10701970209"},"geometry":{"type":"Point","coordinates":[106.5674,29.71383]}},{"type":"Feature","properties":{"osm_id":"10701970216","station_name":"中央公园西","element_type":"node","station_id":"10701970216"},"geometry":{"type":"Point","coordinates":[106.568764,29.725871]}},{"type":"Feature","properties":{"osm_id":"10724057624","station_name":"椿萱大道","element_type":"node","station_id":"10724057624"},"geometry":{"type":"Point","coordinates":[106.56714,29.736718]}},{"type":"Feature","properties":{"osm_id":"10724057612","station_name":"悦港大道","element_type":"node","station_id":"10724057612"},"geometry":{"type":"Point","coordinates":[106.565699,29.747493]}},{"type":"Feature","properties":{"osm_id":"10724057610","station_name":"悦港北路","element_type":"node","station_id":"10724057610"},"geometry":{"type":"Point","coordinates":[106.565895,29.75593]}},{"type":"Feature","properties":{"osm_id":"11572781055","station_name":"石马河立交","element_type":"node","station_id":"11572781055"},"geometry":{"type":"Point","coordinates":[106.465997,29.587634]}},{"type":"Feature","properties":{"osm_id":"11572781044","station_name":"盘溪","element_type":"node","station_id":"11572781044"},"geometry":{"type":"Point","coordinates":[106.479403,29.578122]}},{"type":"Feature","properties":{"osm_id":"11572781038","station_name":"大庆村","element_type":"node","station_id":"11572781038"},"geometry":{"type":"Point","coordinates":[106.500329,29.578994]}},{"type":"Feature","properties":{"osm_id":"11572781035","station_name":"花卉园","element_type":"node","station_id":"6/13"},"geometry":{"type":"Point","coordinates":[106.509268,29.585434]}},{"type":"Feature","properties":{"osm_id":"11572781033","station_name":"龙溪","element_type":"node","station_id":"11572781033"},"geometry":{"type":"Point","coordinates":[106.512629,29.592047]}},{"type":"Feature","properties":{"osm_id":"9863177351","station_name":"重庆北站北广场","element_type":"node","station_id":"4/02"},"geometry":{"type":"Point","coordinates":[106.547399,29.614839]}},{"type":"Feature","properties":{"osm_id":"9468836440","station_name":"头塘","element_type":"node","station_id":"4/03"},"geometry":{"type":"Point","coordinates":[106.570039,29.611022]}},{"type":"Feature","properties":{"osm_id":"9468836646","station_name":"保税港","element_type":"node","station_id":"4/04"},"geometry":{"type":"Point","coordinates":[106.580009,29.619422]}},{"type":"Feature","properties":{"osm_id":"9794606715","station_name":"寸滩","element_type":"node","station_id":"9794606715"},"geometry":{"type":"Point","coordinates":[106.602358,29.624614]}},{"type":"Feature","properties":{"osm_id":"13727365945","station_name":"黑石子","element_type":"node","station_id":"13727365945"},"geometry":{"type":"Point","coordinates":[106.617486,29.62742]}},{"type":"Feature","properties":{"osm_id":"9794606684","station_name":"港城","element_type":"node","station_id":"9794606684"},"geometry":{"type":"Point","coordinates":[106.6284,29.622544]}},{"type":"Feature","properties":{"osm_id":"7308759763","station_name":"太平冲","element_type":"node","station_id":"7308759763"},"geometry":{"type":"Point","coordinates":[106.637827,29.608543]}},{"type":"Feature","properties":{"osm_id":"9794385153","station_name":"唐家沱","element_type":"node","station_id":"9794385153"},"geometry":{"type":"Point","coordinates":[106.655738,29.608321]}},{"type":"Feature","properties":{"osm_id":"9794408820","station_name":"铁山坪","element_type":"node","station_id":"9794408820"},"geometry":{"type":"Point","coordinates":[106.66563,29.616584]}},{"type":"Feature","properties":{"osm_id":"9794429778","station_name":"鹿栖","element_type":"node","station_id":"9794429778"},"geometry":{"type":"Point","coordinates":[106.712227,29.60332]}},{"type":"Feature","properties":{"osm_id":"9863155669","station_name":"果园物流枢纽","element_type":"node","station_id":"9863155669"},"geometry":{"type":"Point","coordinates":[106.734894,29.612394]}},{"type":"Feature","properties":{"osm_id":"9794429800","station_name":"鱼嘴","element_type":"node","station_id":"9794429800"},"geometry":{"type":"Point","coordinates":[106.758575,29.626015]}},{"type":"Feature","properties":{"osm_id":"9794429808","station_name":"雁坪","element_type":"node","station_id":"9794429808"},"geometry":{"type":"Point","coordinates":[106.771921,29.629626]}},{"type":"Feature","properties":{"osm_id":"9794462625","station_name":"石河清","element_type":"node","station_id":"9794462625"},"geometry":{"type":"Point","coordinates":[106.795864,29.64135]}},{"type":"Feature","properties":{"osm_id":"9794462635","station_name":"复盛","element_type":"node","station_id":"9794462635"},"geometry":{"type":"Point","coordinates":[106.796503,29.658816]}},{"type":"Feature","properties":{"osm_id":"9835918729","station_name":"三板溪","element_type":"node","station_id":"9835918729"},"geometry":{"type":"Point","coordinates":[106.793657,29.670443]}},{"type":"Feature","properties":{"osm_id":"9835918738","station_name":"龙驿大道","element_type":"node","station_id":"9835918738"},"geometry":{"type":"Point","coordinates":[106.790956,29.692685]}},{"type":"Feature","properties":{"osm_id":"9835918744","station_name":"龙兴","element_type":"node","station_id":"9835918744"},"geometry":{"type":"Point","coordinates":[106.798106,29.704216]}},{"type":"Feature","properties":{"osm_id":"9835918751","station_name":"高石塔","element_type":"node","station_id":"9835918751"},"geometry":{"type":"Point","coordinates":[106.798986,29.713921]}},{"type":"Feature","properties":{"osm_id":"9835918758","station_name":"普福","element_type":"node","station_id":"9835918758"},"geometry":{"type":"Point","coordinates":[106.79956,29.730629]}},{"type":"Feature","properties":{"osm_id":"9835918774","station_name":"桐梓林","element_type":"node","station_id":"9835918774"},"geometry":{"type":"Point","coordinates":[106.811331,29.744658]}},{"type":"Feature","properties":{"osm_id":"9835918783","station_name":"石船","element_type":"node","station_id":"9835918783"},"geometry":{"type":"Point","coordinates":[106.829797,29.762297]}},{"type":"Feature","properties":{"osm_id":"9835918788","station_name":"黄岭","element_type":"node","station_id":"9835918788"},"geometry":{"type":"Point","coordinates":[106.837567,29.774741]}},{"type":"Feature","properties":{"osm_id":"10576291019","station_name":"花石沟","element_type":"node","station_id":"10576291019"},"geometry":{"type":"Point","coordinates":[106.586333,29.755406]}},{"type":"Feature","properties":{"osm_id":"10576291024","station_name":"丛岩寺","element_type":"node","station_id":"10576291024"},"geometry":{"type":"Point","coordinates":[106.581329,29.747393]}},{"type":"Feature","properties":{"osm_id":"10576291040","station_name":"中央公园东","element_type":"node","station_id":"10576291040"},"geometry":{"type":"Point","coordinates":[106.58924,29.726616]}},{"type":"Feature","properties":{"osm_id":"10576291036","station_name":"兰桂大道","element_type":"node","station_id":"10576291036"},"geometry":{"type":"Point","coordinates":[106.592902,29.717166]}},{"type":"Feature","properties":{"osm_id":"10576291030","station_name":"春华大道","element_type":"node","station_id":"10576291030"},"geometry":{"type":"Point","coordinates":[106.595961,29.709513]}},{"type":"Feature","properties":{"osm_id":"9454896070","station_name":"兴科大道","element_type":"node","station_id":"9454896070"},"geometry":{"type":"Point","coordinates":[106.599624,29.690397]}},{"type":"Feature","properties":{"osm_id":"9454896075","station_name":"宝圣湖","element_type":"node","station_id":"9454896075"},"geometry":{"type":"Point","coordinates":[106.605421,29.680977]}},{"type":"Feature","properties":{"osm_id":"9454896092","station_name":"青岗坪","element_type":"node","station_id":"9454896092"},"geometry":{"type":"Point","coordinates":[106.61306,29.664385]}},{"type":"Feature","properties":{"osm_id":"9454896095","station_name":"上湾路","element_type":"node","station_id":"9454896095"},"geometry":{"type":"Point","coordinates":[106.605675,29.652934]}},{"type":"Feature","properties":{"osm_id":"7693388020","station_name":"石盘河","element_type":"node","station_id":"7693388020"},"geometry":{"type":"Point","coordinates":[106.593757,29.641688]}},{"type":"Feature","properties":{"osm_id":"9454896107","station_name":"何家梁","element_type":"node","station_id":"9454896107"},"geometry":{"type":"Point","coordinates":[106.592351,29.627763]}},{"type":"Feature","properties":{"osm_id":"9454904434","station_name":"溉澜溪","element_type":"node","station_id":"9454904434"},"geometry":{"type":"Point","coordinates":[106.567772,29.597158]}},{"type":"Feature","properties":{"osm_id":"7693387986","station_name":"江北城","element_type":"node","station_id":"7693387986"},"geometry":{"type":"Point","coordinates":[106.568356,29.578745]}},{"type":"Feature","properties":{"osm_id":"9454904461","station_name":"刘家台","element_type":"node","station_id":"9454904461"},"geometry":{"type":"Point","coordinates":[106.56029,29.575751]}},{"type":"Feature","properties":{"osm_id":"9454904478","station_name":"鲤鱼池","element_type":"node","station_id":"9454904478"},"geometry":{"type":"Point","coordinates":[106.547109,29.57654]}},{"type":"Feature","properties":{"osm_id":"9454942293","station_name":"蚂蝗梁","element_type":"node","station_id":"9454942293"},"geometry":{"type":"Point","coordinates":[106.521677,29.57297]}},{"type":"Feature","properties":{"osm_id":"9454942291","station_name":"李家坪","element_type":"node","station_id":"9454942291"},"geometry":{"type":"Point","coordinates":[106.517289,29.566832]}},{"type":"Feature","properties":{"osm_id":"9454942290","station_name":"化龙桥","element_type":"node","station_id":"9454942290"},"geometry":{"type":"Point","coordinates":[106.514793,29.552773]}},{"type":"Feature","properties":{"osm_id":"7693384066","station_name":"富华路","element_type":"node","station_id":"7693384066"},"geometry":{"type":"Point","coordinates":[106.499717,29.553732]}},{"type":"Feature","properties":{"osm_id":"9454951118","station_name":"土湾","element_type":"node","station_id":"9454951118"},"geometry":{"type":"Point","coordinates":[106.476538,29.553749]}},{"type":"Feature","properties":{"osm_id":"9459667275","station_name":"小龙坎","element_type":"node","station_id":"9459667275"},"geometry":{"type":"Point","coordinates":[106.465345,29.555684]}},{"type":"Feature","properties":{"osm_id":"9454964988","station_name":"天梨路","element_type":"node","station_id":"9454964988"},"geometry":{"type":"Point","coordinates":[106.44653,29.552528]}},{"type":"Feature","properties":{"osm_id":"9454964989","station_name":"高滩岩","element_type":"node","station_id":"9454964989"},"geometry":{"type":"Point","coordinates":[106.44537,29.541499]}},{"type":"Feature","properties":{"osm_id":"11252183234","station_name":"北碚","element_type":"node","station_id":"11252183234"},"geometry":{"type":"Point","coordinates":[106.433842,29.828302]}},{"type":"Feature","properties":{"osm_id":"11252183251","station_name":"西南大学","element_type":"node","station_id":"6/27"},"geometry":{"type":"Point","coordinates":[106.419644,29.818776]}},{"type":"Feature","properties":{"osm_id":"11252183264","station_name":"状元碑","element_type":"node","station_id":"11252183264"},"geometry":{"type":"Point","coordinates":[106.394815,29.805719]}},{"type":"Feature","properties":{"osm_id":"11252183285","station_name":"龙凤溪","element_type":"node","station_id":"11252183285"},"geometry":{"type":"Point","coordinates":[106.399756,29.792036]}},{"type":"Feature","properties":{"osm_id":"11252183401","station_name":"向家岗","element_type":"node","station_id":"6/24"},"geometry":{"type":"Point","coordinates":[106.469414,29.741705]}},{"type":"Feature","properties":{"osm_id":"11252183436","station_name":"蔡家","element_type":"node","station_id":"6/23"},"geometry":{"type":"Point","coordinates":[106.4875,29.738798]}},{"type":"Feature","properties":{"osm_id":"11252183403","station_name":"曹家湾","element_type":"node","station_id":"6/22"},"geometry":{"type":"Point","coordinates":[106.490285,29.723604]}},{"type":"Feature","properties":{"osm_id":"11252183495","station_name":"金山寺","element_type":"node","station_id":"6/21"},"geometry":{"type":"Point","coordinates":[106.488047,29.682252]}},{"type":"Feature","properties":{"osm_id":"11252183524","station_name":"礼嘉","element_type":"node","station_id":"6/20"},"geometry":{"type":"Point","coordinates":[106.484224,29.669664]}},{"type":"Feature","properties":{"osm_id":"11252183527","station_name":"九曲河","element_type":"node","station_id":"6/19"},"geometry":{"type":"Point","coordinates":[106.478923,29.656588]}},{"type":"Feature","properties":{"osm_id":"11252183528","station_name":"康庄","element_type":"node","station_id":"6/18"},"geometry":{"type":"Point","coordinates":[106.475073,29.637514]}},{"type":"Feature","properties":{"osm_id":"11252183529","station_name":"大竹林","element_type":"node","station_id":"6/17"},"geometry":{"type":"Point","coordinates":[106.474413,29.630776]}},{"type":"Feature","properties":{"osm_id":"11252183558","station_name":"光电园","element_type":"node","station_id":"6/16"},"geometry":{"type":"Point","coordinates":[106.495424,29.618695]}},{"type":"Feature","properties":{"osm_id":"11252183609","station_name":"黄泥塝","element_type":"node","station_id":"11252183609"},"geometry":{"type":"Point","coordinates":[106.53443,29.591191]}},{"type":"Feature","properties":{"osm_id":"11252183624","station_name":"红土地","element_type":"node","station_id":"11252183624"},"geometry":{"type":"Point","coordinates":[106.547202,29.586849]}},{"type":"Feature","properties":{"osm_id":"11250893816","station_name":"大剧院","element_type":"node","station_id":"6/07"},"geometry":{"type":"Point","coordinates":[106.573491,29.571912]}},{"type":"Feature","properties":{"osm_id":"3345481883","station_name":"小什字","element_type":"node","station_id":"6/06"},"geometry":{"type":"Point","coordinates":[106.579602,29.562356]}},{"type":"Feature","properties":{"osm_id":"11250895866","station_name":"刘家坪","element_type":"node","station_id":"6/04"},"geometry":{"type":"Point","coordinates":[106.651979,29.527592]}},{"type":"Feature","properties":{"osm_id":"3345481877","station_name":"长生桥","element_type":"node","station_id":"3345481877"},"geometry":{"type":"Point","coordinates":[106.654129,29.513699]}},{"type":"Feature","properties":{"osm_id":"3345481887","station_name":"邱家湾","element_type":"node","station_id":"6/02"},"geometry":{"type":"Point","coordinates":[106.645803,29.500812]}},{"type":"Feature","properties":{"osm_id":"3345481878","station_name":"","element_type":"node","station_id":"6/01"},"geometry":{"type":"Point","coordinates":[106.639105,29.490547]}},{"type":"Feature","properties":{"osm_id":"11252166395","station_name":"王家庄","element_type":"node","station_id":"11252166395"},"geometry":{"type":"Point","coordinates":[106.541804,29.746392]}},{"type":"Feature","properties":{"osm_id":"11252166403","station_name":"悦来","element_type":"node","station_id":"11252166403"},"geometry":{"type":"Point","coordinates":[106.544252,29.728562]}},{"type":"Feature","properties":{"osm_id":"13423471373","station_name":"中央公园","element_type":"node","station_id":"13423471373"},"geometry":{"type":"Point","coordinates":[106.579969,29.726434]}},{"type":"Feature","properties":{"osm_id":"13681177066","station_name":"鹿山","element_type":"node","station_id":"13681177066"},"geometry":{"type":"Point","coordinates":[106.603607,29.723462]}},{"type":"Feature","properties":{"osm_id":"13423471378","station_name":"渝北广场","element_type":"node","station_id":"13423471378"},"geometry":{"type":"Point","coordinates":[106.625178,29.721403]}},{"type":"Feature","properties":{"osm_id":"13363084425","station_name":"江北机场T3航站楼","element_type":"node","station_id":"10/19"},"geometry":{"type":"Point","coordinates":[106.650832,29.71052]}},{"type":"Feature","properties":{"osm_id":"5318659356","station_name":"长河","element_type":"node","station_id":"5318659356"},"geometry":{"type":"Point","coordinates":[106.625644,29.676921]}},{"type":"Feature","properties":{"osm_id":"4892350360","station_name":"环山公园","element_type":"node","station_id":"4892350360"},"geometry":{"type":"Point","coordinates":[106.61836,29.661795]}},{"type":"Feature","properties":{"osm_id":"13724494944","station_name":"三亚湾","element_type":"node","station_id":"13724494944"},"geometry":{"type":"Point","coordinates":[106.580992,29.641079]}},{"type":"Feature","properties":{"osm_id":"5318659382","station_name":"民心佳园","element_type":"node","station_id":"5318659382"},"geometry":{"type":"Point","coordinates":[106.56545,29.630292]}},{"type":"Feature","properties":{"osm_id":"5318659389","station_name":"龙头寺公园","element_type":"node","station_id":"5318659389"},"geometry":{"type":"Point","coordinates":[106.54692,29.601454]}},{"type":"Feature","properties":{"osm_id":"5186526437","station_name":"曾家岩","element_type":"node","station_id":"2/05"},"geometry":{"type":"Point","coordinates":[106.546361,29.569444]}},{"type":"Feature","properties":{"osm_id":"7007400627","station_name":"大礼堂","element_type":"node","station_id":"7007400627"},"geometry":{"type":"Point","coordinates":[106.552468,29.564377]}},{"type":"Feature","properties":{"osm_id":"10576238023","station_name":"七星岗","element_type":"node","station_id":"10576238023"},"geometry":{"type":"Point","coordinates":[106.558543,29.557466]}},{"type":"Feature","properties":{"osm_id":"8169006376","station_name":"后堡","element_type":"node","station_id":"8169006376"},"geometry":{"type":"Point","coordinates":[106.565419,29.541064]}},{"type":"Feature","properties":{"osm_id":"11193836264","station_name":"万寿路","element_type":"node","station_id":"11193836264"},"geometry":{"type":"Point","coordinates":[106.558426,29.526161]}},{"type":"Feature","properties":{"osm_id":"11193836268","station_name":"兰花路","element_type":"node","station_id":"11193836268"},"geometry":{"type":"Point","coordinates":[106.553931,29.506783]}},{"type":"Feature","properties":{"osm_id":"9351362646","station_name":"大江","element_type":"node","station_id":"9351362646"},"geometry":{"type":"Point","coordinates":[106.497266,29.386938]}},{"type":"Feature","properties":{"osm_id":"7289533879","station_name":"白居寺","element_type":"node","station_id":"7289533879"},"geometry":{"type":"Point","coordinates":[106.488554,29.418215]}},{"type":"Feature","properties":{"osm_id":"9228486100","station_name":"刘家坝","element_type":"node","station_id":"9228486100"},"geometry":{"type":"Point","coordinates":[106.478779,29.430276]}},{"type":"Feature","properties":{"osm_id":"7686492307","station_name":"金家湾","element_type":"node","station_id":"7686492307"},"geometry":{"type":"Point","coordinates":[106.471556,29.440515]}},{"type":"Feature","properties":{"osm_id":"9228486103","station_name":"建桥","element_type":"node","station_id":"9228486103"},"geometry":{"type":"Point","coordinates":[106.470832,29.452542]}},{"type":"Feature","properties":{"osm_id":"7941683808","station_name":"天堂堡","element_type":"node","station_id":"2/19"},"geometry":{"type":"Point","coordinates":[106.468376,29.469303]}},{"type":"Feature","properties":{"osm_id":"9351362649","station_name":"新山村","element_type":"node","station_id":"9351362649"},"geometry":{"type":"Point","coordinates":[106.472417,29.474549]}},{"type":"Feature","properties":{"osm_id":"9228486093","station_name":"大渡口","element_type":"node","station_id":"9228486093"},"geometry":{"type":"Point","coordinates":[106.47433,29.484452]}},{"type":"Feature","properties":{"osm_id":"7686492066","station_name":"平安","element_type":"node","station_id":"7686492066"},"geometry":{"type":"Point","coordinates":[106.481087,29.491401]}},{"type":"Feature","properties":{"osm_id":"9228486096","station_name":"马王场","element_type":"node","station_id":"9228486096"},"geometry":{"type":"Point","coordinates":[106.484939,29.498744]}},{"type":"Feature","properties":{"osm_id":"7686471528","station_name":"大堰村","element_type":"node","station_id":"7686471528"},"geometry":{"type":"Point","coordinates":[106.495313,29.502346]}},{"type":"Feature","properties":{"osm_id":"7617634979","station_name":"动物园","element_type":"node","station_id":"7617634979"},"geometry":{"type":"Point","coordinates":[106.50561,29.502757]}},{"type":"Feature","properties":{"osm_id":"9228486098","station_name":"杨家坪","element_type":"node","station_id":"9228486098"},"geometry":{"type":"Point","coordinates":[106.510966,29.510899]}},{"type":"Feature","properties":{"osm_id":"7619295749","station_name":"袁家岗","element_type":"node","station_id":"7619295749"},"geometry":{"type":"Point","coordinates":[106.509968,29.531577]}},{"type":"Feature","properties":{"osm_id":"10177615109","station_name":"大坪","element_type":"node","station_id":"2/09"},"geometry":{"type":"Point","coordinates":[106.515419,29.543807]}},{"type":"Feature","properties":{"osm_id":"7619295860","station_name":"佛图关","element_type":"node","station_id":"7619295860"},"geometry":{"type":"Point","coordinates":[106.528625,29.551426]}},{"type":"Feature","properties":{"osm_id":"9351362644","station_name":"李子坝","element_type":"node","station_id":"9351362644"},"geometry":{"type":"Point","coordinates":[106.533942,29.555649]}},{"type":"Feature","properties":{"osm_id":"7691923875","station_name":"大溪沟","element_type":"node","station_id":"2/04"},"geometry":{"type":"Point","coordinates":[106.554809,29.56886]}},{"type":"Feature","properties":{"osm_id":"7691923873","station_name":"黄花园","element_type":"node","station_id":"2/03"},"geometry":{"type":"Point","coordinates":[106.56122,29.566123]}},{"type":"Feature","properties":{"osm_id":"661062521","station_name":"临江门","element_type":"node","station_id":"2/02"},"geometry":{"type":"Point","coordinates":[106.571111,29.561028]}},{"type":"Feature","properties":{"osm_id":"661062329","station_name":"较场口","element_type":"node","station_id":"2/01"},"geometry":{"type":"Point","coordinates":[106.56929,29.556543]}},{"type":"Feature","properties":{"osm_id":"7096324913","station_name":"璧山","element_type":"node","station_id":"1/25"},"geometry":{"type":"Point","coordinates":[106.228783,29.614753]}},{"type":"Feature","properties":{"osm_id":"9620231631","station_name":"尖顶坡","element_type":"node","station_id":"9620231631"},"geometry":{"type":"Point","coordinates":[106.289227,29.609987]}},{"type":"Feature","properties":{"osm_id":"9620231637","station_name":"大学城","element_type":"node","station_id":"9620231637"},"geometry":{"type":"Point","coordinates":[106.305117,29.609996]}},{"type":"Feature","properties":{"osm_id":"9620231640","station_name":"陈家桥","element_type":"node","station_id":"9620231640"},"geometry":{"type":"Point","coordinates":[106.324644,29.610018]}},{"type":"Feature","properties":{"osm_id":"9620231656","station_name":"微电园","element_type":"node","station_id":"9620231656"},"geometry":{"type":"Point","coordinates":[106.358993,29.612195]}},{"type":"Feature","properties":{"osm_id":"9620231655","station_name":"赖家桥","element_type":"node","station_id":"9620231655"},"geometry":{"type":"Point","coordinates":[106.377454,29.612705]}},{"type":"Feature","properties":{"osm_id":"9689749194","station_name":"双碑","element_type":"node","station_id":"9689749194"},"geometry":{"type":"Point","coordinates":[106.440337,29.608276]}},{"type":"Feature","properties":{"osm_id":"9689749195","station_name":"石井坡","element_type":"node","station_id":"9689749195"},"geometry":{"type":"Point","coordinates":[106.440267,29.591984]}},{"type":"Feature","properties":{"osm_id":"9689749196","station_name":"磁器口","element_type":"node","station_id":"9689749196"},"geometry":{"type":"Point","coordinates":[106.442396,29.579268]}},{"type":"Feature","properties":{"osm_id":"9932850022","station_name":"烈士墓","element_type":"node","station_id":"9932850022"},"geometry":{"type":"Point","coordinates":[106.441282,29.570247]}},{"type":"Feature","properties":{"osm_id":"9932839911","station_name":"杨公桥","element_type":"node","station_id":"9932839911"},"geometry":{"type":"Point","coordinates":[106.446407,29.564252]}},{"type":"Feature","properties":{"osm_id":"1855149609","station_name":"马家岩","element_type":"node","station_id":"1855149609"},"geometry":{"type":"Point","coordinates":[106.46428,29.547621]}},{"type":"Feature","properties":{"osm_id":"1855149601","station_name":"高庙村","element_type":"node","station_id":"1855149601"},"geometry":{"type":"Point","coordinates":[106.465761,29.538685]}},{"type":"Feature","properties":{"osm_id":"1854002079","station_name":"石油路","element_type":"node","station_id":"1854002079"},"geometry":{"type":"Point","coordinates":[106.504419,29.540938]}},{"type":"Feature","properties":{"osm_id":"9948486859","station_name":"朝天门","element_type":"node","station_id":"9948486859"},"geometry":{"type":"Point","coordinates":[106.582589,29.567261]}},{"type":"Feature","properties":{"osm_id":"10828329837","station_name":"跳磴南","element_type":"node","station_id":"10828329837"},"geometry":{"type":"Point","coordinates":[106.43119,29.396379]}},{"type":"Feature","properties":{"osm_id":"10729743577","station_name":"金鳌山","element_type":"node","station_id":"10729743577"},"geometry":{"type":"Point","coordinates":[106.455142,29.417424]}},{"type":"Feature","properties":{"osm_id":"10729743579","station_name":"伏牛溪","element_type":"node","station_id":"10729743579"},"geometry":{"type":"Point","coordinates":[106.477128,29.418343]}},{"type":"Feature","properties":{"osm_id":"10828329821","station_name":"茄子溪","element_type":"node","station_id":"10828329821"},"geometry":{"type":"Point","coordinates":[106.500334,29.426852]}},{"type":"Feature","properties":{"osm_id":"10828329842","station_name":"巴滨路湿地公园","element_type":"node","station_id":"10828329842"},"geometry":{"type":"Point","coordinates":[106.513881,29.435608]}},{"type":"Feature","properties":{"osm_id":"10828329854","station_name":"花溪工业园","element_type":"node","station_id":"10828329854"},"geometry":{"type":"Point","coordinates":[106.513185,29.451072]}},{"type":"Feature","properties":{"osm_id":"10828329874","station_name":"重庆理工大学","element_type":"node","station_id":"10828329874"},"geometry":{"type":"Point","coordinates":[106.51707,29.463259]}},{"type":"Feature","properties":{"osm_id":"10828329890","station_name":"李家沱大桥","element_type":"node","station_id":"10828329890"},"geometry":{"type":"Point","coordinates":[106.524008,29.471607]}},{"type":"Feature","properties":{"osm_id":"10829131130","station_name":"电厂","element_type":"node","station_id":"10829131130"},"geometry":{"type":"Point","coordinates":[106.534245,29.485518]}},{"type":"Feature","properties":{"osm_id":"11193733876","station_name":"四川美术学院","element_type":"node","station_id":"11193733876"},"geometry":{"type":"Point","coordinates":[106.539519,29.491193]}},{"type":"Feature","properties":{"osm_id":"11193730628","station_name":"黄桷坪","element_type":"node","station_id":"11193730628"},"geometry":{"type":"Point","coordinates":[106.533032,29.499045]}},{"type":"Feature","properties":{"osm_id":"11193733881","station_name":"滩子口","element_type":"node","station_id":"11193733881"},"geometry":{"type":"Point","coordinates":[106.52309,29.502325]}},{"type":"Feature","properties":{"osm_id":"11193733888","station_name":"石坪桥","element_type":"node","station_id":"11193733888"},"geometry":{"type":"Point","coordinates":[106.502453,29.518474]}},{"type":"Feature","properties":{"osm_id":"8769874756","station_name":"科创小镇","element_type":"node","station_id":"8769874756"},"geometry":{"type":"Point","coordinates":[106.216419,29.614112]}},{"type":"Feature","properties":{"osm_id":"8090558735","station_name":"景山路","element_type":"node","station_id":"8090558735"},"geometry":{"type":"Point","coordinates":[106.21482,29.608514]}},{"type":"Feature","properties":{"osm_id":"8659188066","station_name":"千层岩","element_type":"node","station_id":"8659188066"},"geometry":{"type":"Point","coordinates":[106.21164,29.599667]}},{"type":"Feature","properties":{"osm_id":"8090558739","station_name":"秀湖公园","element_type":"node","station_id":"8090558739"},"geometry":{"type":"Point","coordinates":[106.207478,29.590472]}},{"type":"Feature","properties":{"osm_id":"8090558740","station_name":"秀水湾","element_type":"node","station_id":"8090558740"},"geometry":{"type":"Point","coordinates":[106.205981,29.578538]}},{"type":"Feature","properties":{"osm_id":"8090558742","station_name":"东岳公园","element_type":"node","station_id":"8090558742"},"geometry":{"type":"Point","coordinates":[106.201985,29.570597]}},{"type":"Feature","properties":{"osm_id":"8090558744","station_name":"儿童公园","element_type":"node","station_id":"8090558744"},"geometry":{"type":"Point","coordinates":[106.202294,29.558482]}},{"type":"Feature","properties":{"osm_id":"8090558750","station_name":"聚金大道","element_type":"node","station_id":"8090558750"},"geometry":{"type":"Point","coordinates":[106.199759,29.543604]}},{"type":"Feature","properties":{"osm_id":"8090558754","station_name":"双鱼","element_type":"node","station_id":"8090558754"},"geometry":{"type":"Point","coordinates":[106.196422,29.534561]}},{"type":"Feature","properties":{"osm_id":"8090558755","station_name":"莲花湖","element_type":"node","station_id":"8090558755"},"geometry":{"type":"Point","coordinates":[106.196358,29.525948]}},{"type":"Feature","properties":{"osm_id":"8090558762","station_name":"刘家嘴","element_type":"node","station_id":"8090558762"},"geometry":{"type":"Point","coordinates":[106.199027,29.519534]}},{"type":"Feature","properties":{"osm_id":"8090558761","station_name":"高观音","element_type":"node","station_id":"8090558761"},"geometry":{"type":"Point","coordinates":[106.204658,29.513468]}},{"type":"Feature","properties":{"osm_id":"8763838924","station_name":"沙坡","element_type":"node","station_id":"8763838924"},"geometry":{"type":"Point","coordinates":[106.211698,29.504008]}},{"type":"Feature","properties":{"osm_id":"8763838939","station_name":"成渝高铁站","element_type":"node","station_id":"8763838939"},"geometry":{"type":"Point","coordinates":[106.21841,29.506885]}},{"type":"Feature","properties":{"osm_id":"10712233869","station_name":"铜梁西","element_type":"node","station_id":"BT09"},"geometry":{"type":"Point","coordinates":[106.041902,29.828042]}},{"type":"Feature","properties":{"osm_id":"10712233867","station_name":"铜梁龙城天街","element_type":"node","station_id":"BT08"},"geometry":{"type":"Point","coordinates":[106.075254,29.833805]}},{"type":"Feature","properties":{"osm_id":"10712233872","station_name":"科创新城","element_type":"node","station_id":"BT07"},"geometry":{"type":"Point","coordinates":[106.104171,29.818568]}},{"type":"Feature","properties":{"osm_id":"10712233876","station_name":"庆隆","element_type":"node","station_id":"BT06"},"geometry":{"type":"Point","coordinates":[106.145665,29.792013]}},{"type":"Feature","properties":{"osm_id":"10712233897","station_name":"大路","element_type":"node","station_id":"10712233897"},"geometry":{"type":"Point","coordinates":[106.215654,29.725525]}},{"type":"Feature","properties":{"osm_id":"10712233914","station_name":"青龙湖","element_type":"node","station_id":"BT/04"},"geometry":{"type":"Point","coordinates":[106.207299,29.704433]}},{"type":"Feature","properties":{"osm_id":"10712233939","station_name":"河边","element_type":"node","station_id":"10712233939"},"geometry":{"type":"Point","coordinates":[106.206576,29.653963]}},{"type":"Feature","properties":{"osm_id":"10712233943","station_name":"璧城","element_type":"node","station_id":"BT02"},"geometry":{"type":"Point","coordinates":[106.217525,29.627358]}},{"type":"Feature","properties":{"osm_id":"9929861033","station_name":"石林寺","element_type":"node","station_id":"9929861033"},"geometry":{"type":"Point","coordinates":[106.426109,29.406912]}},{"type":"Feature","properties":{"osm_id":"9929905046","station_name":"九龙园","element_type":"node","station_id":"9929905046"},"geometry":{"type":"Point","coordinates":[106.350871,29.4018]}},{"type":"Feature","properties":{"osm_id":"9929915841","station_name":"双福","element_type":"node","station_id":"9929915841"},"geometry":{"type":"Point","coordinates":[106.308398,29.401387]}},{"type":"Feature","properties":{"osm_id":"9929915862","station_name":"享堂","element_type":"node","station_id":"9929915862"},"geometry":{"type":"Point","coordinates":[106.257904,29.384386]}},{"type":"Feature","properties":{"osm_id":"9929950759","station_name":"江津高铁","element_type":"node","station_id":"9929950759"},"geometry":{"type":"Point","coordinates":[106.25298,29.345526]}},{"type":"Feature","properties":{"osm_id":"6875047389","station_name":"圣泉寺","element_type":"node","station_id":"6875047389"},"geometry":{"type":"Point","coordinates":[106.25586,29.310418]}},{"type":"Feature","properties":{"route_company":"","route_id":"15","element_type":"way","color":"#e6194b","route_name":"15号线","osm_id":"1351847875","railway":"subway","status":"construction"},"geometry":{"type":"LineString","coordinates":[[106.653174,29.710158],[106.644413,29.712185],[106.628844,29.713088],[106.623208,29.71144],[106.621202,29.708699],[106.614073,29.688218],[106.594795,29.673426],[106.586309,29.652997],[106.574212,29.646279],[106.546419,29.643504],[106.539804,29.644789],[106.529297,29.650464],[106.510137,29.651837],[106.507749,29.653712],[106.506012,29.657592],[106.505549,29.667205],[106.504489,29.669859],[106.494639,29.681218],[106.490091,29.683292],[106.47394,29.681375],[106.47141,29.679532],[106.466783,29.673277],[106.455661,29.664564],[106.44424,29.663425],[106.435163,29.660344],[106.430563,29.660197],[106.391721,29.664913],[106.37242,29.66599],[106.352518,29.663925],[106.348994,29.661543],[106.342,29.653392],[106.328039,29.633513],[106.326118,29.623032],[106.326605,29.598359],[106.323926,29.589998],[106.32008,29.586043],[106.301054,29.577683],[106.298282,29.575494],[106.296865,29.57226],[106.296314,29.564831],[106.293958,29.559054],[106.293788,29.55072]]}},{"type":"Feature","properties":{"route_company":"","route_id":"27","element_type":"way","color":"#3cb44b","route_name":"27号线","osm_id":"1151519549","railway":"subway","status":"construction"},"geometry":{"type":"LineString","coordinates":[[106.715202,29.466431],[106.694575,29.467572],[106.690745,29.469819],[106.676971,29.483623],[106.660216,29.49139],[106.648872,29.492748],[106.629875,29.501885],[106.615152,29.504166],[106.578141,29.516618],[106.574703,29.519431],[106.566071,29.531471],[106.566228,29.534216],[106.56993,29.539943],[106.567147,29.54939],[106.563558,29.552481],[106.554323,29.555152],[106.550537,29.555588],[106.545926,29.554044],[106.535104,29.547552],[106.527479,29.540768],[106.523664,29.538921],[106.50102,29.537722],[106.47774,29.532759],[106.471585,29.53376],[106.467215,29.537707],[106.462511,29.550047],[106.459571,29.554992],[106.443501,29.573478],[106.440104,29.589558],[106.437286,29.593193],[106.433555,29.595114],[106.388903,29.594689],[106.38476,29.595835],[106.377908,29.599739],[106.369623,29.601778],[106.278152,29.601412],[106.24181,29.61314],[106.234519,29.614222]]}},{"type":"Feature","properties":{"route_company":"","route_id":"51","element_type":"way","color":"#4363d8","route_name":"江跳线","osm_id":"1085003881","railway":"subway","status":"construction"},"geometry":{"type":"LineString","coordinates":[[106.256786,29.307163],[106.259479,29.302023],[106.260346,29.292061],[106.263741,29.280835],[106.270448,29.275068],[106.272732,29.271648]]}},{"type":"Feature","properties":{"route_company":"","route_id":"1208046597","element_type":"way","color":"#f58231","route_name":"18号线","osm_id":"1208046597","railway":"subway","status":"construction"},"geometry":{"type":"LineString","coordinates":[[106.503145,29.552892],[106.507707,29.550683],[106.508653,29.544986],[106.51297,29.538556],[106.515477,29.537027],[106.518575,29.536863],[106.525333,29.539137],[106.535419,29.548687],[106.546889,29.555612],[106.551605,29.557142],[106.555533,29.557149],[106.563231,29.552781],[106.567473,29.551819],[106.571983,29.552143],[106.580064,29.55675],[106.582608,29.563496],[106.584619,29.565495]]}},{"type":"Feature","properties":{"route_company":"","route_id":"1243810487","element_type":"way","color":"#911eb4","route_name":"24号线","osm_id":"1243810487","railway":"subway","status":"construction"},"geometry":{"type":"LineString","coordinates":[[106.607235,29.47002],[106.626666,29.463407],[106.63615,29.469395],[106.642331,29.474559],[106.648736,29.483055],[106.651636,29.483779],[106.661323,29.482831],[106.664327,29.483866],[106.668809,29.490753],[106.669259,29.497631],[106.674854,29.505795],[106.679231,29.516157],[106.681868,29.517853],[106.684972,29.518162],[106.699906,29.513576],[106.704049,29.514142],[106.707064,29.515682],[106.713286,29.526291],[106.72697,29.541164],[106.728573,29.551096],[106.73991,29.565284]]}},{"type":"Feature","properties":{"route_company":"","route_id":"1457065743","element_type":"way","color":"#1ca8c9","route_name":"9号线","osm_id":"1457065743","railway":"subway","status":"construction"},"geometry":{"type":"LineString","coordinates":[[106.433464,29.528314],[106.440872,29.530757],[106.444813,29.539622]]}},{"type":"Feature","properties":{"route_company":"","route_id":"1456279867","element_type":"way","color":"#f032e6","route_name":"17号线","osm_id":"1456279867","railway":"subway","status":"construction"},"geometry":{"type":"LineString","coordinates":[[106.303852,29.614412],[106.303016,29.583041],[106.304362,29.544938],[106.310241,29.536929],[106.311676,29.525631],[106.311477,29.504477],[106.313774,29.493049]]}},{"type":"Feature","properties":{"route_company":"","route_id":"1476696835","element_type":"way","color":"#9a6324","route_name":"4号线","osm_id":"1476696835","railway":"subway","status":"construction"},"geometry":{"type":"LineString","coordinates":[[106.450408,29.592547],[106.463021,29.589915],[106.465173,29.588611]]}},{"type":"Feature","properties":{"route_company":"","route_id":"1490881689","element_type":"way","color":"#469990","route_name":"8号线","osm_id":"1490881689","railway":"monorail","status":"proposed"},"geometry":{"type":"LineString","coordinates":[[106.663621,29.481291],[106.669245,29.490829]]}},{"type":"Feature","properties":{"route_company":"","route_id":"26","element_type":"way","color":"#800000","route_name":"26","osm_id":"1532283904","railway":"subway","status":"proposed"},"geometry":{"type":"LineString","coordinates":[[106.536792,29.548183],[106.543869,29.552063]]}},{"type":"Feature","properties":{"route_company":"","route_id":"1379080586","element_type":"way","color":"#000075","route_name":"歌乐山景区旅游单轨","osm_id":"1379080586","railway":"monorail","status":"proposed"},"geometry":{"type":"LineString","coordinates":[[106.443672,29.583302],[106.43774,29.582347],[106.437279,29.584547],[106.431022,29.586141],[106.429799,29.575996]]}}]}