{"type":"FeatureCollection","generator":"metroOsmFetch (OpenStreetMap / Overpass, ODbL)","features":[{"type":"Feature","properties":{"osm_id":"7686492527","station_name":"魚洞","element_type":"node","station_id":"3/01"},"geometry":{"type":"Point","coordinates":[106.50202,29.378784]}},{"type":"Feature","properties":{"osm_id":"10175486106","station_name":"金竹","element_type":"node","station_id":"3/02"},"geometry":{"type":"Point","coordinates":[106.520104,29.378399]}},{"type":"Feature","properties":{"osm_id":"10175628687","station_name":"魚胡路","element_type":"node","station_id":"3/03"},"geometry":{"type":"Point","coordinates":[106.535407,29.380596]}},{"type":"Feature","properties":{"osm_id":"10176016391","station_name":"學堂灣","element_type":"node","station_id":"3/04"},"geometry":{"type":"Point","coordinates":[106.539321,29.400908]}},{"type":"Feature","properties":{"osm_id":"10176016389","station_name":"大山村","element_type":"node","station_id":"3/05"},"geometry":{"type":"Point","coordinates":[106.539899,29.415761]}},{"type":"Feature","properties":{"osm_id":"10176016388","station_name":"花溪","element_type":"node","station_id":"3/06"},"geometry":{"type":"Point","coordinates":[106.54659,29.43508]}},{"type":"Feature","properties":{"osm_id":"10176016385","station_name":"岔路口","element_type":"node","station_id":"3/07"},"geometry":{"type":"Point","coordinates":[106.55086,29.451506]}},{"type":"Feature","properties":{"osm_id":"10175717730","station_name":"九公里","element_type":"node","station_id":"3/08"},"geometry":{"type":"Point","coordinates":[106.555402,29.461386]}},{"type":"Feature","properties":{"osm_id":"10176016383","station_name":"麒龍","element_type":"node","station_id":"3/09"},"geometry":{"type":"Point","coordinates":[106.558915,29.469719]}},{"type":"Feature","properties":{"osm_id":"10176016381","station_name":"八公里","element_type":"node","station_id":"3/10"},"geometry":{"type":"Point","coordinates":[106.562195,29.481015]}},{"type":"Feature","properties":{"osm_id":"10176016379","station_name":"重慶交通大學","element_type":"node","station_id":"3/11"},"geometry":{"type":"Point","coordinates":[106.569104,29.491433]}},{"type":"Feature","properties":{"osm_id":"10176016377","station_name":"六公里","element_type":"node","station_id":"3/12"},"geometry":{"type":"Point","coordinates":[106.569661,29.50053]}},{"type":"Feature","properties":{"osm_id":"10175714851","station_name":"重慶工商大學","element_type":"node","station_id":"3/13"},"geometry":{"type":"Point","coordinates":[106.570156,29.510163]}},{"type":"Feature","properties":{"osm_id":"10176016376","station_name":"四公里","element_type":"node","station_id":"3/14"},"geometry":{"type":"Point","coordinates":[106.573203,29.520153]}},{"type":"Feature","properties":{"osm_id":"10175722077","station_name":"南坪","element_type":"node","station_id":"3/15"},"geometry":{"type":"Point","coordinates":[106.566043,29.52974]}},{"type":"Feature","properties":{"osm_id":"9702282522","station_name":"工貿","element_type":"node","station_id":"3/16"},"geometry":{"type":"Point","coordinates":[106.559603,29.534481]}},{"type":"Feature","properties":{"osm_id":"1871618098","station_name":"銅元局","element_type":"node","station_id":"3/17"},"geometry":{"type":"Point","coordinates":[106.54777,29.540003]}},{"type":"Feature","properties":{"osm_id":"7165542389","station_name":"兩路口","element_type":"node","station_id":"3/18"},"geometry":{"type":"Point","coordinates":[106.545088,29.555661]}},{"type":"Feature","properties":{"osm_id":"1854002077","station_name":"牛角沱","element_type":"node","station_id":"3/19"},"geometry":{"type":"Point","coordinates":[106.538816,29.562681]}},{"type":"Feature","properties":{"osm_id":"9702282354","station_name":"華新街","element_type":"node","station_id":"3/20"},"geometry":{"type":"Point","coordinates":[106.533422,29.566727]}},{"type":"Feature","properties":{"osm_id":"10176114666","station_name":"觀音橋","element_type":"node","station_id":"3/21"},"geometry":{"type":"Point","coordinates":[106.530047,29.575991]}},{"type":"Feature","properties":{"osm_id":"10176114657","station_name":"紅旗河溝","element_type":"node","station_id":"3/22"},"geometry":{"type":"Point","coordinates":[106.522483,29.588025]}},{"type":"Feature","properties":{"osm_id":"10176114645","station_name":"嘉州路","element_type":"node","station_id":"3/23"},"geometry":{"type":"Point","coordinates":[106.517568,29.599333]}},{"type":"Feature","properties":{"osm_id":"10176114627","station_name":"鄭家院子","element_type":"node","station_id":"3/24"},"geometry":{"type":"Point","coordinates":[106.526241,29.602256]}},{"type":"Feature","properties":{"osm_id":"10176095680","station_name":"唐家院子","element_type":"node","station_id":"3/25"},"geometry":{"type":"Point","coordinates":[106.536922,29.601993]}},{"type":"Feature","properties":{"osm_id":"10176095678","station_name":"獅子坪","element_type":"node","station_id":"3/26"},"geometry":{"type":"Point","coordinates":[106.545424,29.604089]}},{"type":"Feature","properties":{"osm_id":"10176244869","station_name":"重慶北站南廣場","element_type":"node","station_id":"3/27"},"geometry":{"type":"Point","coordinates":[106.546284,29.609685]}},{"type":"Feature","properties":{"osm_id":"10176244859","station_name":"龍頭寺","element_type":"node","station_id":"3/28"},"geometry":{"type":"Point","coordinates":[106.545966,29.619671]}},{"type":"Feature","properties":{"osm_id":"10176244850","station_name":"童家院子","element_type":"node","station_id":"3/29"},"geometry":{"type":"Point","coordinates":[106.551504,29.631254]}},{"type":"Feature","properties":{"osm_id":"10176244823","station_name":"金渝","element_type":"node","station_id":"3/30"},"geometry":{"type":"Point","coordinates":[106.566977,29.638205]}},{"type":"Feature","properties":{"osm_id":"10176244821","station_name":"金童路","element_type":"node","station_id":"3/31"},"geometry":{"type":"Point","coordinates":[106.563722,29.646163]}},{"type":"Feature","properties":{"osm_id":"10176244463","station_name":"鴛鴦","element_type":"node","station_id":"3/32"},"geometry":{"type":"Point","coordinates":[106.556498,29.664165]}},{"type":"Feature","properties":{"osm_id":"10176244465","station_name":"園博園","element_type":"node","station_id":"3/33"},"geometry":{"type":"Point","coordinates":[106.560073,29.677435]}},{"type":"Feature","properties":{"osm_id":"10176244467","station_name":"翠雲","element_type":"node","station_id":"3/34"},"geometry":{"type":"Point","coordinates":[106.569003,29.688691]}},{"type":"Feature","properties":{"osm_id":"10176244474","station_name":"長福路","element_type":"node","station_id":"3/35"},"geometry":{"type":"Point","coordinates":[106.585039,29.690408]}},{"type":"Feature","properties":{"osm_id":"10176244476","station_name":"回興","element_type":"node","station_id":"3/36"},"geometry":{"type":"Point","coordinates":[106.60214,29.693202]}},{"type":"Feature","properties":{"osm_id":"10176244478","station_name":"雙龍","element_type":"node","station_id":"3/37"},"geometry":{"type":"Point","coordinates":[106.615175,29.70078]}},{"type":"Feature","properties":{"osm_id":"10176244482","station_name":"碧津","element_type":"node","station_id":"3/38"},"geometry":{"type":"Point","coordinates":[106.628797,29.71393]}},{"type":"Feature","properties":{"osm_id":"10176244485","station_name":"江北機場T2航站樓","element_type":"node","station_id":"3/39"},"geometry":{"type":"Point","coordinates":[106.633887,29.720602]}},{"type":"Feature","properties":{"osm_id":"10180069079","station_name":"重慶西站","element_type":"node","station_id":"0/01"},"geometry":{"type":"Point","coordinates":[106.435499,29.502721]}},{"type":"Feature","properties":{"osm_id":"10180144468","station_name":"上橋","element_type":"node","station_id":"10180144468"},"geometry":{"type":"Point","coordinates":[106.438442,29.520342]}},{"type":"Feature","properties":{"osm_id":"10180144477","station_name":"鳳鳴山","element_type":"node","station_id":"10180144477"},"geometry":{"type":"Point","coordinates":[106.444593,29.52684]}},{"type":"Feature","properties":{"osm_id":"10180144489","station_name":"重慶圖書館","element_type":"node","station_id":"0/04"},"geometry":{"type":"Point","coordinates":[106.45167,29.534815]}},{"type":"Feature","properties":{"osm_id":"10180144498","station_name":"天星橋","element_type":"node","station_id":"0/05"},"geometry":{"type":"Point","coordinates":[106.454938,29.544413]}},{"type":"Feature","properties":{"osm_id":"9458207714","station_name":"沙坪壩","element_type":"node","station_id":"0/06"},"geometry":{"type":"Point","coordinates":[106.456081,29.558271]}},{"type":"Feature","properties":{"osm_id":"10180144516","station_name":"重慶大學","element_type":"node","station_id":"0/07"},"geometry":{"type":"Point","coordinates":[106.459611,29.56996]}},{"type":"Feature","properties":{"osm_id":"10180186040","station_name":"玉帶山","element_type":"node","station_id":"0/08"},"geometry":{"type":"Point","coordinates":[106.472097,29.583408]}},{"type":"Feature","properties":{"osm_id":"10180186025","station_name":"南橋寺","element_type":"node","station_id":"0/09"},"geometry":{"type":"Point","coordinates":[106.478426,29.592919]}},{"type":"Feature","properties":{"osm_id":"10180186070","station_name":"體育公園","element_type":"node","station_id":"0/10"},"geometry":{"type":"Point","coordinates":[106.48329,29.601264]}},{"type":"Feature","properties":{"osm_id":"10180186073","station_name":"冉家壩","element_type":"node","station_id":"6/15"},"geometry":{"type":"Point","coordinates":[106.495037,29.601302]}},{"type":"Feature","properties":{"osm_id":"10180186086","station_name":"動步公園","element_type":"node","station_id":"0/12"},"geometry":{"type":"Point","coordinates":[106.501352,29.606588]}},{"type":"Feature","properties":{"osm_id":"10180186101","station_name":"洪湖東路","element_type":"node","station_id":"0/13"},"geometry":{"type":"Point","coordinates":[106.508481,29.610419]}},{"type":"Feature","properties":{"osm_id":"10180134025","station_name":"民安大道","element_type":"node","station_id":"0/14"},"geometry":{"type":"Point","coordinates":[106.524638,29.611458]}},{"type":"Feature","properties":{"osm_id":"10180119405","station_name":"渝魯","element_type":"node","station_id":"0/16"},"geometry":{"type":"Point","coordinates":[106.556059,29.598111]}},{"type":"Feature","properties":{"osm_id":"5185916328","station_name":"五里店","element_type":"node","station_id":"0/17"},"geometry":{"type":"Point","coordinates":[106.562791,29.588274]}},{"type":"Feature","properties":{"osm_id":"10180121918","station_name":"彈子石","element_type":"node","station_id":"0/18"},"geometry":{"type":"Point","coordinates":[106.588538,29.588743]}},{"type":"Feature","properties":{"osm_id":"10180121929","station_name":"塗山","element_type":"node","station_id":"0/19"},"geometry":{"type":"Point","coordinates":[106.596421,29.57903]}},{"type":"Feature","properties":{"osm_id":"9159693817","station_name":"仁濟","element_type":"node","station_id":"0/20"},"geometry":{"type":"Point","coordinates":[106.595714,29.56797]}},{"type":"Feature","properties":{"osm_id":"10180121947","station_name":"上新街","element_type":"node","station_id":"0/21"},"geometry":{"type":"Point","coordinates":[106.593432,29.559015]}},{"type":"Feature","properties":{"osm_id":"11247352722","station_name":"上浩","element_type":"node","station_id":"11247352722"},"geometry":{"type":"Point","coordinates":[106.59037,29.549519]}},{"type":"Feature","properties":{"osm_id":"10180121955","station_name":"海棠溪","element_type":"node","station_id":"0/23"},"geometry":{"type":"Point","coordinates":[106.583417,29.537476]}},{"type":"Feature","properties":{"osm_id":"10180121965","station_name":"羅家壩","element_type":"node","station_id":"0/24"},"geometry":{"type":"Point","coordinates":[106.579269,29.529143]}},{"type":"Feature","properties":{"osm_id":"10180068925","station_name":"南湖","element_type":"node","station_id":"0/26"},"geometry":{"type":"Point","coordinates":[106.553121,29.518871]}},{"type":"Feature","properties":{"osm_id":"10180068933","station_name":"海峽路","element_type":"node","station_id":"0/27"},"geometry":{"type":"Point","coordinates":[106.542523,29.521262]}},{"type":"Feature","properties":{"osm_id":"10180068945","station_name":"謝家灣","element_type":"node","station_id":"0/28"},"geometry":{"type":"Point","coordinates":[106.514674,29.52244]}},{"type":"Feature","properties":{"osm_id":"10180068966","station_name":"奧體中心","element_type":"node","station_id":"10180068966"},"geometry":{"type":"Point","coordinates":[106.497763,29.52697]}},{"type":"Feature","properties":{"osm_id":"10180068968","station_name":"陳家坪","element_type":"node","station_id":"0/30"},"geometry":{"type":"Point","coordinates":[106.485388,29.526472]}},{"type":"Feature","properties":{"osm_id":"10180068990","station_name":"彩雲湖","element_type":"node","station_id":"0/31"},"geometry":{"type":"Point","coordinates":[106.467667,29.518472]}},{"type":"Feature","properties":{"osm_id":"10180069053","station_name":"二郎","element_type":"node","station_id":"0/32"},"geometry":{"type":"Point","coordinates":[106.458263,29.507753]}},{"type":"Feature","properties":{"osm_id":"10180069062","station_name":"華龍","element_type":"node","station_id":"0/33"},"geometry":{"type":"Point","coordinates":[106.448864,29.498223]}},{"type":"Feature","properties":{"osm_id":"8395751722","station_name":"跳磴","element_type":"node","station_id":"5/25"},"geometry":{"type":"Point","coordinates":[106.43398,29.410793]}},{"type":"Feature","properties":{"osm_id":"8395751758","station_name":"華巖中心","element_type":"node","station_id":"8395751758"},"geometry":{"type":"Point","coordinates":[106.43639,29.43172]}},{"type":"Feature","properties":{"osm_id":"8395751779","station_name":"金建路","element_type":"node","station_id":"8395751779"},"geometry":{"type":"Point","coordinates":[106.438066,29.445157]}},{"type":"Feature","properties":{"osm_id":"10182015162","station_name":"中梁山","element_type":"node","station_id":"10182015162"},"geometry":{"type":"Point","coordinates":[106.442023,29.461875]}},{"type":"Feature","properties":{"osm_id":"10182020260","station_name":"半山","element_type":"node","station_id":"10182020260"},"geometry":{"type":"Point","coordinates":[106.446442,29.475589]}},{"type":"Feature","properties":{"osm_id":"10182020233","station_name":"華成路","element_type":"node","station_id":"10182020233"},"geometry":{"type":"Point","coordinates":[106.449441,29.482841]}},{"type":"Feature","properties":{"osm_id":"10182020217","station_name":"華巖寺","element_type":"node","station_id":"10182020217"},"geometry":{"type":"Point","coordinates":[106.44091,29.496797]}},{"type":"Feature","properties":{"osm_id":"10182015193","station_name":"鳳西路","element_type":"node","station_id":"10182015193"},"geometry":{"type":"Point","coordinates":[106.450152,29.516265]}},{"type":"Feature","properties":{"osm_id":"10182015182","station_name":"巴山","element_type":"node","station_id":"10182015182"},"geometry":{"type":"Point","coordinates":[106.465699,29.523223]}},{"type":"Feature","properties":{"osm_id":"10182015173","station_name":"石新路","element_type":"node","station_id":"10182015173"},"geometry":{"type":"Point","coordinates":[106.473836,29.528381]}},{"type":"Feature","properties":{"osm_id":"10182015164","station_name":"石橋鋪","element_type":"node","station_id":"5/14"},"geometry":{"type":"Point","coordinates":[106.481209,29.535436]}},{"type":"Feature","properties":{"osm_id":"11193733908","station_name":"歇臺子","element_type":"node","station_id":"11193733908"},"geometry":{"type":"Point","coordinates":[106.494845,29.539765]}},{"type":"Feature","properties":{"osm_id":"11205302955","station_name":"紅巖村","element_type":"node","station_id":"11205302955"},"geometry":{"type":"Point","coordinates":[106.490022,29.553389]}},{"type":"Feature","properties":{"osm_id":"11205190633","station_name":"忠恕沱","element_type":"node","station_id":"11205190633"},"geometry":{"type":"Point","coordinates":[106.490092,29.565633]}},{"type":"Feature","properties":{"osm_id":"10186265760","station_name":"大石壩","element_type":"node","station_id":"5/10"},"geometry":{"type":"Point","coordinates":[106.492095,29.573872]}},{"type":"Feature","properties":{"osm_id":"10186265773","station_name":"大龍山","element_type":"node","station_id":"10186265773"},"geometry":{"type":"Point","coordinates":[106.494908,29.592372]}},{"type":"Feature","properties":{"osm_id":"5318575227","station_name":"幸福廣場","element_type":"node","station_id":"5318575227"},"geometry":{"type":"Point","coordinates":[106.504592,29.619286]}},{"type":"Feature","properties":{"osm_id":"5318575081","station_name":"人和","element_type":"node","station_id":"5318575081"},"geometry":{"type":"Point","coordinates":[106.518461,29.62598]}},{"type":"Feature","properties":{"osm_id":"5318575072","station_name":"和睦路","element_type":"node","station_id":"5318575072"},"geometry":{"type":"Point","coordinates":[106.529656,29.632424]}},{"type":"Feature","properties":{"osm_id":"5318575049","station_name":"重光","element_type":"node","station_id":"5318575049"},"geometry":{"type":"Point","coordinates":[106.526563,29.651637]}},{"type":"Feature","properties":{"osm_id":"5318575043","station_name":"湖霞街","element_type":"node","station_id":"5318575043"},"geometry":{"type":"Point","coordinates":[106.534733,29.662496]}},{"type":"Feature","properties":{"osm_id":"5318575032","station_name":"丹鶴","element_type":"node","station_id":"5318575032"},"geometry":{"type":"Point","coordinates":[106.547317,29.669697]}},{"type":"Feature","properties":{"osm_id":"5318575021","station_name":"園博中心","element_type":"node","station_id":"5318575021"},"geometry":{"type":"Point","coordinates":[106.556792,29.678519]}},{"type":"Feature","properties":{"osm_id":"10727310951","station_name":"玉河溝","element_type":"node","station_id":"10727310951"},"geometry":{"type":"Point","coordinates":[106.565582,29.696987]}},{"type":"Feature","properties":{"osm_id":"10727310948","station_name":"甘悅大道","element_type":"node","station_id":"10727310948"},"geometry":{"type":"Point","coordinates":[106.565438,29.705756]}},{"type":"Feature","properties":{"osm_id":"10701970209","station_name":"魯家溝","element_type":"node","station_id":"10701970209"},"geometry":{"type":"Point","coordinates":[106.567335,29.713852]}},{"type":"Feature","properties":{"osm_id":"10701970216","station_name":"中央公園西","element_type":"node","station_id":"10701970216"},"geometry":{"type":"Point","coordinates":[106.568718,29.725912]}},{"type":"Feature","properties":{"osm_id":"10724057624","station_name":"椿萱大道","element_type":"node","station_id":"10724057624"},"geometry":{"type":"Point","coordinates":[106.567059,29.736699]}},{"type":"Feature","properties":{"osm_id":"10724057612","station_name":"悅港大道","element_type":"node","station_id":"10724057612"},"geometry":{"type":"Point","coordinates":[106.565608,29.747493]}},{"type":"Feature","properties":{"osm_id":"10724057610","station_name":"悅港北路","element_type":"node","station_id":"10724057610"},"geometry":{"type":"Point","coordinates":[106.565815,29.755936]}},{"type":"Feature","properties":{"osm_id":"11572781055","station_name":"石馬河立交","element_type":"node","station_id":"11572781055"},"geometry":{"type":"Point","coordinates":[106.46606,29.587671]}},{"type":"Feature","properties":{"osm_id":"11572781044","station_name":"盤溪","element_type":"node","station_id":"11572781044"},"geometry":{"type":"Point","coordinates":[106.47948,29.578123]}},{"type":"Feature","properties":{"osm_id":"11572781038","station_name":"大慶村","element_type":"node","station_id":"11572781038"},"geometry":{"type":"Point","coordinates":[106.500301,29.579058]}},{"type":"Feature","properties":{"osm_id":"11572781035","station_name":"花卉園","element_type":"node","station_id":"6/13"},"geometry":{"type":"Point","coordinates":[106.509221,29.585471]}},{"type":"Feature","properties":{"osm_id":"11572781033","station_name":"龍溪","element_type":"node","station_id":"11572781033"},"geometry":{"type":"Point","coordinates":[106.512582,29.592102]}},{"type":"Feature","properties":{"osm_id":"9863177351","station_name":"重慶北站北廣場","element_type":"node","station_id":"4/02"},"geometry":{"type":"Point","coordinates":[106.547429,29.614836]}},{"type":"Feature","properties":{"osm_id":"9468836440","station_name":"頭塘","element_type":"node","station_id":"4/03"},"geometry":{"type":"Point","coordinates":[106.570052,29.610995]}},{"type":"Feature","properties":{"osm_id":"9468836646","station_name":"保稅港","element_type":"node","station_id":"4/04"},"geometry":{"type":"Point","coordinates":[106.579952,29.619479]}},{"type":"Feature","properties":{"osm_id":"9794606715","station_name":"寸灘","element_type":"node","station_id":"9794606715"},"geometry":{"type":"Point","coordinates":[106.602357,29.624634]}},{"type":"Feature","properties":{"osm_id":"13727365945","station_name":"黑石子","element_type":"node","station_id":"13727365945"},"geometry":{"type":"Point","coordinates":[106.617479,29.627569]}},{"type":"Feature","properties":{"osm_id":"9794606684","station_name":"港城","element_type":"node","station_id":"9794606684"},"geometry":{"type":"Point","coordinates":[106.628426,29.622611]}},{"type":"Feature","properties":{"osm_id":"7308759763","station_name":"太平衝","element_type":"node","station_id":"7308759763"},"geometry":{"type":"Point","coordinates":[106.637828,29.608625]}},{"type":"Feature","properties":{"osm_id":"9794385153","station_name":"唐家沱","element_type":"node","station_id":"9794385153"},"geometry":{"type":"Point","coordinates":[106.655585,29.608185]}},{"type":"Feature","properties":{"osm_id":"9794408820","station_name":"鐵山坪","element_type":"node","station_id":"9794408820"},"geometry":{"type":"Point","coordinates":[106.665676,29.616729]}},{"type":"Feature","properties":{"osm_id":"9794429778","station_name":"鹿棲","element_type":"node","station_id":"9794429778"},"geometry":{"type":"Point","coordinates":[106.712337,29.603288]}},{"type":"Feature","properties":{"osm_id":"9863155669","station_name":"果園物流樞紐","element_type":"node","station_id":"9863155669"},"geometry":{"type":"Point","coordinates":[106.734875,29.612409]}},{"type":"Feature","properties":{"osm_id":"9794429800","station_name":"魚嘴","element_type":"node","station_id":"9794429800"},"geometry":{"type":"Point","coordinates":[106.758241,29.625892]}},{"type":"Feature","properties":{"osm_id":"9794429808","station_name":"雁坪","element_type":"node","station_id":"9794429808"},"geometry":{"type":"Point","coordinates":[106.772123,29.629684]}},{"type":"Feature","properties":{"osm_id":"9794462625","station_name":"石河清","element_type":"node","station_id":"9794462625"},"geometry":{"type":"Point","coordinates":[106.795634,29.64094]}},{"type":"Feature","properties":{"osm_id":"9794462635","station_name":"復盛","element_type":"node","station_id":"9794462635"},"geometry":{"type":"Point","coordinates":[106.796401,29.658764]}},{"type":"Feature","properties":{"osm_id":"9835918729","station_name":"三板溪","element_type":"node","station_id":"9835918729"},"geometry":{"type":"Point","coordinates":[106.793772,29.670325]}},{"type":"Feature","properties":{"osm_id":"9835918738","station_name":"龍驛大道","element_type":"node","station_id":"9835918738"},"geometry":{"type":"Point","coordinates":[106.789876,29.69206]}},{"type":"Feature","properties":{"osm_id":"9835918744","station_name":"龍興","element_type":"node","station_id":"9835918744"},"geometry":{"type":"Point","coordinates":[106.797908,29.704152]}},{"type":"Feature","properties":{"osm_id":"9835918751","station_name":"高石塔","element_type":"node","station_id":"9835918751"},"geometry":{"type":"Point","coordinates":[106.798968,29.713889]}},{"type":"Feature","properties":{"osm_id":"9835918758","station_name":"普福","element_type":"node","station_id":"9835918758"},"geometry":{"type":"Point","coordinates":[106.799839,29.731036]}},{"type":"Feature","properties":{"osm_id":"9835918774","station_name":"桐梓林","element_type":"node","station_id":"9835918774"},"geometry":{"type":"Point","coordinates":[106.811272,29.744646]}},{"type":"Feature","properties":{"osm_id":"9835918783","station_name":"石船","element_type":"node","station_id":"9835918783"},"geometry":{"type":"Point","coordinates":[106.829712,29.76222]}},{"type":"Feature","properties":{"osm_id":"9835918788","station_name":"黃嶺","element_type":"node","station_id":"9835918788"},"geometry":{"type":"Point","coordinates":[106.837405,29.774674]}},{"type":"Feature","properties":{"osm_id":"10576291019","station_name":"花石溝","element_type":"node","station_id":"10576291019"},"geometry":{"type":"Point","coordinates":[106.586356,29.75538]}},{"type":"Feature","properties":{"osm_id":"10576291024","station_name":"叢巖寺","element_type":"node","station_id":"10576291024"},"geometry":{"type":"Point","coordinates":[106.581359,29.747396]}},{"type":"Feature","properties":{"osm_id":"10576291040","station_name":"中央公園東","element_type":"node","station_id":"10576291040"},"geometry":{"type":"Point","coordinates":[106.58929,29.726653]}},{"type":"Feature","properties":{"osm_id":"10576291036","station_name":"蘭桂大道","element_type":"node","station_id":"10576291036"},"geometry":{"type":"Point","coordinates":[106.592956,29.717226]}},{"type":"Feature","properties":{"osm_id":"10576291030","station_name":"春華大道","element_type":"node","station_id":"10576291030"},"geometry":{"type":"Point","coordinates":[106.596049,29.709513]}},{"type":"Feature","properties":{"osm_id":"9454896070","station_name":"興科大道","element_type":"node","station_id":"9454896070"},"geometry":{"type":"Point","coordinates":[106.599697,29.69044]}},{"type":"Feature","properties":{"osm_id":"9454896075","station_name":"寶聖湖","element_type":"node","station_id":"9454896075"},"geometry":{"type":"Point","coordinates":[106.605493,29.681013]}},{"type":"Feature","properties":{"osm_id":"9454896092","station_name":"青崗坪","element_type":"node","station_id":"9454896092"},"geometry":{"type":"Point","coordinates":[106.61315,29.664401]}},{"type":"Feature","properties":{"osm_id":"9454896095","station_name":"上灣路","element_type":"node","station_id":"9454896095"},"geometry":{"type":"Point","coordinates":[106.605708,29.652843]}},{"type":"Feature","properties":{"osm_id":"7693388020","station_name":"石盤河","element_type":"node","station_id":"7693388020"},"geometry":{"type":"Point","coordinates":[106.59384,29.641655]}},{"type":"Feature","properties":{"osm_id":"9454896107","station_name":"何家梁","element_type":"node","station_id":"9454896107"},"geometry":{"type":"Point","coordinates":[106.592443,29.627754]}},{"type":"Feature","properties":{"osm_id":"9454904434","station_name":"溉瀾溪","element_type":"node","station_id":"9454904434"},"geometry":{"type":"Point","coordinates":[106.567795,29.597147]}},{"type":"Feature","properties":{"osm_id":"7693387986","station_name":"江北城","element_type":"node","station_id":"7693387986"},"geometry":{"type":"Point","coordinates":[106.568355,29.578745]}},{"type":"Feature","properties":{"osm_id":"9454904461","station_name":"劉家臺","element_type":"node","station_id":"9454904461"},"geometry":{"type":"Point","coordinates":[106.560285,29.575678]}},{"type":"Feature","properties":{"osm_id":"9454904478","station_name":"鯉魚池","element_type":"node","station_id":"9454904478"},"geometry":{"type":"Point","coordinates":[106.547137,29.57649]}},{"type":"Feature","properties":{"osm_id":"9454942293","station_name":"螞蝗梁","element_type":"node","station_id":"9454942293"},"geometry":{"type":"Point","coordinates":[106.521717,29.5729]}},{"type":"Feature","properties":{"osm_id":"9454942291","station_name":"李家坪","element_type":"node","station_id":"9454942291"},"geometry":{"type":"Point","coordinates":[106.51739,29.566835]}},{"type":"Feature","properties":{"osm_id":"9454942290","station_name":"化龍橋","element_type":"node","station_id":"9454942290"},"geometry":{"type":"Point","coordinates":[106.514818,29.552766]}},{"type":"Feature","properties":{"osm_id":"7693384066","station_name":"富華路","element_type":"node","station_id":"7693384066"},"geometry":{"type":"Point","coordinates":[106.499717,29.553732]}},{"type":"Feature","properties":{"osm_id":"9454951118","station_name":"土灣","element_type":"node","station_id":"9454951118"},"geometry":{"type":"Point","coordinates":[106.476537,29.553727]}},{"type":"Feature","properties":{"osm_id":"9459667275","station_name":"小龍坎","element_type":"node","station_id":"9459667275"},"geometry":{"type":"Point","coordinates":[106.465351,29.555677]}},{"type":"Feature","properties":{"osm_id":"9454964988","station_name":"天梨路","element_type":"node","station_id":"9454964988"},"geometry":{"type":"Point","coordinates":[106.446599,29.552497]}},{"type":"Feature","properties":{"osm_id":"9454964989","station_name":"高灘巖","element_type":"node","station_id":"9454964989"},"geometry":{"type":"Point","coordinates":[106.445444,29.541478]}},{"type":"Feature","properties":{"osm_id":"11252183234","station_name":"北碚","element_type":"node","station_id":"11252183234"},"geometry":{"type":"Point","coordinates":[106.433894,29.828262]}},{"type":"Feature","properties":{"osm_id":"11252183251","station_name":"西南大學","element_type":"node","station_id":"6/27"},"geometry":{"type":"Point","coordinates":[106.419697,29.818742]}},{"type":"Feature","properties":{"osm_id":"11252183264","station_name":"狀元碑","element_type":"node","station_id":"11252183264"},"geometry":{"type":"Point","coordinates":[106.394879,29.805687]}},{"type":"Feature","properties":{"osm_id":"11252183285","station_name":"龍鳳溪","element_type":"node","station_id":"11252183285"},"geometry":{"type":"Point","coordinates":[106.399814,29.792084]}},{"type":"Feature","properties":{"osm_id":"11252183401","station_name":"向家崗","element_type":"node","station_id":"6/24"},"geometry":{"type":"Point","coordinates":[106.469449,29.741771]}},{"type":"Feature","properties":{"osm_id":"11252183436","station_name":"蔡家","element_type":"node","station_id":"6/23"},"geometry":{"type":"Point","coordinates":[106.487523,29.738875]}},{"type":"Feature","properties":{"osm_id":"11252183403","station_name":"曹家灣","element_type":"node","station_id":"6/22"},"geometry":{"type":"Point","coordinates":[106.490374,29.723579]}},{"type":"Feature","properties":{"osm_id":"11252183495","station_name":"金山寺","element_type":"node","station_id":"6/21"},"geometry":{"type":"Point","coordinates":[106.488127,29.682255]}},{"type":"Feature","properties":{"osm_id":"11252183524","station_name":"禮嘉","element_type":"node","station_id":"6/20"},"geometry":{"type":"Point","coordinates":[106.484416,29.669567]}},{"type":"Feature","properties":{"osm_id":"11252183527","station_name":"九曲河","element_type":"node","station_id":"6/19"},"geometry":{"type":"Point","coordinates":[106.47895,29.656588]}},{"type":"Feature","properties":{"osm_id":"11252183528","station_name":"康莊","element_type":"node","station_id":"6/18"},"geometry":{"type":"Point","coordinates":[106.475095,29.63751]}},{"type":"Feature","properties":{"osm_id":"11252183529","station_name":"大竹林","element_type":"node","station_id":"6/17"},"geometry":{"type":"Point","coordinates":[106.474443,29.630783]}},{"type":"Feature","properties":{"osm_id":"11252183558","station_name":"光電園","element_type":"node","station_id":"6/16"},"geometry":{"type":"Point","coordinates":[106.495507,29.618698]}},{"type":"Feature","properties":{"osm_id":"11252183609","station_name":"黃泥塝","element_type":"node","station_id":"11252183609"},"geometry":{"type":"Point","coordinates":[106.534433,29.591245]}},{"type":"Feature","properties":{"osm_id":"11252183624","station_name":"紅土地","element_type":"node","station_id":"11252183624"},"geometry":{"type":"Point","coordinates":[106.547248,29.586878]}},{"type":"Feature","properties":{"osm_id":"11250893816","station_name":"大劇院","element_type":"node","station_id":"6/07"},"geometry":{"type":"Point","coordinates":[106.573512,29.571918]}},{"type":"Feature","properties":{"osm_id":"3345481883","station_name":"小什字","element_type":"node","station_id":"6/06"},"geometry":{"type":"Point","coordinates":[106.579579,29.562379]}},{"type":"Feature","properties":{"osm_id":"11250895866","station_name":"劉家坪","element_type":"node","station_id":"6/04"},"geometry":{"type":"Point","coordinates":[106.651989,29.527608]}},{"type":"Feature","properties":{"osm_id":"3345481877","station_name":"長生橋","element_type":"node","station_id":"3345481877"},"geometry":{"type":"Point","coordinates":[106.654197,29.513675]}},{"type":"Feature","properties":{"osm_id":"3345481887","station_name":"邱家灣","element_type":"node","station_id":"6/02"},"geometry":{"type":"Point","coordinates":[106.645873,29.500773]}},{"type":"Feature","properties":{"osm_id":"11252166395","station_name":"王家莊","element_type":"node","station_id":"11252166395"},"geometry":{"type":"Point","coordinates":[106.541825,29.746396]}},{"type":"Feature","properties":{"osm_id":"11252166403","station_name":"悅來","element_type":"node","station_id":"6/33"},"geometry":{"type":"Point","coordinates":[106.544208,29.728564]}},{"type":"Feature","properties":{"osm_id":"13423471373","station_name":"中央公園","element_type":"node","station_id":"13423471373"},"geometry":{"type":"Point","coordinates":[106.579973,29.726514]}},{"type":"Feature","properties":{"osm_id":"13681177066","station_name":"鹿山","element_type":"node","station_id":"13681177066"},"geometry":{"type":"Point","coordinates":[106.603608,29.723392]}},{"type":"Feature","properties":{"osm_id":"13423471378","station_name":"渝北廣場","element_type":"node","station_id":"13423471378"},"geometry":{"type":"Point","coordinates":[106.625201,29.721489]}},{"type":"Feature","properties":{"osm_id":"13363084425","station_name":"江北機場T3航站樓","element_type":"node","station_id":"10/19"},"geometry":{"type":"Point","coordinates":[106.650995,29.710595]}},{"type":"Feature","properties":{"osm_id":"5318659356","station_name":"長河","element_type":"node","station_id":"5318659356"},"geometry":{"type":"Point","coordinates":[106.625719,29.676899]}},{"type":"Feature","properties":{"osm_id":"4892350360","station_name":"環山公園","element_type":"node","station_id":"4892350360"},"geometry":{"type":"Point","coordinates":[106.618425,29.661772]}},{"type":"Feature","properties":{"osm_id":"13724494944","station_name":"三亞灣","element_type":"node","station_id":"13724494944"},"geometry":{"type":"Point","coordinates":[106.580963,29.641127]}},{"type":"Feature","properties":{"osm_id":"5318659382","station_name":"民心佳園","element_type":"node","station_id":"5318659382"},"geometry":{"type":"Point","coordinates":[106.565486,29.630227]}},{"type":"Feature","properties":{"osm_id":"5318659389","station_name":"龍頭寺公園","element_type":"node","station_id":"5318659389"},"geometry":{"type":"Point","coordinates":[106.546947,29.601454]}},{"type":"Feature","properties":{"osm_id":"5186526437","station_name":"曾家巖","element_type":"node","station_id":"2/05"},"geometry":{"type":"Point","coordinates":[106.546373,29.569454]}},{"type":"Feature","properties":{"osm_id":"7007400627","station_name":"大禮堂","element_type":"node","station_id":"7007400627"},"geometry":{"type":"Point","coordinates":[106.552489,29.564392]}},{"type":"Feature","properties":{"osm_id":"10576238023","station_name":"七星崗","element_type":"node","station_id":"10576238023"},"geometry":{"type":"Point","coordinates":[106.558565,29.557525]}},{"type":"Feature","properties":{"osm_id":"8169006376","station_name":"後堡","element_type":"node","station_id":"8169006376"},"geometry":{"type":"Point","coordinates":[106.565496,29.541076]}},{"type":"Feature","properties":{"osm_id":"11193836264","station_name":"萬壽路","element_type":"node","station_id":"11193836264"},"geometry":{"type":"Point","coordinates":[106.558428,29.526088]}},{"type":"Feature","properties":{"osm_id":"11193836268","station_name":"蘭花路","element_type":"node","station_id":"11193836268"},"geometry":{"type":"Point","coordinates":[106.554012,29.506786]}},{"type":"Feature","properties":{"osm_id":"9351362646","station_name":"大江","element_type":"node","station_id":"9351362646"},"geometry":{"type":"Point","coordinates":[106.497245,29.386937]}},{"type":"Feature","properties":{"osm_id":"7289533879","station_name":"白居寺","element_type":"node","station_id":"7289533879"},"geometry":{"type":"Point","coordinates":[106.488492,29.418245]}},{"type":"Feature","properties":{"osm_id":"9228486100","station_name":"劉家壩","element_type":"node","station_id":"9228486100"},"geometry":{"type":"Point","coordinates":[106.478764,29.430265]}},{"type":"Feature","properties":{"osm_id":"7686492307","station_name":"金家灣","element_type":"node","station_id":"7686492307"},"geometry":{"type":"Point","coordinates":[106.471537,29.44052]}},{"type":"Feature","properties":{"osm_id":"9228486103","station_name":"建橋","element_type":"node","station_id":"9228486103"},"geometry":{"type":"Point","coordinates":[106.470812,29.452542]}},{"type":"Feature","properties":{"osm_id":"7941683808","station_name":"天堂堡","element_type":"node","station_id":"2/19"},"geometry":{"type":"Point","coordinates":[106.468293,29.469303]}},{"type":"Feature","properties":{"osm_id":"9351362649","station_name":"新山村","element_type":"node","station_id":"9351362649"},"geometry":{"type":"Point","coordinates":[106.472408,29.474569]}},{"type":"Feature","properties":{"osm_id":"9228486093","station_name":"大渡口","element_type":"node","station_id":"9228486093"},"geometry":{"type":"Point","coordinates":[106.474311,29.484454]}},{"type":"Feature","properties":{"osm_id":"7686492066","station_name":"平安","element_type":"node","station_id":"7686492066"},"geometry":{"type":"Point","coordinates":[106.481084,29.491428]}},{"type":"Feature","properties":{"osm_id":"9228486096","station_name":"馬王場","element_type":"node","station_id":"9228486096"},"geometry":{"type":"Point","coordinates":[106.484932,29.498761]}},{"type":"Feature","properties":{"osm_id":"7686471528","station_name":"大堰村","element_type":"node","station_id":"7686471528"},"geometry":{"type":"Point","coordinates":[106.495314,29.502363]}},{"type":"Feature","properties":{"osm_id":"7617634979","station_name":"動物園","element_type":"node","station_id":"7617634979"},"geometry":{"type":"Point","coordinates":[106.505591,29.502787]}},{"type":"Feature","properties":{"osm_id":"9228486098","station_name":"楊家坪","element_type":"node","station_id":"9228486098"},"geometry":{"type":"Point","coordinates":[106.510915,29.510876]}},{"type":"Feature","properties":{"osm_id":"7619295749","station_name":"袁家崗","element_type":"node","station_id":"7619295749"},"geometry":{"type":"Point","coordinates":[106.509948,29.53158]}},{"type":"Feature","properties":{"osm_id":"10177615109","station_name":"大坪","element_type":"node","station_id":"2/09"},"geometry":{"type":"Point","coordinates":[106.515382,29.543854]}},{"type":"Feature","properties":{"osm_id":"7619295860","station_name":"佛圖關","element_type":"node","station_id":"7619295860"},"geometry":{"type":"Point","coordinates":[106.528615,29.551463]}},{"type":"Feature","properties":{"osm_id":"9351362644","station_name":"李子壩","element_type":"node","station_id":"9351362644"},"geometry":{"type":"Point","coordinates":[106.533921,29.555664]}},{"type":"Feature","properties":{"osm_id":"7691923875","station_name":"大溪溝","element_type":"node","station_id":"2/04"},"geometry":{"type":"Point","coordinates":[106.554815,29.568878]}},{"type":"Feature","properties":{"osm_id":"7691923873","station_name":"黃花園","element_type":"node","station_id":"2/03"},"geometry":{"type":"Point","coordinates":[106.561227,29.566138]}},{"type":"Feature","properties":{"osm_id":"661062521","station_name":"臨江門","element_type":"node","station_id":"2/02"},"geometry":{"type":"Point","coordinates":[106.571166,29.561091]}},{"type":"Feature","properties":{"osm_id":"661062329","station_name":"較場口","element_type":"node","station_id":"2/01"},"geometry":{"type":"Point","coordinates":[106.569312,29.55657]}},{"type":"Feature","properties":{"osm_id":"7096324913","station_name":"璧山","element_type":"node","station_id":"1/25"},"geometry":{"type":"Point","coordinates":[106.22879,29.614783]}},{"type":"Feature","properties":{"osm_id":"9620231631","station_name":"尖頂坡","element_type":"node","station_id":"9620231631"},"geometry":{"type":"Point","coordinates":[106.289227,29.610007]}},{"type":"Feature","properties":{"osm_id":"9620231637","station_name":"大學城","element_type":"node","station_id":"9620231637"},"geometry":{"type":"Point","coordinates":[106.305117,29.610017]}},{"type":"Feature","properties":{"osm_id":"9620231640","station_name":"陳家橋","element_type":"node","station_id":"9620231640"},"geometry":{"type":"Point","coordinates":[106.324644,29.610041]}},{"type":"Feature","properties":{"osm_id":"9620231656","station_name":"微電園","element_type":"node","station_id":"9620231656"},"geometry":{"type":"Point","coordinates":[106.358987,29.612223]}},{"type":"Feature","properties":{"osm_id":"9620231655","station_name":"賴家橋","element_type":"node","station_id":"9620231655"},"geometry":{"type":"Point","coordinates":[106.377458,29.612778]}},{"type":"Feature","properties":{"osm_id":"9689749194","station_name":"雙碑","element_type":"node","station_id":"9689749194"},"geometry":{"type":"Point","coordinates":[106.440404,29.608283]}},{"type":"Feature","properties":{"osm_id":"9689749195","station_name":"石井坡","element_type":"node","station_id":"9689749195"},"geometry":{"type":"Point","coordinates":[106.440291,29.591983]}},{"type":"Feature","properties":{"osm_id":"9689749196","station_name":"磁器口","element_type":"node","station_id":"9689749196"},"geometry":{"type":"Point","coordinates":[106.44242,29.579275]}},{"type":"Feature","properties":{"osm_id":"9932850022","station_name":"烈士墓","element_type":"node","station_id":"9932850022"},"geometry":{"type":"Point","coordinates":[106.441349,29.570257]}},{"type":"Feature","properties":{"osm_id":"9932839911","station_name":"楊公橋","element_type":"node","station_id":"9932839911"},"geometry":{"type":"Point","coordinates":[106.446452,29.564295]}},{"type":"Feature","properties":{"osm_id":"1855149609","station_name":"馬家巖","element_type":"node","station_id":"1855149609"},"geometry":{"type":"Point","coordinates":[106.46434,29.547595]}},{"type":"Feature","properties":{"osm_id":"1855149601","station_name":"高廟村","element_type":"node","station_id":"1855149601"},"geometry":{"type":"Point","coordinates":[106.465792,29.538737]}},{"type":"Feature","properties":{"osm_id":"1854002079","station_name":"石油路","element_type":"node","station_id":"1854002079"},"geometry":{"type":"Point","coordinates":[106.504382,29.540988]}},{"type":"Feature","properties":{"osm_id":"9948486859","station_name":"朝天門","element_type":"node","station_id":"9948486859"},"geometry":{"type":"Point","coordinates":[106.582541,29.567277]}},{"type":"Feature","properties":{"osm_id":"10828329837","station_name":"跳磴南","element_type":"node","station_id":"10828329837"},"geometry":{"type":"Point","coordinates":[106.431165,29.396377]}},{"type":"Feature","properties":{"osm_id":"10729743577","station_name":"金鰲山","element_type":"node","station_id":"10729743577"},"geometry":{"type":"Point","coordinates":[106.455094,29.417583]}},{"type":"Feature","properties":{"osm_id":"10729743579","station_name":"伏牛溪","element_type":"node","station_id":"10729743579"},"geometry":{"type":"Point","coordinates":[106.477151,29.418418]}},{"type":"Feature","properties":{"osm_id":"10828329821","station_name":"茄子溪","element_type":"node","station_id":"10828329821"},"geometry":{"type":"Point","coordinates":[106.500317,29.426871]}},{"type":"Feature","properties":{"osm_id":"10828329842","station_name":"巴濱路溼地公園","element_type":"node","station_id":"10828329842"},"geometry":{"type":"Point","coordinates":[106.513866,29.435626]}},{"type":"Feature","properties":{"osm_id":"10828329854","station_name":"花溪工業園","element_type":"node","station_id":"10828329854"},"geometry":{"type":"Point","coordinates":[106.513111,29.451039]}},{"type":"Feature","properties":{"osm_id":"10828329874","station_name":"重慶理工大學","element_type":"node","station_id":"10828329874"},"geometry":{"type":"Point","coordinates":[106.517031,29.463329]}},{"type":"Feature","properties":{"osm_id":"10828329890","station_name":"李家沱大橋","element_type":"node","station_id":"10828329890"},"geometry":{"type":"Point","coordinates":[106.523984,29.471617]}},{"type":"Feature","properties":{"osm_id":"10829131130","station_name":"電廠","element_type":"node","station_id":"10829131130"},"geometry":{"type":"Point","coordinates":[106.53424,29.485541]}},{"type":"Feature","properties":{"osm_id":"11193733876","station_name":"四川美術學院","element_type":"node","station_id":"11193733876"},"geometry":{"type":"Point","coordinates":[106.539437,29.491206]}},{"type":"Feature","properties":{"osm_id":"11193730628","station_name":"黃桷坪","element_type":"node","station_id":"11193730628"},"geometry":{"type":"Point","coordinates":[106.532995,29.498985]}},{"type":"Feature","properties":{"osm_id":"11193733881","station_name":"灘子口","element_type":"node","station_id":"11193733881"},"geometry":{"type":"Point","coordinates":[106.523105,29.502258]}},{"type":"Feature","properties":{"osm_id":"11193733888","station_name":"石坪橋","element_type":"node","station_id":"11193733888"},"geometry":{"type":"Point","coordinates":[106.50244,29.518407]}},{"type":"Feature","properties":{"osm_id":"8769874756","station_name":"科創小鎮","element_type":"node","station_id":"8769874756"},"geometry":{"type":"Point","coordinates":[106.216459,29.614104]}},{"type":"Feature","properties":{"osm_id":"8090558735","station_name":"景山路","element_type":"node","station_id":"8090558735"},"geometry":{"type":"Point","coordinates":[106.214858,29.608506]}},{"type":"Feature","properties":{"osm_id":"8659188066","station_name":"千層巖","element_type":"node","station_id":"8659188066"},"geometry":{"type":"Point","coordinates":[106.211678,29.599656]}},{"type":"Feature","properties":{"osm_id":"8090558739","station_name":"秀湖公園","element_type":"node","station_id":"8090558739"},"geometry":{"type":"Point","coordinates":[106.207511,29.590458]}},{"type":"Feature","properties":{"osm_id":"8090558740","station_name":"秀水灣","element_type":"node","station_id":"8090558740"},"geometry":{"type":"Point","coordinates":[106.206019,29.578538]}},{"type":"Feature","properties":{"osm_id":"8090558742","station_name":"東嶽公園","element_type":"node","station_id":"8090558742"},"geometry":{"type":"Point","coordinates":[106.202025,29.570586]}},{"type":"Feature","properties":{"osm_id":"8090558744","station_name":"兒童公園","element_type":"node","station_id":"8090558744"},"geometry":{"type":"Point","coordinates":[106.202336,29.558481]}},{"type":"Feature","properties":{"osm_id":"8090558750","station_name":"聚金大道","element_type":"node","station_id":"8090558750"},"geometry":{"type":"Point","coordinates":[106.1998,29.543594]}},{"type":"Feature","properties":{"osm_id":"8090558754","station_name":"雙魚","element_type":"node","station_id":"8090558754"},"geometry":{"type":"Point","coordinates":[106.196456,29.534555]}},{"type":"Feature","properties":{"osm_id":"8090558755","station_name":"蓮花湖","element_type":"node","station_id":"8090558755"},"geometry":{"type":"Point","coordinates":[106.196401,29.525957]}},{"type":"Feature","properties":{"osm_id":"8090558762","station_name":"劉家嘴","element_type":"node","station_id":"8090558762"},"geometry":{"type":"Point","coordinates":[106.199068,29.51955]}},{"type":"Feature","properties":{"osm_id":"8090558761","station_name":"高觀音","element_type":"node","station_id":"8090558761"},"geometry":{"type":"Point","coordinates":[106.204691,29.513498]}},{"type":"Feature","properties":{"osm_id":"8763838924","station_name":"沙坡","element_type":"node","station_id":"8763838924"},"geometry":{"type":"Point","coordinates":[106.211731,29.504026]}},{"type":"Feature","properties":{"osm_id":"8763838939","station_name":"成渝高鐵站","element_type":"node","station_id":"8763838939"},"geometry":{"type":"Point","coordinates":[106.218378,29.506927]}},{"type":"Feature","properties":{"osm_id":"11252183176","station_name":"歡樂谷","element_type":"node","station_id":"6/29"},"geometry":{"type":"Point","coordinates":[106.504665,29.67174]}},{"type":"Feature","properties":{"osm_id":"2352149649","station_name":"黃茅坪","element_type":"node","station_id":"6/30"},"geometry":{"type":"Point","coordinates":[106.527616,29.678871]}},{"type":"Feature","properties":{"osm_id":"11252183172","station_name":"高義口","element_type":"node","station_id":"6/31"},"geometry":{"type":"Point","coordinates":[106.524074,29.70557]}},{"type":"Feature","properties":{"osm_id":"2640842008","station_name":"國博中心","element_type":"node","station_id":"6/32"},"geometry":{"type":"Point","coordinates":[106.541627,29.719413]}},{"type":"Feature","properties":{"osm_id":"8867330339","station_name":"清溪河","element_type":"node","station_id":"8867330339"},"geometry":{"type":"Point","coordinates":[106.544065,29.766615]}},{"type":"Feature","properties":{"osm_id":"8867330341","station_name":"劉家院子","element_type":"node","station_id":"8867330341"},"geometry":{"type":"Point","coordinates":[106.550626,29.784431]}},{"type":"Feature","properties":{"osm_id":"8867330342","station_name":"思源","element_type":"node","station_id":"8867330342"},"geometry":{"type":"Point","coordinates":[106.545522,29.809652]}},{"type":"Feature","properties":{"osm_id":"8867330343","station_name":"復興","element_type":"node","station_id":"8867330343"},"geometry":{"type":"Point","coordinates":[106.546335,29.82484]}},{"type":"Feature","properties":{"osm_id":"8867330344","station_name":"紅巖坪","element_type":"node","station_id":"8867330344"},"geometry":{"type":"Point","coordinates":[106.545582,29.835901]}},{"type":"Feature","properties":{"osm_id":"8867330345","station_name":"沙河壩","element_type":"node","station_id":"8867330345"},"geometry":{"type":"Point","coordinates":[106.552647,29.846946]}},{"type":"Feature","properties":{"osm_id":"10712233869","station_name":"銅梁西","element_type":"node","station_id":"BT09"},"geometry":{"type":"Point","coordinates":[106.041892,29.82806]}},{"type":"Feature","properties":{"osm_id":"10712233867","station_name":"銅梁龍城天街","element_type":"node","station_id":"BT08"},"geometry":{"type":"Point","coordinates":[106.07525,29.833834]}},{"type":"Feature","properties":{"osm_id":"10712233872","station_name":"科創新城","element_type":"node","station_id":"BT07"},"geometry":{"type":"Point","coordinates":[106.104195,29.818571]}},{"type":"Feature","properties":{"osm_id":"10712233876","station_name":"慶隆","element_type":"node","station_id":"BT06"},"geometry":{"type":"Point","coordinates":[106.145702,29.792052]}},{"type":"Feature","properties":{"osm_id":"10712233897","station_name":"大路","element_type":"node","station_id":"10712233897"},"geometry":{"type":"Point","coordinates":[106.215694,29.725521]}},{"type":"Feature","properties":{"osm_id":"10712233914","station_name":"青龍湖","element_type":"node","station_id":"BT/04"},"geometry":{"type":"Point","coordinates":[106.20733,29.704428]}},{"type":"Feature","properties":{"osm_id":"10712233939","station_name":"河邊","element_type":"node","station_id":"10712233939"},"geometry":{"type":"Point","coordinates":[106.206616,29.653967]}},{"type":"Feature","properties":{"osm_id":"10712233943","station_name":"璧城","element_type":"node","station_id":"BT02"},"geometry":{"type":"Point","coordinates":[106.217574,29.627358]}},{"type":"Feature","properties":{"osm_id":"10176419031","station_name":"舉人壩","element_type":"node","station_id":"3/45"},"geometry":{"type":"Point","coordinates":[106.663714,29.794125]}},{"type":"Feature","properties":{"osm_id":"10176418960","station_name":"蓮花","element_type":"node","station_id":"3/44"},"geometry":{"type":"Point","coordinates":[106.652147,29.788313]}},{"type":"Feature","properties":{"osm_id":"10176418919","station_name":"觀月路","element_type":"node","station_id":"10176418919"},"geometry":{"type":"Point","coordinates":[106.648994,29.777773]}},{"type":"Feature","properties":{"osm_id":"10176418917","station_name":"高堡湖","element_type":"node","station_id":"10176418917"},"geometry":{"type":"Point","coordinates":[106.639281,29.754745]}},{"type":"Feature","properties":{"osm_id":"10176373515","station_name":"空港廣場","element_type":"node","station_id":"10176373515"},"geometry":{"type":"Point","coordinates":[106.630061,29.739237]}},{"type":"Feature","properties":{"osm_id":"10176373512","station_name":"雙鳳橋","element_type":"node","station_id":"10176373512"},"geometry":{"type":"Point","coordinates":[106.628811,29.731777]}},{"type":"Feature","properties":{"osm_id":"9929861033","station_name":"石林寺","element_type":"node","station_id":"9929861033"},"geometry":{"type":"Point","coordinates":[106.426105,29.40689]}},{"type":"Feature","properties":{"osm_id":"9929905046","station_name":"九龍園","element_type":"node","station_id":"9929905046"},"geometry":{"type":"Point","coordinates":[106.350883,29.401776]}},{"type":"Feature","properties":{"osm_id":"9929915841","station_name":"雙福","element_type":"node","station_id":"9929915841"},"geometry":{"type":"Point","coordinates":[106.308405,29.401366]}},{"type":"Feature","properties":{"osm_id":"9929915862","station_name":"享堂","element_type":"node","station_id":"9929915862"},"geometry":{"type":"Point","coordinates":[106.257922,29.384379]}},{"type":"Feature","properties":{"osm_id":"9929950759","station_name":"江津高鐵","element_type":"node","station_id":"9929950759"},"geometry":{"type":"Point","coordinates":[106.253075,29.345518]}},{"type":"Feature","properties":{"osm_id":"6875047389","station_name":"聖泉寺","element_type":"node","station_id":"6875047389"},"geometry":{"type":"Point","coordinates":[106.255885,29.310424]}},{"type":"Feature","properties":{"osm_id":"11368943513","station_name":"重慶東站","element_type":"node","station_id":"11368943513"},"geometry":{"type":"Point","coordinates":[106.668513,29.487172]}},{"type":"Feature","properties":{"osm_id":"11368943456","station_name":"桃花橋","element_type":"node","station_id":"11368943456"},"geometry":{"type":"Point","coordinates":[106.658269,29.506579]}},{"type":"Feature","properties":{"osm_id":"11368943451","station_name":"百樂園","element_type":"node","station_id":"11368943451"},"geometry":{"type":"Point","coordinates":[106.662577,29.517296]}},{"type":"Feature","properties":{"route_company":"重慶軌道交通運營有限公司","route_id":"3","element_type":"way","color":"#003da5","route_name":"重慶軌道交通3號線：魚洞 → 江北機場T2航站樓","osm_id":"2341149","railway":"monorail","status":"open"},"geometry":{"type":"LineString","coordinates":[[106.50202,29.378784],[106.520104,29.378399],[106.535407,29.380596],[106.539321,29.400908],[106.539899,29.415761],[106.54659,29.43508],[106.55086,29.451506],[106.555402,29.461386],[106.558915,29.469719],[106.562195,29.481015],[106.569104,29.491433],[106.569661,29.50053],[106.570156,29.510163],[106.573203,29.520153]]}},{"type":"Feature","properties":{"route_company":"重慶軌道交通運營有限公司","route_id":"3","element_type":"way","color":"#003da5","route_name":"重慶軌道交通3號線：魚洞 → 江北機場T2航站樓","osm_id":"2341149","railway":"monorail","status":"open"},"geometry":{"type":"LineString","coordinates":[[106.573203,29.520153],[106.566043,29.52974]]}},{"type":"Feature","properties":{"route_company":"重慶軌道交通運營有限公司","route_id":"3","element_type":"way","color":"#003da5","route_name":"重慶軌道交通3號線：魚洞 → 江北機場T2航站樓","osm_id":"2341149","railway":"monorail","status":"open"},"geometry":{"type":"LineString","coordinates":[[106.566043,29.52974],[106.559603,29.534481],[106.54777,29.540003],[106.545088,29.555661]]}},{"type":"Feature","properties":{"route_company":"重慶軌道交通運營有限公司","route_id":"3","element_type":"way","color":"#003da5","route_name":"重慶軌道交通3號線：魚洞 → 江北機場T2航站樓","osm_id":"2341149","railway":"monorail","status":"open"},"geometry":{"type":"LineString","coordinates":[[106.545088,29.555661],[106.538816,29.562681]]}},{"type":"Feature","properties":{"route_company":"重慶軌道交通運營有限公司","route_id":"3","element_type":"way","color":"#003da5","route_name":"重慶軌道交通3號線：魚洞 → 江北機場T2航站樓","osm_id":"2341149","railway":"monorail","status":"open"},"geometry":{"type":"LineString","coordinates":[[106.538816,29.562681],[106.533422,29.566727],[106.530047,29.575991]]}},{"type":"Feature","properties":{"route_company":"重慶軌道交通運營有限公司","route_id":"3","element_type":"way","color":"#003da5","route_name":"重慶軌道交通3號線：魚洞 → 江北機場T2航站樓","osm_id":"2341149","railway":"monorail","status":"open"},"geometry":{"type":"LineString","coordinates":[[106.530047,29.575991],[106.522483,29.588025]]}},{"type":"Feature","properties":{"route_company":"重慶軌道交通運營有限公司","route_id":"3","element_type":"way","color":"#003da5","route_name":"重慶軌道交通3號線：魚洞 → 江北機場T2航站樓","osm_id":"2341149","railway":"monorail","status":"open"},"geometry":{"type":"LineString","coordinates":[[106.522483,29.588025],[106.517568,29.599333]]}},{"type":"Feature","properties":{"route_company":"重慶軌道交通運營有限公司","route_id":"3","element_type":"way","color":"#003da5","route_name":"重慶軌道交通3號線：魚洞 → 江北機場T2航站樓","osm_id":"2341149","railway":"monorail","status":"open"},"geometry":{"type":"LineString","coordinates":[[106.517568,29.599333],[106.526241,29.602256],[106.536922,29.601993],[106.545424,29.604089],[106.546284,29.609685]]}},{"type":"Feature","properties":{"route_company":"重慶軌道交通運營有限公司","route_id":"3","element_type":"way","color":"#003da5","route_name":"重慶軌道交通3號線：魚洞 → 江北機場T2航站樓","osm_id":"2341149","railway":"monorail","status":"open"},"geometry":{"type":"LineString","coordinates":[[106.546284,29.609685],[106.545966,29.619671],[106.551504,29.631254],[106.566977,29.638205],[106.563722,29.646163],[106.556498,29.664165],[106.560073,29.677435],[106.569003,29.688691],[106.585039,29.690408],[106.60214,29.693202],[106.615175,29.70078],[106.628797,29.71393],[106.633887,29.720602]]}},{"type":"Feature","properties":{"route_company":"重慶軌道交通運營有限公司","route_id":"环","element_type":"way","color":"#f2a900","route_name":"重慶軌道交通環線：順時針","osm_id":"7662492","railway":"subway","status":"open"},"geometry":{"type":"LineString","coordinates":[[106.435499,29.502721],[106.438442,29.520342],[106.444593,29.52684],[106.45167,29.534815],[106.454938,29.544413],[106.456081,29.558271]]}},{"type":"Feature","properties":{"route_company":"重慶軌道交通運營有限公司","route_id":"环","element_type":"way","color":"#f2a900","route_name":"重慶軌道交通環線：順時針","osm_id":"7662492","railway":"subway","status":"open"},"geometry":{"type":"LineString","coordinates":[[106.456081,29.558271],[106.459611,29.56996],[106.472097,29.583408]]}},{"type":"Feature","properties":{"route_company":"重慶軌道交通運營有限公司","route_id":"环","element_type":"way","color":"#f2a900","route_name":"重慶軌道交通環線：順時針","osm_id":"7662492","railway":"subway","status":"open"},"geometry":{"type":"LineString","coordinates":[[106.472097,29.583408],[106.478426,29.592919],[106.48329,29.601264],[106.495037,29.601302]]}},{"type":"Feature","properties":{"route_company":"重慶軌道交通運營有限公司","route_id":"环","element_type":"way","color":"#f2a900","route_name":"重慶軌道交通環線：順時針","osm_id":"7662492","railway":"subway","status":"open"},"geometry":{"type":"LineString","coordinates":[[106.495037,29.601302],[106.501352,29.606588],[106.508481,29.610419],[106.524638,29.611458]]}},{"type":"Feature","properties":{"route_company":"重慶軌道交通運營有限公司","route_id":"环","element_type":"way","color":"#f2a900","route_name":"重慶軌道交通環線：順時針","osm_id":"7662492","railway":"subway","status":"open"},"geometry":{"type":"LineString","coordinates":[[106.524638,29.611458],[106.546284,29.609685]]}},{"type":"Feature","properties":{"route_company":"重慶軌道交通運營有限公司","route_id":"环","element_type":"way","color":"#f2a900","route_name":"重慶軌道交通環線：順時針","osm_id":"7662492","railway":"subway","status":"open"},"geometry":{"type":"LineString","coordinates":[[106.546284,29.609685],[106.556059,29.598111],[106.562791,29.588274]]}},{"type":"Feature","properties":{"route_company":"重慶軌道交通運營有限公司","route_id":"环","element_type":"way","color":"#f2a900","route_name":"重慶軌道交通環線：順時針","osm_id":"7662492","railway":"subway","status":"open"},"geometry":{"type":"LineString","coordinates":[[106.562791,29.588274],[106.588538,29.588743],[106.596421,29.57903],[106.595714,29.56797],[106.593432,29.559015]]}},{"type":"Feature","properties":{"route_company":"重慶軌道交通運營有限公司","route_id":"环","element_type":"way","color":"#f2a900","route_name":"重慶軌道交通環線：順時針","osm_id":"7662492","railway":"subway","status":"open"},"geometry":{"type":"LineString","coordinates":[[106.593432,29.559015],[106.59037,29.549519],[106.583417,29.537476],[106.579269,29.529143],[106.573203,29.520153]]}},{"type":"Feature","properties":{"route_company":"重慶軌道交通運營有限公司","route_id":"环","element_type":"way","color":"#f2a900","route_name":"重慶軌道交通環線：順時針","osm_id":"7662492","railway":"subway","status":"open"},"geometry":{"type":"LineString","coordinates":[[106.573203,29.520153],[106.553121,29.518871]]}},{"type":"Feature","properties":{"route_company":"重慶軌道交通運營有限公司","route_id":"环","element_type":"way","color":"#f2a900","route_name":"重慶軌道交通環線：順時針","osm_id":"7662492","railway":"subway","status":"open"},"geometry":{"type":"LineString","coordinates":[[106.553121,29.518871],[106.542523,29.521262],[106.514674,29.52244]]}},{"type":"Feature","properties":{"route_company":"重慶軌道交通運營有限公司","route_id":"环","element_type":"way","color":"#f2a900","route_name":"重慶軌道交通環線：順時針","osm_id":"7662492","railway":"subway","status":"open"},"geometry":{"type":"LineString","coordinates":[[106.514674,29.52244],[106.497763,29.52697]]}},{"type":"Feature","properties":{"route_company":"重慶軌道交通運營有限公司","route_id":"环","element_type":"way","color":"#f2a900","route_name":"重慶軌道交通環線：順時針","osm_id":"7662492","railway":"subway","status":"open"},"geometry":{"type":"LineString","coordinates":[[106.497763,29.52697],[106.485388,29.526472],[106.467667,29.518472],[106.458263,29.507753],[106.448864,29.498223]]}},{"type":"Feature","properties":{"route_company":"重慶軌道交通運營有限公司","route_id":"5","element_type":"way","color":"#00a3e0","route_name":"重慶軌道交通5號線：跳磴 → 悅港北路","osm_id":"7676337","railway":"subway","status":"open"},"geometry":{"type":"LineString","coordinates":[[106.43398,29.410793],[106.43639,29.43172],[106.438066,29.445157],[106.442023,29.461875],[106.446442,29.475589],[106.449441,29.482841],[106.44091,29.496797],[106.435499,29.502721]]}},{"type":"Feature","properties":{"route_company":"重慶軌道交通運營有限公司","route_id":"5","element_type":"way","color":"#00a3e0","route_name":"重慶軌道交通5號線：跳磴 → 悅港北路","osm_id":"7676337","railway":"subway","status":"open"},"geometry":{"type":"LineString","coordinates":[[106.435499,29.502721],[106.450152,29.516265],[106.465699,29.523223],[106.473836,29.528381],[106.481209,29.535436]]}},{"type":"Feature","properties":{"route_company":"重慶軌道交通運營有限公司","route_id":"5","element_type":"way","color":"#00a3e0","route_name":"重慶軌道交通5號線：跳磴 → 悅港北路","osm_id":"7676337","railway":"subway","status":"open"},"geometry":{"type":"LineString","coordinates":[[106.481209,29.535436],[106.494845,29.539765]]}},{"type":"Feature","properties":{"route_company":"重慶軌道交通運營有限公司","route_id":"5","element_type":"way","color":"#00a3e0","route_name":"重慶軌道交通5號線：跳磴 → 悅港北路","osm_id":"7676337","railway":"subway","status":"open"},"geometry":{"type":"LineString","coordinates":[[106.494845,29.539765],[106.490022,29.553389]]}},{"type":"Feature","properties":{"route_company":"重慶軌道交通運營有限公司","route_id":"5","element_type":"way","color":"#00a3e0","route_name":"重慶軌道交通5號線：跳磴 → 悅港北路","osm_id":"7676337","railway":"subway","status":"open"},"geometry":{"type":"LineString","coordinates":[[106.490022,29.553389],[106.490092,29.565633],[106.492095,29.573872]]}},{"type":"Feature","properties":{"route_company":"重慶軌道交通運營有限公司","route_id":"5","element_type":"way","color":"#00a3e0","route_name":"重慶軌道交通5號線：跳磴 → 悅港北路","osm_id":"7676337","railway":"subway","status":"open"},"geometry":{"type":"LineString","coordinates":[[106.492095,29.573872],[106.494908,29.592372]]}},{"type":"Feature","properties":{"route_company":"重慶軌道交通運營有限公司","route_id":"5","element_type":"way","color":"#00a3e0","route_name":"重慶軌道交通5號線：跳磴 → 悅港北路","osm_id":"7676337","railway":"subway","status":"open"},"geometry":{"type":"LineString","coordinates":[[106.494908,29.592372],[106.495037,29.601302]]}},{"type":"Feature","properties":{"route_company":"重慶軌道交通運營有限公司","route_id":"5","element_type":"way","color":"#00a3e0","route_name":"重慶軌道交通5號線：跳磴 → 悅港北路","osm_id":"7676337","railway":"subway","status":"open"},"geometry":{"type":"LineString","coordinates":[[106.495037,29.601302],[106.504592,29.619286],[106.518461,29.62598],[106.529656,29.632424],[106.526563,29.651637],[106.534733,29.662496],[106.547317,29.669697],[106.556792,29.678519],[106.565582,29.696987],[106.565438,29.705756],[106.567335,29.713852],[106.568718,29.725912]]}},{"type":"Feature","properties":{"route_company":"重慶軌道交通運營有限公司","route_id":"5","element_type":"way","color":"#00a3e0","route_name":"重慶軌道交通5號線：跳磴 → 悅港北路","osm_id":"7676337","railway":"subway","status":"open"},"geometry":{"type":"LineString","coordinates":[[106.568718,29.725912],[106.567059,29.736699],[106.565608,29.747493],[106.565815,29.755936]]}},{"type":"Feature","properties":{"route_company":"重慶軌道四號線建設運營有限公司","route_id":"4","element_type":"way","color":"#dc8633","route_name":"重慶軌道交通4號線：石馬河立交→ 黃嶺","osm_id":"7677819","railway":"subway","status":"open"},"geometry":{"type":"LineString","coordinates":[[106.46606,29.587671],[106.472097,29.583408]]}},{"type":"Feature","properties":{"route_company":"重慶軌道四號線建設運營有限公司","route_id":"4","element_type":"way","color":"#dc8633","route_name":"重慶軌道交通4號線：石馬河立交→ 黃嶺","osm_id":"7677819","railway":"subway","status":"open"},"geometry":{"type":"LineString","coordinates":[[106.472097,29.583408],[106.47948,29.578123],[106.492095,29.573872]]}},{"type":"Feature","properties":{"route_company":"重慶軌道四號線建設運營有限公司","route_id":"4","element_type":"way","color":"#dc8633","route_name":"重慶軌道交通4號線：石馬河立交→ 黃嶺","osm_id":"7677819","railway":"subway","status":"open"},"geometry":{"type":"LineString","coordinates":[[106.492095,29.573872],[106.500301,29.579058],[106.509221,29.585471]]}},{"type":"Feature","properties":{"route_company":"重慶軌道四號線建設運營有限公司","route_id":"4","element_type":"way","color":"#dc8633","route_name":"重慶軌道交通4號線：石馬河立交→ 黃嶺","osm_id":"7677819","railway":"subway","status":"open"},"geometry":{"type":"LineString","coordinates":[[106.509221,29.585471],[106.512582,29.592102],[106.517568,29.599333]]}},{"type":"Feature","properties":{"route_company":"重慶軌道四號線建設運營有限公司","route_id":"4","element_type":"way","color":"#dc8633","route_name":"重慶軌道交通4號線：石馬河立交→ 黃嶺","osm_id":"7677819","railway":"subway","status":"open"},"geometry":{"type":"LineString","coordinates":[[106.517568,29.599333],[106.524638,29.611458]]}},{"type":"Feature","properties":{"route_company":"重慶軌道四號線建設運營有限公司","route_id":"4","element_type":"way","color":"#dc8633","route_name":"重慶軌道交通4號線：石馬河立交→ 黃嶺","osm_id":"7677819","railway":"subway","status":"open"},"geometry":{"type":"LineString","coordinates":[[106.524638,29.611458],[106.547429,29.614836]]}},{"type":"Feature","properties":{"route_company":"重慶軌道四號線建設運營有限公司","route_id":"4","element_type":"way","color":"#dc8633","route_name":"重慶軌道交通4號線：石馬河立交→ 黃嶺","osm_id":"7677819","railway":"subway","status":"open"},"geometry":{"type":"LineString","coordinates":[[106.547429,29.614836],[106.570052,29.610995]]}},{"type":"Feature","properties":{"route_company":"重慶軌道四號線建設運營有限公司","route_id":"4","element_type":"way","color":"#dc8633","route_name":"重慶軌道交通4號線：石馬河立交→ 黃嶺","osm_id":"7677819","railway":"subway","status":"open"},"geometry":{"type":"LineString","coordinates":[[106.570052,29.610995],[106.579952,29.619479]]}},{"type":"Feature","properties":{"route_company":"重慶軌道四號線建設運營有限公司","route_id":"4","element_type":"way","color":"#dc8633","route_name":"重慶軌道交通4號線：石馬河立交→ 黃嶺","osm_id":"7677819","railway":"subway","status":"open"},"geometry":{"type":"LineString","coordinates":[[106.579952,29.619479],[106.602357,29.624634],[106.617479,29.627569],[106.628426,29.622611],[106.637828,29.608625],[106.655585,29.608185],[106.665676,29.616729],[106.712337,29.603288],[106.734875,29.612409],[106.758241,29.625892],[106.772123,29.629684],[106.795634,29.64094],[106.796401,29.658764],[106.793772,29.670325],[106.789876,29.69206],[106.797908,29.704152],[106.798968,29.713889],[106.799839,29.731036],[106.811272,29.744646],[106.829712,29.76222],[106.837405,29.774674]]}},{"type":"Feature","properties":{"route_company":"重慶軌道交通運營有限公司","route_id":"9","element_type":"way","color":"#862041","route_name":"重慶軌道交通9號線：花石溝 → 高灘巖","osm_id":"14004562","railway":"subway","status":"open"},"geometry":{"type":"LineString","coordinates":[[106.586356,29.75538],[106.581359,29.747396],[106.58929,29.726653]]}},{"type":"Feature","properties":{"route_company":"重慶軌道交通運營有限公司","route_id":"9","element_type":"way","color":"#862041","route_name":"重慶軌道交通9號線：花石溝 → 高灘巖","osm_id":"14004562","railway":"subway","status":"open"},"geometry":{"type":"LineString","coordinates":[[106.58929,29.726653],[106.592956,29.717226],[106.596049,29.709513],[106.599697,29.69044],[106.605493,29.681013],[106.61315,29.664401],[106.605708,29.652843]]}},{"type":"Feature","properties":{"route_company":"重慶軌道交通運營有限公司","route_id":"9","element_type":"way","color":"#862041","route_name":"重慶軌道交通9號線：花石溝 → 高灘巖","osm_id":"14004562","railway":"subway","status":"open"},"geometry":{"type":"LineString","coordinates":[[106.605708,29.652843],[106.59384,29.641655],[106.592443,29.627754],[106.579952,29.619479]]}},{"type":"Feature","properties":{"route_company":"重慶軌道交通運營有限公司","route_id":"9","element_type":"way","color":"#862041","route_name":"重慶軌道交通9號線：花石溝 → 高灘巖","osm_id":"14004562","railway":"subway","status":"open"},"geometry":{"type":"LineString","coordinates":[[106.579952,29.619479],[106.570052,29.610995]]}},{"type":"Feature","properties":{"route_company":"重慶軌道交通運營有限公司","route_id":"9","element_type":"way","color":"#862041","route_name":"重慶軌道交通9號線：花石溝 → 高灘巖","osm_id":"14004562","railway":"subway","status":"open"},"geometry":{"type":"LineString","coordinates":[[106.570052,29.610995],[106.567795,29.597147],[106.562791,29.588274]]}},{"type":"Feature","properties":{"route_company":"重慶軌道交通運營有限公司","route_id":"9","element_type":"way","color":"#862041","route_name":"重慶軌道交通9號線：花石溝 → 高灘巖","osm_id":"14004562","railway":"subway","status":"open"},"geometry":{"type":"LineString","coordinates":[[106.562791,29.588274],[106.568355,29.578745]]}},{"type":"Feature","properties":{"route_company":"重慶軌道交通運營有限公司","route_id":"9","element_type":"way","color":"#862041","route_name":"重慶軌道交通9號線：花石溝 → 高灘巖","osm_id":"14004562","railway":"subway","status":"open"},"geometry":{"type":"LineString","coordinates":[[106.568355,29.578745],[106.560285,29.575678],[106.547137,29.57649]]}},{"type":"Feature","properties":{"route_company":"重慶軌道交通運營有限公司","route_id":"9","element_type":"way","color":"#862041","route_name":"重慶軌道交通9號線：花石溝 → 高灘巖","osm_id":"14004562","railway":"subway","status":"open"},"geometry":{"type":"LineString","coordinates":[[106.547137,29.57649],[106.530047,29.575991]]}},{"type":"Feature","properties":{"route_company":"重慶軌道交通運營有限公司","route_id":"9","element_type":"way","color":"#862041","route_name":"重慶軌道交通9號線：花石溝 → 高灘巖","osm_id":"14004562","railway":"subway","status":"open"},"geometry":{"type":"LineString","coordinates":[[106.530047,29.575991],[106.521717,29.5729],[106.51739,29.566835],[106.514818,29.552766],[106.499717,29.553732]]}},{"type":"Feature","properties":{"route_company":"重慶軌道交通運營有限公司","route_id":"9","element_type":"way","color":"#862041","route_name":"重慶軌道交通9號線：花石溝 → 高灘巖","osm_id":"14004562","railway":"subway","status":"open"},"geometry":{"type":"LineString","coordinates":[[106.499717,29.553732],[106.490022,29.553389]]}},{"type":"Feature","properties":{"route_company":"重慶軌道交通運營有限公司","route_id":"9","element_type":"way","color":"#862041","route_name":"重慶軌道交通9號線：花石溝 → 高灘巖","osm_id":"14004562","railway":"subway","status":"open"},"geometry":{"type":"LineString","coordinates":[[106.490022,29.553389],[106.476537,29.553727],[106.465351,29.555677]]}},{"type":"Feature","properties":{"route_company":"重慶軌道交通運營有限公司","route_id":"9","element_type":"way","color":"#862041","route_name":"重慶軌道交通9號線：花石溝 → 高灘巖","osm_id":"14004562","railway":"subway","status":"open"},"geometry":{"type":"LineString","coordinates":[[106.465351,29.555677],[106.456081,29.558271]]}},{"type":"Feature","properties":{"route_company":"重慶軌道交通運營有限公司","route_id":"9","element_type":"way","color":"#862041","route_name":"重慶軌道交通9號線：花石溝 → 高灘巖","osm_id":"14004562","railway":"subway","status":"open"},"geometry":{"type":"LineString","coordinates":[[106.456081,29.558271],[106.446599,29.552497],[106.445444,29.541478]]}},{"type":"Feature","properties":{"route_company":"重慶軌道交通運營有限公司","route_id":"6","element_type":"way","color":"#f67599","route_name":"重慶軌道交通6號線：北碚 → 茶園","osm_id":"2768660","railway":"subway","status":"open"},"geometry":{"type":"LineString","coordinates":[[106.433894,29.828262],[106.419697,29.818742],[106.394879,29.805687],[106.399814,29.792084],[106.469449,29.741771],[106.487523,29.738875],[106.490374,29.723579],[106.488127,29.682255],[106.484416,29.669567],[106.47895,29.656588],[106.475095,29.63751],[106.474443,29.630783],[106.495507,29.618698],[106.495037,29.601302]]}},{"type":"Feature","properties":{"route_company":"重慶軌道交通運營有限公司","route_id":"6","element_type":"way","color":"#f67599","route_name":"重慶軌道交通6號線：北碚 → 茶園","osm_id":"2768660","railway":"subway","status":"open"},"geometry":{"type":"LineString","coordinates":[[106.495037,29.601302],[106.494908,29.592372]]}},{"type":"Feature","properties":{"route_company":"重慶軌道交通運營有限公司","route_id":"6","element_type":"way","color":"#f67599","route_name":"重慶軌道交通6號線：北碚 → 茶園","osm_id":"2768660","railway":"subway","status":"open"},"geometry":{"type":"LineString","coordinates":[[106.494908,29.592372],[106.509221,29.585471]]}},{"type":"Feature","properties":{"route_company":"重慶軌道交通運營有限公司","route_id":"6","element_type":"way","color":"#f67599","route_name":"重慶軌道交通6號線：北碚 → 茶園","osm_id":"2768660","railway":"subway","status":"open"},"geometry":{"type":"LineString","coordinates":[[106.509221,29.585471],[106.522483,29.588025]]}},{"type":"Feature","properties":{"route_company":"重慶軌道交通運營有限公司","route_id":"6","element_type":"way","color":"#f67599","route_name":"重慶軌道交通6號線：北碚 → 茶園","osm_id":"2768660","railway":"subway","status":"open"},"geometry":{"type":"LineString","coordinates":[[106.522483,29.588025],[106.534433,29.591245],[106.547248,29.586878]]}},{"type":"Feature","properties":{"route_company":"重慶軌道交通運營有限公司","route_id":"6","element_type":"way","color":"#f67599","route_name":"重慶軌道交通6號線：北碚 → 茶園","osm_id":"2768660","railway":"subway","status":"open"},"geometry":{"type":"LineString","coordinates":[[106.547248,29.586878],[106.562791,29.588274]]}},{"type":"Feature","properties":{"route_company":"重慶軌道交通運營有限公司","route_id":"6","element_type":"way","color":"#f67599","route_name":"重慶軌道交通6號線：北碚 → 茶園","osm_id":"2768660","railway":"subway","status":"open"},"geometry":{"type":"LineString","coordinates":[[106.562791,29.588274],[106.568355,29.578745]]}},{"type":"Feature","properties":{"route_company":"重慶軌道交通運營有限公司","route_id":"6","element_type":"way","color":"#f67599","route_name":"重慶軌道交通6號線：北碚 → 茶園","osm_id":"2768660","railway":"subway","status":"open"},"geometry":{"type":"LineString","coordinates":[[106.568355,29.578745],[106.573512,29.571918],[106.579579,29.562379]]}},{"type":"Feature","properties":{"route_company":"重慶軌道交通運營有限公司","route_id":"6","element_type":"way","color":"#f67599","route_name":"重慶軌道交通6號線：北碚 → 茶園","osm_id":"2768660","railway":"subway","status":"open"},"geometry":{"type":"LineString","coordinates":[[106.579579,29.562379],[106.593432,29.559015]]}},{"type":"Feature","properties":{"route_company":"重慶軌道交通運營有限公司","route_id":"6","element_type":"way","color":"#f67599","route_name":"重慶軌道交通6號線：北碚 → 茶園","osm_id":"2768660","railway":"subway","status":"open"},"geometry":{"type":"LineString","coordinates":[[106.593432,29.559015],[106.651989,29.527608],[106.654197,29.513675],[106.645873,29.500773],[106.639166,29.490519]]}},{"type":"Feature","properties":{"route_company":"重慶軌道交通運營有限公司","route_id":"10","element_type":"way","color":"#3c1053","route_name":"重慶軌道交通10號線：王家莊 → 蘭花路","osm_id":"7913721","railway":"subway","status":"open"},"geometry":{"type":"LineString","coordinates":[[106.541825,29.746396],[106.544208,29.728564]]}},{"type":"Feature","properties":{"route_company":"重慶軌道交通運營有限公司","route_id":"10","element_type":"way","color":"#3c1053","route_name":"重慶軌道交通10號線：王家莊 → 蘭花路","osm_id":"7913721","railway":"subway","status":"open"},"geometry":{"type":"LineString","coordinates":[[106.544208,29.728564],[106.568718,29.725912]]}},{"type":"Feature","properties":{"route_company":"重慶軌道交通運營有限公司","route_id":"10","element_type":"way","color":"#3c1053","route_name":"重慶軌道交通10號線：王家莊 → 蘭花路","osm_id":"7913721","railway":"subway","status":"open"},"geometry":{"type":"LineString","coordinates":[[106.568718,29.725912],[106.579973,29.726514],[106.58929,29.726653]]}},{"type":"Feature","properties":{"route_company":"重慶軌道交通運營有限公司","route_id":"10","element_type":"way","color":"#3c1053","route_name":"重慶軌道交通10號線：王家莊 → 蘭花路","osm_id":"7913721","railway":"subway","status":"open"},"geometry":{"type":"LineString","coordinates":[[106.58929,29.726653],[106.603608,29.723392],[106.625201,29.721489],[106.633887,29.720602]]}},{"type":"Feature","properties":{"route_company":"重慶軌道交通運營有限公司","route_id":"10","element_type":"way","color":"#3c1053","route_name":"重慶軌道交通10號線：王家莊 → 蘭花路","osm_id":"7913721","railway":"subway","status":"open"},"geometry":{"type":"LineString","coordinates":[[106.633887,29.720602],[106.650995,29.710595],[106.625719,29.676899],[106.618425,29.661772],[106.605708,29.652843]]}},{"type":"Feature","properties":{"route_company":"重慶軌道交通運營有限公司","route_id":"10","element_type":"way","color":"#3c1053","route_name":"重慶軌道交通10號線：王家莊 → 蘭花路","osm_id":"7913721","railway":"subway","status":"open"},"geometry":{"type":"LineString","coordinates":[[106.605708,29.652843],[106.580963,29.641127],[106.565486,29.630227],[106.547429,29.614836]]}},{"type":"Feature","properties":{"route_company":"重慶軌道交通運營有限公司","route_id":"10","element_type":"way","color":"#3c1053","route_name":"重慶軌道交通10號線：王家莊 → 蘭花路","osm_id":"7913721","railway":"subway","status":"open"},"geometry":{"type":"LineString","coordinates":[[106.547429,29.614836],[106.546284,29.609685]]}},{"type":"Feature","properties":{"route_company":"重慶軌道交通運營有限公司","route_id":"10","element_type":"way","color":"#3c1053","route_name":"重慶軌道交通10號線：王家莊 → 蘭花路","osm_id":"7913721","railway":"subway","status":"open"},"geometry":{"type":"LineString","coordinates":[[106.546284,29.609685],[106.546947,29.601454],[106.547248,29.586878]]}},{"type":"Feature","properties":{"route_company":"重慶軌道交通運營有限公司","route_id":"10","element_type":"way","color":"#3c1053","route_name":"重慶軌道交通10號線：王家莊 → 蘭花路","osm_id":"7913721","railway":"subway","status":"open"},"geometry":{"type":"LineString","coordinates":[[106.547248,29.586878],[106.547137,29.57649]]}},{"type":"Feature","properties":{"route_company":"重慶軌道交通運營有限公司","route_id":"10","element_type":"way","color":"#3c1053","route_name":"重慶軌道交通10號線：王家莊 → 蘭花路","osm_id":"7913721","railway":"subway","status":"open"},"geometry":{"type":"LineString","coordinates":[[106.547137,29.57649],[106.546373,29.569454]]}},{"type":"Feature","properties":{"route_company":"重慶軌道交通運營有限公司","route_id":"10","element_type":"way","color":"#3c1053","route_name":"重慶軌道交通10號線：王家莊 → 蘭花路","osm_id":"7913721","railway":"subway","status":"open"},"geometry":{"type":"LineString","coordinates":[[106.546373,29.569454],[106.552489,29.564392],[106.558565,29.557525]]}},{"type":"Feature","properties":{"route_company":"重慶軌道交通運營有限公司","route_id":"10","element_type":"way","color":"#3c1053","route_name":"重慶軌道交通10號線：王家莊 → 蘭花路","osm_id":"7913721","railway":"subway","status":"open"},"geometry":{"type":"LineString","coordinates":[[106.558565,29.557525],[106.565496,29.541076],[106.566043,29.52974]]}},{"type":"Feature","properties":{"route_company":"重慶軌道交通運營有限公司","route_id":"10","element_type":"way","color":"#3c1053","route_name":"重慶軌道交通10號線：王家莊 → 蘭花路","osm_id":"7913721","railway":"subway","status":"open"},"geometry":{"type":"LineString","coordinates":[[106.566043,29.52974],[106.558428,29.526088],[106.553121,29.518871]]}},{"type":"Feature","properties":{"route_company":"重慶軌道交通運營有限公司","route_id":"10","element_type":"way","color":"#3c1053","route_name":"重慶軌道交通10號線：王家莊 → 蘭花路","osm_id":"7913721","railway":"subway","status":"open"},"geometry":{"type":"LineString","coordinates":[[106.553121,29.518871],[106.554012,29.506786]]}},{"type":"Feature","properties":{"route_company":"重慶軌道交通運營有限公司","route_id":"2","element_type":"way","color":"#007a33","route_name":"重慶軌道交通2號線：魚洞 → 較場口","osm_id":"444083","railway":"monorail","status":"open"},"geometry":{"type":"LineString","coordinates":[[106.50202,29.378784],[106.497245,29.386937],[106.488492,29.418245]]}},{"type":"Feature","properties":{"route_company":"重慶軌道交通運營有限公司","route_id":"2","element_type":"way","color":"#007a33","route_name":"重慶軌道交通2號線：魚洞 → 較場口","osm_id":"444083","railway":"monorail","status":"open"},"geometry":{"type":"LineString","coordinates":[[106.488492,29.418245],[106.478764,29.430265],[106.471537,29.44052],[106.470812,29.452542],[106.468293,29.469303],[106.472408,29.474569],[106.474311,29.484454],[106.481084,29.491428],[106.484932,29.498761],[106.495314,29.502363],[106.505591,29.502787],[106.510915,29.510876]]}},{"type":"Feature","properties":{"route_company":"重慶軌道交通運營有限公司","route_id":"2","element_type":"way","color":"#007a33","route_name":"重慶軌道交通2號線：魚洞 → 較場口","osm_id":"444083","railway":"monorail","status":"open"},"geometry":{"type":"LineString","coordinates":[[106.510915,29.510876],[106.514674,29.52244]]}},{"type":"Feature","properties":{"route_company":"重慶軌道交通運營有限公司","route_id":"2","element_type":"way","color":"#007a33","route_name":"重慶軌道交通2號線：魚洞 → 較場口","osm_id":"444083","railway":"monorail","status":"open"},"geometry":{"type":"LineString","coordinates":[[106.514674,29.52244],[106.509948,29.53158],[106.515382,29.543854]]}},{"type":"Feature","properties":{"route_company":"重慶軌道交通運營有限公司","route_id":"2","element_type":"way","color":"#007a33","route_name":"重慶軌道交通2號線：魚洞 → 較場口","osm_id":"444083","railway":"monorail","status":"open"},"geometry":{"type":"LineString","coordinates":[[106.515382,29.543854],[106.528615,29.551463]]}},{"type":"Feature","properties":{"route_company":"重慶軌道交通運營有限公司","route_id":"2","element_type":"way","color":"#007a33","route_name":"重慶軌道交通2號線：魚洞 → 較場口","osm_id":"444083","railway":"monorail","status":"open"},"geometry":{"type":"LineString","coordinates":[[106.528615,29.551463],[106.533921,29.555664],[106.538816,29.562681]]}},{"type":"Feature","properties":{"route_company":"重慶軌道交通運營有限公司","route_id":"2","element_type":"way","color":"#007a33","route_name":"重慶軌道交通2號線：魚洞 → 較場口","osm_id":"444083","railway":"monorail","status":"open"},"geometry":{"type":"LineString","coordinates":[[106.538816,29.562681],[106.546373,29.569454]]}},{"type":"Feature","properties":{"route_company":"重慶軌道交通運營有限公司","route_id":"2","element_type":"way","color":"#007a33","route_name":"重慶軌道交通2號線：魚洞 → 較場口","osm_id":"444083","railway":"monorail","status":"open"},"geometry":{"type":"LineString","coordinates":[[106.546373,29.569454],[106.554815,29.568878],[106.561227,29.566138],[106.571166,29.561091],[106.569312,29.55657]]}},{"type":"Feature","properties":{"route_company":"重慶軌道交通運營有限公司","route_id":"1","element_type":"way","color":"#e4002b","route_name":"重慶軌道交通1號線：璧山 → 朝天門","osm_id":"2336456","railway":"subway","status":"open"},"geometry":{"type":"LineString","coordinates":[[106.22879,29.614783],[106.289227,29.610007],[106.305117,29.610017],[106.324644,29.610041],[106.358987,29.612223],[106.377458,29.612778],[106.440404,29.608283],[106.440291,29.591983],[106.44242,29.579275],[106.441349,29.570257],[106.446452,29.564295],[106.456081,29.558271]]}},{"type":"Feature","properties":{"route_company":"重慶軌道交通運營有限公司","route_id":"1","element_type":"way","color":"#e4002b","route_name":"重慶軌道交通1號線：璧山 → 朝天門","osm_id":"2336456","railway":"subway","status":"open"},"geometry":{"type":"LineString","coordinates":[[106.456081,29.558271],[106.465351,29.555677]]}},{"type":"Feature","properties":{"route_company":"重慶軌道交通運營有限公司","route_id":"1","element_type":"way","color":"#e4002b","route_name":"重慶軌道交通1號線：璧山 → 朝天門","osm_id":"2336456","railway":"subway","status":"open"},"geometry":{"type":"LineString","coordinates":[[106.465351,29.555677],[106.46434,29.547595],[106.465792,29.538737],[106.481209,29.535436]]}},{"type":"Feature","properties":{"route_company":"重慶軌道交通運營有限公司","route_id":"1","element_type":"way","color":"#e4002b","route_name":"重慶軌道交通1號線：璧山 → 朝天門","osm_id":"2336456","railway":"subway","status":"open"},"geometry":{"type":"LineString","coordinates":[[106.481209,29.535436],[106.494845,29.539765]]}},{"type":"Feature","properties":{"route_company":"重慶軌道交通運營有限公司","route_id":"1","element_type":"way","color":"#e4002b","route_name":"重慶軌道交通1號線：璧山 → 朝天門","osm_id":"2336456","railway":"subway","status":"open"},"geometry":{"type":"LineString","coordinates":[[106.494845,29.539765],[106.504382,29.540988],[106.515382,29.543854]]}},{"type":"Feature","properties":{"route_company":"重慶軌道交通運營有限公司","route_id":"1","element_type":"way","color":"#e4002b","route_name":"重慶軌道交通1號線：璧山 → 朝天門","osm_id":"2336456","railway":"subway","status":"open"},"geometry":{"type":"LineString","coordinates":[[106.515382,29.543854],[106.528615,29.551463]]}},{"type":"Feature","properties":{"route_company":"重慶軌道交通運營有限公司","route_id":"1","element_type":"way","color":"#e4002b","route_name":"重慶軌道交通1號線：璧山 → 朝天門","osm_id":"2336456","railway":"subway","status":"open"},"geometry":{"type":"LineString","coordinates":[[106.528615,29.551463],[106.545088,29.555661]]}},{"type":"Feature","properties":{"route_company":"重慶軌道交通運營有限公司","route_id":"1","element_type":"way","color":"#e4002b","route_name":"重慶軌道交通1號線：璧山 → 朝天門","osm_id":"2336456","railway":"subway","status":"open"},"geometry":{"type":"LineString","coordinates":[[106.545088,29.555661],[106.558565,29.557525]]}},{"type":"Feature","properties":{"route_company":"重慶軌道交通運營有限公司","route_id":"1","element_type":"way","color":"#e4002b","route_name":"重慶軌道交通1號線：璧山 → 朝天門","osm_id":"2336456","railway":"subway","status":"open"},"geometry":{"type":"LineString","coordinates":[[106.558565,29.557525],[106.569312,29.55657]]}},{"type":"Feature","properties":{"route_company":"重慶軌道交通運營有限公司","route_id":"1","element_type":"way","color":"#e4002b","route_name":"重慶軌道交通1號線：璧山 → 朝天門","osm_id":"2336456","railway":"subway","status":"open"},"geometry":{"type":"LineString","coordinates":[[106.569312,29.55657],[106.579579,29.562379]]}},{"type":"Feature","properties":{"route_company":"重慶軌道交通運營有限公司","route_id":"1","element_type":"way","color":"#e4002b","route_name":"重慶軌道交通1號線：璧山 → 朝天門","osm_id":"2336456","railway":"subway","status":"open"},"geometry":{"type":"LineString","coordinates":[[106.579579,29.562379],[106.582541,29.567277]]}},{"type":"Feature","properties":{"route_company":"重慶軌道十八號線建設運營有限公司","route_id":"18","element_type":"way","color":"#2cd5c4","route_name":"重慶軌道交通18號線：跳磴南 → 富華路","osm_id":"15749312","railway":"subway","status":"open"},"geometry":{"type":"LineString","coordinates":[[106.431165,29.396377],[106.43398,29.410793]]}},{"type":"Feature","properties":{"route_company":"重慶軌道十八號線建設運營有限公司","route_id":"18","element_type":"way","color":"#2cd5c4","route_name":"重慶軌道交通18號線：跳磴南 → 富華路","osm_id":"15749312","railway":"subway","status":"open"},"geometry":{"type":"LineString","coordinates":[[106.43398,29.410793],[106.455094,29.417583],[106.477151,29.418418],[106.488492,29.418245]]}},{"type":"Feature","properties":{"route_company":"重慶軌道十八號線建設運營有限公司","route_id":"18","element_type":"way","color":"#2cd5c4","route_name":"重慶軌道交通18號線：跳磴南 → 富華路","osm_id":"15749312","railway":"subway","status":"open"},"geometry":{"type":"LineString","coordinates":[[106.488492,29.418245],[106.500317,29.426871],[106.513866,29.435626],[106.513111,29.451039],[106.517031,29.463329],[106.523984,29.471617],[106.53424,29.485541],[106.539437,29.491206],[106.532995,29.498985],[106.523105,29.502258],[106.510915,29.510876]]}},{"type":"Feature","properties":{"route_company":"重慶軌道十八號線建設運營有限公司","route_id":"18","element_type":"way","color":"#2cd5c4","route_name":"重慶軌道交通18號線：跳磴南 → 富華路","osm_id":"15749312","railway":"subway","status":"open"},"geometry":{"type":"LineString","coordinates":[[106.510915,29.510876],[106.50244,29.518407],[106.497763,29.52697]]}},{"type":"Feature","properties":{"route_company":"重慶軌道十八號線建設運營有限公司","route_id":"18","element_type":"way","color":"#2cd5c4","route_name":"重慶軌道交通18號線：跳磴南 → 富華路","osm_id":"15749312","railway":"subway","status":"open"},"geometry":{"type":"LineString","coordinates":[[106.497763,29.52697],[106.494845,29.539765]]}},{"type":"Feature","properties":{"route_company":"重慶軌道十八號線建設運營有限公司","route_id":"18","element_type":"way","color":"#2cd5c4","route_name":"重慶軌道交通18號線：跳磴南 → 富華路","osm_id":"15749312","railway":"subway","status":"open"},"geometry":{"type":"LineString","coordinates":[[106.494845,29.539765],[106.499717,29.553732]]}},{"type":"Feature","properties":{"route_company":"重慶雲巴軌道交通運營管理有限公司","route_id":"12759727","element_type":"way","color":"#1974d2","route_name":"璧山雲巴1號線（南向）","osm_id":"12759727","railway":"light_rail","status":"open"},"geometry":{"type":"LineString","coordinates":[[106.22879,29.614783],[106.216459,29.614104],[106.214858,29.608506],[106.211678,29.599656],[106.207511,29.590458],[106.206019,29.578538],[106.202025,29.570586],[106.202336,29.558481],[106.1998,29.543594],[106.196456,29.534555],[106.196401,29.525957],[106.199068,29.51955],[106.204691,29.513498],[106.211731,29.504026],[106.218378,29.506927]]}},{"type":"Feature","properties":{"route_company":"重慶軌道交通運營有限公司","route_id":"6","element_type":"way","color":"#f67599","route_name":"重慶軌道交通6號線：北碚 → 茶園","osm_id":"2768660","railway":"subway","status":"open"},"geometry":{"type":"LineString","coordinates":[[106.484416,29.669567],[106.504665,29.67174],[106.527616,29.678871],[106.524074,29.70557],[106.541627,29.719413],[106.544208,29.728564]]}},{"type":"Feature","properties":{"route_company":"重慶軌道交通運營有限公司","route_id":"6","element_type":"way","color":"#f67599","route_name":"重慶軌道交通6號線：北碚 → 茶園","osm_id":"2768660","railway":"subway","status":"open"},"geometry":{"type":"LineString","coordinates":[[106.544208,29.728564],[106.541825,29.746396]]}},{"type":"Feature","properties":{"route_company":"重慶軌道交通運營有限公司","route_id":"6","element_type":"way","color":"#f67599","route_name":"重慶軌道交通6號線：北碚 → 茶園","osm_id":"2768660","railway":"subway","status":"open"},"geometry":{"type":"LineString","coordinates":[[106.541825,29.746396],[106.544065,29.766615],[106.550626,29.784431],[106.545522,29.809652],[106.546335,29.82484],[106.545582,29.835901],[106.552647,29.846946]]}},{"type":"Feature","properties":{"route_company":"重慶璧銅線軌道交通運營管理有限公司","route_id":"BT","element_type":"way","color":"#0057b8","route_name":"重慶市郊鐵路璧銅線: 銅梁西 → 璧山","osm_id":"17135614","railway":"subway","status":"open"},"geometry":{"type":"LineString","coordinates":[[106.041892,29.82806],[106.07525,29.833834],[106.104195,29.818571],[106.145702,29.792052],[106.215694,29.725521],[106.20733,29.704428],[106.206616,29.653967],[106.217574,29.627358],[106.22879,29.614783]]}},{"type":"Feature","properties":{"route_company":"重慶軌道交通運營有限公司","route_id":"3","element_type":"way","color":"#003da5","route_name":"重慶軌道交通3號線：魚洞 → 江北機場T2航站樓","osm_id":"2341149","railway":"monorail","status":"open"},"geometry":{"type":"LineString","coordinates":[[106.663714,29.794125],[106.652147,29.788313],[106.648994,29.777773],[106.639281,29.754745],[106.630061,29.739237],[106.628811,29.731777],[106.628797,29.71393]]}},{"type":"Feature","properties":{"route_company":"重慶軌道交通","route_id":"JT","element_type":"way","color":"#469990","route_name":"重慶市郊鐵路江跳線: 跳磴 → 聖泉寺","osm_id":"10176833","railway":"subway","status":"open"},"geometry":{"type":"LineString","coordinates":[[106.43398,29.410793],[106.426105,29.40689],[106.350883,29.401776],[106.308405,29.401366],[106.257922,29.384379],[106.253075,29.345518],[106.255885,29.310424]]}},{"type":"Feature","properties":{"route_company":"重慶軌道交通運營有限公司","route_id":"6","element_type":"way","color":"#f67599","route_name":"重慶軌道交通6號線：北碚 → 茶園","osm_id":"2768660","railway":"subway","status":"open"},"geometry":{"type":"LineString","coordinates":[[106.668513,29.487172],[106.658269,29.506579],[106.662577,29.517296],[106.651989,29.527608]]}}]}