{"type":"FeatureCollection","generator":"metroOsmFetch (OpenStreetMap / Overpass, ODbL)","features":[{"type":"Feature","properties":{"route_company":"合肥轨道交通集团有限公司","route_id":"3","element_type":"way","color":"#00863e","route_name":"合肥轨道交通3号线","osm_id":"5964922","railway":"subway"},"geometry":{"type":"LineString","coordinates":[[117.170372,31.689197],[117.170413,31.696491],[117.160987,31.702648],[117.151872,31.711255],[117.150808,31.720421],[117.156932,31.725734],[117.163252,31.743953],[117.175565,31.753137],[117.186734,31.761205],[117.199713,31.767347],[117.204366,31.77701],[117.204448,31.784234],[117.204488,31.791802],[117.2099,31.802964],[117.210108,31.811064],[117.218497,31.816233],[117.226478,31.823679],[117.22602,31.834198],[117.225824,31.8429],[117.225339,31.854377],[117.225216,31.863708],[117.231223,31.872921],[117.240655,31.883012],[117.251392,31.888593],[117.262722,31.888753],[117.272865,31.888927],[117.281635,31.889572],[117.290539,31.889515],[117.302593,31.8896],[117.309853,31.885398],[117.325546,31.887194],[117.336577,31.886962],[117.346753,31.886868],[117.353554,31.892186],[117.355589,31.898924],[117.362677,31.911764],[117.366838,31.923211],[117.377556,31.926965],[117.391593,31.926923],[117.401958,31.926909]]}},{"type":"Feature","properties":{"route_company":"合肥轨道交通集团有限公司","route_id":"2","element_type":"way","color":"#0167b1","route_name":"合肥轨道交通2号线","osm_id":"5964585","railway":"subway"},"geometry":{"type":"LineString","coordinates":[[117.110176,31.852507],[117.121394,31.852643],[117.130752,31.852921],[117.146154,31.853057],[117.16291,31.853356],[117.180473,31.853734],[117.193174,31.855997],[117.203781,31.857708],[117.217784,31.856604],[117.225339,31.854377],[117.235561,31.852894],[117.250514,31.85673],[117.259772,31.860145],[117.270097,31.863546],[117.284358,31.863618],[117.295576,31.866015],[117.308317,31.869598],[117.31917,31.869711],[117.331969,31.870148],[117.345936,31.869943],[117.361435,31.870179],[117.370088,31.870255],[117.38385,31.870604],[117.391552,31.870804],[117.414138,31.873741],[117.42394,31.875836],[117.437008,31.875729],[117.44968,31.874372],[117.466213,31.876999],[117.475056,31.872956],[117.480277,31.861331],[117.486549,31.853895],[117.486508,31.846688],[117.486444,31.835705],[117.486373,31.824396]]}},{"type":"Feature","properties":{"route_company":"合肥轨道交通集团有限公司","route_id":"4","element_type":"way","color":"#f79826","route_name":"合肥轨道交通4号线","osm_id":"13536844","railway":"subway"},"geometry":{"type":"LineString","coordinates":[[117.09643,31.757232],[117.089244,31.761457],[117.08695,31.767803],[117.11121,31.784279],[117.132207,31.78432],[117.139714,31.804742],[117.139543,31.817775],[117.152181,31.822774],[117.170231,31.822588],[117.182185,31.818136],[117.192813,31.8136],[117.210108,31.811064],[117.222132,31.810219],[117.233058,31.811072],[117.243766,31.810619],[117.251971,31.810468],[117.263399,31.809686],[117.270934,31.805221],[117.275611,31.801662],[117.284618,31.801146],[117.296734,31.806775],[117.307704,31.8108],[117.320288,31.816912],[117.318692,31.826967],[117.318467,31.839256],[117.330055,31.856046],[117.331969,31.870148],[117.33524,31.877889],[117.336577,31.886962],[117.337118,31.898585],[117.341868,31.906689],[117.339653,31.928405],[117.343286,31.938894],[117.348368,31.952785]]}},{"type":"Feature","properties":{"route_company":"合肥轨道交通集团有限公司","route_id":"5","element_type":"way","color":"#c0d92e","route_name":"合肥轨道交通5号线","osm_id":"12385669","railway":"subway"},"geometry":{"type":"LineString","coordinates":[[117.258635,31.701246],[117.258677,31.711415],[117.269972,31.715095],[117.280668,31.715078],[117.296563,31.715085],[117.305512,31.715056],[117.313942,31.715041],[117.32457,31.715019],[117.333085,31.720153],[117.333127,31.733271],[117.333173,31.74272],[117.333206,31.754764],[117.328676,31.767704],[117.328669,31.775305],[117.326683,31.787567],[117.319144,31.796588],[117.311692,31.795768],[117.296427,31.794655],[117.284618,31.801146],[117.283148,31.811114],[117.271072,31.816223],[117.263513,31.820466],[117.265191,31.8306],[117.267571,31.843837],[117.268451,31.851362],[117.270097,31.863546],[117.273097,31.873053],[117.272974,31.881539],[117.272865,31.888927],[117.270103,31.899529],[117.266182,31.918983],[117.265211,31.932085],[117.258318,31.943009]]}},{"type":"Feature","properties":{"route_company":"合肥轨道交通集团有限公司","route_id":"1","element_type":"way","color":"#e71f24","route_name":"合肥轨道交通1号线","osm_id":"5964920","railway":"subway"},"geometry":{"type":"LineString","coordinates":[[117.316573,31.919996],[117.308131,31.905484],[117.308822,31.892166],[117.309853,31.885398],[117.303652,31.877419],[117.299339,31.87207],[117.295576,31.866015],[117.295731,31.858152],[117.29513,31.849255],[117.296244,31.834084],[117.296612,31.825369],[117.298018,31.816463],[117.28682,31.807565],[117.284618,31.801146],[117.285929,31.794546],[117.285982,31.785089],[117.285828,31.774932],[117.297098,31.756571],[117.297078,31.742794],[117.297039,31.733332],[117.297068,31.724855],[117.296563,31.715085],[117.29651,31.707742],[117.296478,31.700559],[117.29194,31.693399],[117.280737,31.693366]]}},{"type":"Feature","properties":{"route_company":"合肥轨道交通集团有限公司","route_id":"6","element_type":"way","color":"#c99fcd","route_name":"合肥轨道交通6号线","osm_id":"11747972","railway":"subway"},"geometry":{"type":"LineString","coordinates":[[117.082736,31.831595],[117.094826,31.831372],[117.109712,31.831931],[117.128614,31.832092],[117.152181,31.822774],[117.17935,31.833664],[117.197358,31.834613],[117.216665,31.835405],[117.22602,31.834198],[117.240708,31.83266],[117.252402,31.832002],[117.265191,31.8306],[117.279856,31.832455],[117.296244,31.834084],[117.318692,31.826967],[117.349865,31.837653],[117.361562,31.831959],[117.372411,31.82987],[117.379883,31.837693],[117.392864,31.839605],[117.411437,31.838368]]}},{"type":"Feature","properties":{"route_company":"合肥轨道交通集团有限公司","route_id":"8","element_type":"way","color":"#64aee3","route_name":"合肥轨道交通8号线","osm_id":"11755282","railway":"subway"},"geometry":{"type":"LineString","coordinates":[[117.281635,31.889572],[117.278573,31.905428],[117.274619,31.925209],[117.265211,31.932085],[117.254367,31.938108],[117.251566,31.958547],[117.249437,31.977843],[117.248532,31.996803],[117.242536,32.013043],[117.24317,32.031553],[117.240663,32.046567],[117.250889,32.064789]]}},{"type":"Feature","properties":{"osm_id":"11472959331","station_name":"省儿童医院新区","element_type":"node","station_id":"11472959331"},"geometry":{"type":"Point","coordinates":[117.170372,31.689197]}},{"type":"Feature","properties":{"osm_id":"11472959332","station_name":"乐平","element_type":"node","station_id":"11472959332"},"geometry":{"type":"Point","coordinates":[117.170413,31.696491]}},{"type":"Feature","properties":{"osm_id":"11472959340","station_name":"芮祠","element_type":"node","station_id":"11472959340"},"geometry":{"type":"Point","coordinates":[117.160987,31.702648]}},{"type":"Feature","properties":{"osm_id":"11472959346","station_name":"四十埠","element_type":"node","station_id":"11472959346"},"geometry":{"type":"Point","coordinates":[117.151872,31.711255]}},{"type":"Feature","properties":{"osm_id":"11472959365","station_name":"李湾","element_type":"node","station_id":"11472959365"},"geometry":{"type":"Point","coordinates":[117.150808,31.720421]}},{"type":"Feature","properties":{"osm_id":"11472959369","station_name":"凉亭","element_type":"node","station_id":"11472959369"},"geometry":{"type":"Point","coordinates":[117.156932,31.725734]}},{"type":"Feature","properties":{"osm_id":"11472959424","station_name":"安医一附院南区","element_type":"node","station_id":"11472959424"},"geometry":{"type":"Point","coordinates":[117.163252,31.743953]}},{"type":"Feature","properties":{"osm_id":"8480125200","station_name":"幸福坝","element_type":"node","station_id":"8480125200"},"geometry":{"type":"Point","coordinates":[117.175565,31.753137]}},{"type":"Feature","properties":{"osm_id":"8480125204","station_name":"安大磬苑校区","element_type":"node","station_id":"8480125204"},"geometry":{"type":"Point","coordinates":[117.186734,31.761205]}},{"type":"Feature","properties":{"osm_id":"8480125216","station_name":"工大翡翠湖校区","element_type":"node","station_id":"8480125216"},"geometry":{"type":"Point","coordinates":[117.199713,31.767347]}},{"type":"Feature","properties":{"osm_id":"8480148629","station_name":"大学城北","element_type":"node","station_id":"8480148629"},"geometry":{"type":"Point","coordinates":[117.204366,31.77701]}},{"type":"Feature","properties":{"osm_id":"8480148632","station_name":"繁华大道","element_type":"node","station_id":"8480148632"},"geometry":{"type":"Point","coordinates":[117.204448,31.784234]}},{"type":"Feature","properties":{"osm_id":"8480148635","station_name":"安医大二附院","element_type":"node","station_id":"8480148635"},"geometry":{"type":"Point","coordinates":[117.204488,31.791802]}},{"type":"Feature","properties":{"osm_id":"8480148651","station_name":"省博物馆","element_type":"node","station_id":"8480148651"},"geometry":{"type":"Point","coordinates":[117.2099,31.802964]}},{"type":"Feature","properties":{"osm_id":"8480148655","station_name":"图书馆","element_type":"node","station_id":"8480148655"},"geometry":{"type":"Point","coordinates":[117.210108,31.811064]}},{"type":"Feature","properties":{"osm_id":"8480148669","station_name":"合肥大剧院","element_type":"node","station_id":"8480148669"},"geometry":{"type":"Point","coordinates":[117.218497,31.816233]}},{"type":"Feature","properties":{"osm_id":"8480148686","station_name":"市政务中心","element_type":"node","station_id":"8480148686"},"geometry":{"type":"Point","coordinates":[117.226478,31.823679]}},{"type":"Feature","properties":{"osm_id":"8480148687","station_name":"洪岗","element_type":"node","station_id":"8480148687"},"geometry":{"type":"Point","coordinates":[117.22602,31.834198]}},{"type":"Feature","properties":{"osm_id":"8480148689","station_name":"国防科技大学","element_type":"node","station_id":"8480148689"},"geometry":{"type":"Point","coordinates":[117.225824,31.8429]}},{"type":"Feature","properties":{"osm_id":"8480148690","station_name":"西七里塘","element_type":"node","station_id":"8480148690"},"geometry":{"type":"Point","coordinates":[117.225339,31.854377]}},{"type":"Feature","properties":{"osm_id":"8480148692","station_name":"南新庄","element_type":"node","station_id":"8480148692"},"geometry":{"type":"Point","coordinates":[117.225216,31.863708]}},{"type":"Feature","properties":{"osm_id":"8480148707","station_name":"合肥西站","element_type":"node","station_id":"8480148707"},"geometry":{"type":"Point","coordinates":[117.231223,31.872921]}},{"type":"Feature","properties":{"osm_id":"8480148714","station_name":"杏花村","element_type":"node","station_id":"8480148714"},"geometry":{"type":"Point","coordinates":[117.240655,31.883012]}},{"type":"Feature","properties":{"osm_id":"8480148729","station_name":"四泉桥","element_type":"node","station_id":"8480148729"},"geometry":{"type":"Point","coordinates":[117.251392,31.888593]}},{"type":"Feature","properties":{"osm_id":"8480148734","station_name":"郑河","element_type":"node","station_id":"8480148734"},"geometry":{"type":"Point","coordinates":[117.262722,31.888753]}},{"type":"Feature","properties":{"osm_id":"8480148737","station_name":"海棠","element_type":"node","station_id":"8480148737"},"geometry":{"type":"Point","coordinates":[117.272865,31.888927]}},{"type":"Feature","properties":{"osm_id":"8480148739","station_name":"一里井","element_type":"node","station_id":"8480148739"},"geometry":{"type":"Point","coordinates":[117.281635,31.889572]}},{"type":"Feature","properties":{"osm_id":"8480148743","station_name":"淮南路","element_type":"node","station_id":"8480148743"},"geometry":{"type":"Point","coordinates":[117.290539,31.889515]}},{"type":"Feature","properties":{"osm_id":"8480148757","station_name":"鸭林冲","element_type":"node","station_id":"8480148757"},"geometry":{"type":"Point","coordinates":[117.302593,31.8896]}},{"type":"Feature","properties":{"osm_id":"8480148763","station_name":"合肥火车站","element_type":"node","station_id":"8480148763"},"geometry":{"type":"Point","coordinates":[117.309853,31.885398]}},{"type":"Feature","properties":{"osm_id":"8480148786","station_name":"竹丝滩","element_type":"node","station_id":"8480148786"},"geometry":{"type":"Point","coordinates":[117.325546,31.887194]}},{"type":"Feature","properties":{"osm_id":"8480148788","station_name":"方庙","element_type":"node","station_id":"8480148788"},"geometry":{"type":"Point","coordinates":[117.336577,31.886962]}},{"type":"Feature","properties":{"osm_id":"8480148791","station_name":"窦桥湾","element_type":"node","station_id":"8480148791"},"geometry":{"type":"Point","coordinates":[117.346753,31.886868]}},{"type":"Feature","properties":{"osm_id":"8480148805","station_name":"新海大道","element_type":"node","station_id":"8480148805"},"geometry":{"type":"Point","coordinates":[117.353554,31.892186]}},{"type":"Feature","properties":{"osm_id":"8480148813","station_name":"勤劳村","element_type":"node","station_id":"8480148813"},"geometry":{"type":"Point","coordinates":[117.355589,31.898924]}},{"type":"Feature","properties":{"osm_id":"8480148817","station_name":"文浍苑","element_type":"node","station_id":"8480148817"},"geometry":{"type":"Point","coordinates":[117.362677,31.911764]}},{"type":"Feature","properties":{"osm_id":"8478659969","station_name":"幼儿师范","element_type":"node","station_id":"8478659969"},"geometry":{"type":"Point","coordinates":[117.366838,31.923211]}},{"type":"Feature","properties":{"osm_id":"8478659967","station_name":"职教城","element_type":"node","station_id":"8478659967"},"geometry":{"type":"Point","coordinates":[117.377556,31.926965]}},{"type":"Feature","properties":{"osm_id":"8478659973","station_name":"职教城东","element_type":"node","station_id":"8478659973"},"geometry":{"type":"Point","coordinates":[117.391593,31.926923]}},{"type":"Feature","properties":{"osm_id":"8478659971","station_name":"相城路","element_type":"node","station_id":"8478659971"},"geometry":{"type":"Point","coordinates":[117.401958,31.926909]}},{"type":"Feature","properties":{"osm_id":"8554374529","station_name":"南岗","element_type":"node","station_id":"8554374529"},"geometry":{"type":"Point","coordinates":[117.110176,31.852507]}},{"type":"Feature","properties":{"osm_id":"8554374514","station_name":"桂庄","element_type":"node","station_id":"8554374514"},"geometry":{"type":"Point","coordinates":[117.121394,31.852643]}},{"type":"Feature","properties":{"osm_id":"8554374511","station_name":"汽车西站","element_type":"node","station_id":"8554374511"},"geometry":{"type":"Point","coordinates":[117.130752,31.852921]}},{"type":"Feature","properties":{"osm_id":"8554374508","station_name":"振兴路","element_type":"node","station_id":"8554374508"},"geometry":{"type":"Point","coordinates":[117.146154,31.853057]}},{"type":"Feature","properties":{"osm_id":"8554374506","station_name":"蜀山西","element_type":"node","station_id":"8554374506"},"geometry":{"type":"Point","coordinates":[117.16291,31.853356]}},{"type":"Feature","properties":{"osm_id":"8554374497","station_name":"大蜀山","element_type":"node","station_id":"8554374497"},"geometry":{"type":"Point","coordinates":[117.180473,31.853734]}},{"type":"Feature","properties":{"osm_id":"8554374494","station_name":"天柱路","element_type":"node","station_id":"8554374494"},"geometry":{"type":"Point","coordinates":[117.193174,31.855997]}},{"type":"Feature","properties":{"osm_id":"8554374491","station_name":"科学大道","element_type":"node","station_id":"8554374491"},"geometry":{"type":"Point","coordinates":[117.203781,31.857708]}},{"type":"Feature","properties":{"osm_id":"8554374477","station_name":"十里庙","element_type":"node","station_id":"8554374477"},"geometry":{"type":"Point","coordinates":[117.217784,31.856604]}},{"type":"Feature","properties":{"osm_id":"8554374465","station_name":"五里墩","element_type":"node","station_id":"8554374465"},"geometry":{"type":"Point","coordinates":[117.235561,31.852894]}},{"type":"Feature","properties":{"osm_id":"8554374454","station_name":"三里庵","element_type":"node","station_id":"8554374454"},"geometry":{"type":"Point","coordinates":[117.250514,31.85673]}},{"type":"Feature","properties":{"osm_id":"8554374451","station_name":"安农大","element_type":"node","station_id":"8554374451"},"geometry":{"type":"Point","coordinates":[117.259772,31.860145]}},{"type":"Feature","properties":{"osm_id":"8554374445","station_name":"三孝口","element_type":"node","station_id":"8554374445"},"geometry":{"type":"Point","coordinates":[117.270097,31.863546]}},{"type":"Feature","properties":{"osm_id":"8554374435","station_name":"四牌楼","element_type":"node","station_id":"8554374435"},"geometry":{"type":"Point","coordinates":[117.284358,31.863618]}},{"type":"Feature","properties":{"osm_id":"8554374424","station_name":"大东门","element_type":"node","station_id":"8554374424"},"geometry":{"type":"Point","coordinates":[117.295576,31.866015]}},{"type":"Feature","properties":{"osm_id":"8554374414","station_name":"三里街","element_type":"node","station_id":"8554374414"},"geometry":{"type":"Point","coordinates":[117.308317,31.869598]}},{"type":"Feature","properties":{"osm_id":"8554374408","station_name":"东五里井","element_type":"node","station_id":"8554374408"},"geometry":{"type":"Point","coordinates":[117.31917,31.869711]}},{"type":"Feature","properties":{"osm_id":"8554374403","station_name":"东七里","element_type":"node","station_id":"8554374403"},"geometry":{"type":"Point","coordinates":[117.331969,31.870148]}},{"type":"Feature","properties":{"osm_id":"8554374400","station_name":"漕冲","element_type":"node","station_id":"8554374400"},"geometry":{"type":"Point","coordinates":[117.345936,31.869943]}},{"type":"Feature","properties":{"osm_id":"8554374397","station_name":"东二十埠","element_type":"node","station_id":"8554374397"},"geometry":{"type":"Point","coordinates":[117.361435,31.870179]}},{"type":"Feature","properties":{"osm_id":"8554374394","station_name":"龙岗","element_type":"node","station_id":"8554374394"},"geometry":{"type":"Point","coordinates":[117.370088,31.870255]}},{"type":"Feature","properties":{"osm_id":"8554374392","station_name":"王岗","element_type":"node","station_id":"8554374392"},"geometry":{"type":"Point","coordinates":[117.38385,31.870604]}},{"type":"Feature","properties":{"osm_id":"8554374387","station_name":"三十埠","element_type":"node","station_id":"8554374387"},"geometry":{"type":"Point","coordinates":[117.391552,31.870804]}},{"type":"Feature","properties":{"osm_id":"11455273525","station_name":"三十埠东","element_type":"node","station_id":"11455273525"},"geometry":{"type":"Point","coordinates":[117.414138,31.873741]}},{"type":"Feature","properties":{"osm_id":"11455273516","station_name":"祥和","element_type":"node","station_id":"11455273516"},"geometry":{"type":"Point","coordinates":[117.42394,31.875836]}},{"type":"Feature","properties":{"osm_id":"11455273506","station_name":"桂王","element_type":"node","station_id":"11455273506"},"geometry":{"type":"Point","coordinates":[117.437008,31.875729]}},{"type":"Feature","properties":{"osm_id":"11455273495","station_name":"对河","element_type":"node","station_id":"11455273495"},"geometry":{"type":"Point","coordinates":[117.44968,31.874372]}},{"type":"Feature","properties":{"osm_id":"11455273484","station_name":"店埠河","element_type":"node","station_id":"11455273484"},"geometry":{"type":"Point","coordinates":[117.466213,31.876999]}},{"type":"Feature","properties":{"osm_id":"11457499596","station_name":"排头","element_type":"node","station_id":"11457499596"},"geometry":{"type":"Point","coordinates":[117.475056,31.872956]}},{"type":"Feature","properties":{"osm_id":"11457499595","station_name":"肥东站","element_type":"node","station_id":"11457499595"},"geometry":{"type":"Point","coordinates":[117.480277,31.861331]}},{"type":"Feature","properties":{"osm_id":"11457499594","station_name":"和睦湖","element_type":"node","station_id":"11457499594"},"geometry":{"type":"Point","coordinates":[117.486549,31.853895]}},{"type":"Feature","properties":{"osm_id":"11457499593","station_name":"马桥","element_type":"node","station_id":"11457499593"},"geometry":{"type":"Point","coordinates":[117.486508,31.846688]}},{"type":"Feature","properties":{"osm_id":"11457499592","station_name":"南沙河","element_type":"node","station_id":"11457499592"},"geometry":{"type":"Point","coordinates":[117.486444,31.835705]}},{"type":"Feature","properties":{"osm_id":"11455567932","station_name":"撮镇","element_type":"node","station_id":"11455567932"},"geometry":{"type":"Point","coordinates":[117.486373,31.824396]}},{"type":"Feature","properties":{"osm_id":"11866002085","station_name":"烧脉岗","element_type":"node","station_id":"11866002085"},"geometry":{"type":"Point","coordinates":[117.09643,31.757232]}},{"type":"Feature","properties":{"osm_id":"11866002107","station_name":"魏庄","element_type":"node","station_id":"11866002107"},"geometry":{"type":"Point","coordinates":[117.089244,31.761457]}},{"type":"Feature","properties":{"osm_id":"11866002115","station_name":"铜锣寨路","element_type":"node","station_id":"11866002115"},"geometry":{"type":"Point","coordinates":[117.08695,31.767803]}},{"type":"Feature","properties":{"osm_id":"11866002155","station_name":"金小郢","element_type":"node","station_id":"11866002155"},"geometry":{"type":"Point","coordinates":[117.11121,31.784279]}},{"type":"Feature","properties":{"osm_id":"11866002016","station_name":"桃花潭","element_type":"node","station_id":"11866002016"},"geometry":{"type":"Point","coordinates":[117.132207,31.78432]}},{"type":"Feature","properties":{"osm_id":"11866001978","station_name":"长安集","element_type":"node","station_id":"11866001978"},"geometry":{"type":"Point","coordinates":[117.139714,31.804742]}},{"type":"Feature","properties":{"osm_id":"11866001975","station_name":"复兴集","element_type":"node","station_id":"11866001975"},"geometry":{"type":"Point","coordinates":[117.139543,31.817775]}},{"type":"Feature","properties":{"osm_id":"11866001910","station_name":"北雁湖","element_type":"node","station_id":"11866001910"},"geometry":{"type":"Point","coordinates":[117.152181,31.822774]}},{"type":"Feature","properties":{"osm_id":"9328009863","station_name":"玉兰大道","element_type":"node","station_id":"9328009863"},"geometry":{"type":"Point","coordinates":[117.170231,31.822588]}},{"type":"Feature","properties":{"osm_id":"9328009853","station_name":"金桂","element_type":"node","station_id":"9328009853"},"geometry":{"type":"Point","coordinates":[117.182185,31.818136]}},{"type":"Feature","properties":{"osm_id":"9328009849","station_name":"柳树塘","element_type":"node","station_id":"9328009849"},"geometry":{"type":"Point","coordinates":[117.192813,31.8136]}},{"type":"Feature","properties":{"osm_id":"9328009816","station_name":"天鹅湖","element_type":"node","station_id":"9328009816"},"geometry":{"type":"Point","coordinates":[117.222132,31.810219]}},{"type":"Feature","properties":{"osm_id":"9328009808","station_name":"天鹅湖东","element_type":"node","station_id":"9328009808"},"geometry":{"type":"Point","coordinates":[117.233058,31.811072]}},{"type":"Feature","properties":{"osm_id":"9328009805","station_name":"姚公庙","element_type":"node","station_id":"9328009805"},"geometry":{"type":"Point","coordinates":[117.243766,31.810619]}},{"type":"Feature","properties":{"osm_id":"9328009802","station_name":"南屏路","element_type":"node","station_id":"9328009802"},"geometry":{"type":"Point","coordinates":[117.251971,31.810468]}},{"type":"Feature","properties":{"osm_id":"9328009797","station_name":"薛河","element_type":"node","station_id":"9328009797"},"geometry":{"type":"Point","coordinates":[117.263399,31.809686]}},{"type":"Feature","properties":{"osm_id":"9328009769","station_name":"竹西","element_type":"node","station_id":"9328009769"},"geometry":{"type":"Point","coordinates":[117.270934,31.805221]}},{"type":"Feature","properties":{"osm_id":"9328009739","station_name":"淝南","element_type":"node","station_id":"9328009739"},"geometry":{"type":"Point","coordinates":[117.275611,31.801662]}},{"type":"Feature","properties":{"osm_id":"9327972784","station_name":"合肥南站","element_type":"node","station_id":"9327972784"},"geometry":{"type":"Point","coordinates":[117.284618,31.801146]}},{"type":"Feature","properties":{"osm_id":"9328009722","station_name":"望湖城南","element_type":"node","station_id":"9328009722"},"geometry":{"type":"Point","coordinates":[117.296734,31.806775]}},{"type":"Feature","properties":{"osm_id":"9328009712","station_name":"葛大店南","element_type":"node","station_id":"9328009712"},"geometry":{"type":"Point","coordinates":[117.307704,31.8108]}},{"type":"Feature","properties":{"osm_id":"9328009677","station_name":"工经学院","element_type":"node","station_id":"9328009677"},"geometry":{"type":"Point","coordinates":[117.320288,31.816912]}},{"type":"Feature","properties":{"osm_id":"9328009674","station_name":"尧渡河路","element_type":"node","station_id":"9328009674"},"geometry":{"type":"Point","coordinates":[117.318692,31.826967]}},{"type":"Feature","properties":{"osm_id":"9328009656","station_name":"五里庙","element_type":"node","station_id":"9328009656"},"geometry":{"type":"Point","coordinates":[117.318467,31.839256]}},{"type":"Feature","properties":{"osm_id":"9328009645","station_name":"唐桥","element_type":"node","station_id":"9328009645"},"geometry":{"type":"Point","coordinates":[117.330055,31.856046]}},{"type":"Feature","properties":{"osm_id":"9328009628","station_name":"站塘","element_type":"node","station_id":"9328009628"},"geometry":{"type":"Point","coordinates":[117.33524,31.877889]}},{"type":"Feature","properties":{"osm_id":"9327972810","station_name":"新海公园","element_type":"node","station_id":"9327972810"},"geometry":{"type":"Point","coordinates":[117.337118,31.898585]}},{"type":"Feature","properties":{"osm_id":"9340994413","station_name":"十里村","element_type":"node","station_id":"9340994413"},"geometry":{"type":"Point","coordinates":[117.341868,31.906689]}},{"type":"Feature","properties":{"osm_id":"9340996363","station_name":"陶冲湖东","element_type":"node","station_id":"9340996363"},"geometry":{"type":"Point","coordinates":[117.339653,31.928405]}},{"type":"Feature","properties":{"osm_id":"9340996365","station_name":"安医一附院北区","element_type":"node","station_id":"9340996365"},"geometry":{"type":"Point","coordinates":[117.343286,31.938894]}},{"type":"Feature","properties":{"osm_id":"9340996367","station_name":"综保区","element_type":"node","station_id":"9340996367"},"geometry":{"type":"Point","coordinates":[117.348368,31.952785]}},{"type":"Feature","properties":{"osm_id":"8478652674","station_name":"贵阳路","element_type":"node","station_id":"8478652674"},"geometry":{"type":"Point","coordinates":[117.258635,31.701246]}},{"type":"Feature","properties":{"osm_id":"8478652683","station_name":"滨湖竹园","element_type":"node","station_id":"8478652683"},"geometry":{"type":"Point","coordinates":[117.258677,31.711415]}},{"type":"Feature","properties":{"osm_id":"8478652654","station_name":"云川公园","element_type":"node","station_id":"8478652654"},"geometry":{"type":"Point","coordinates":[117.269972,31.715095]}},{"type":"Feature","properties":{"osm_id":"8478652647","station_name":"清水冲","element_type":"node","station_id":"8478652647"},"geometry":{"type":"Point","coordinates":[117.280668,31.715078]}},{"type":"Feature","properties":{"osm_id":"8478652645","station_name":"云谷路","element_type":"node","station_id":"8478652645"},"geometry":{"type":"Point","coordinates":[117.296563,31.715085]}},{"type":"Feature","properties":{"osm_id":"8478652664","station_name":"华山路","element_type":"node","station_id":"8478652664"},"geometry":{"type":"Point","coordinates":[117.305512,31.715056]}},{"type":"Feature","properties":{"osm_id":"8478652690","station_name":"沈湾","element_type":"node","station_id":"8478652690"},"geometry":{"type":"Point","coordinates":[117.313942,31.715041]}},{"type":"Feature","properties":{"osm_id":"8478652700","station_name":"渡江纪念馆","element_type":"node","station_id":"8478652700"},"geometry":{"type":"Point","coordinates":[117.32457,31.715019]}},{"type":"Feature","properties":{"osm_id":"8478652710","station_name":"方兴湖","element_type":"node","station_id":"8478652710"},"geometry":{"type":"Point","coordinates":[117.333085,31.720153]}},{"type":"Feature","properties":{"osm_id":"8478659517","station_name":"省政务中心东","element_type":"node","station_id":"8478659517"},"geometry":{"type":"Point","coordinates":[117.333127,31.733271]}},{"type":"Feature","properties":{"osm_id":"8478659527","station_name":"义城","element_type":"node","station_id":"8478659527"},"geometry":{"type":"Point","coordinates":[117.333173,31.74272]}},{"type":"Feature","properties":{"osm_id":"8478652707","station_name":"扬子江路","element_type":"node","station_id":"8478652707"},"geometry":{"type":"Point","coordinates":[117.333206,31.754764]}},{"type":"Feature","properties":{"osm_id":"8478659543","station_name":"黄河路","element_type":"node","station_id":"8478659543"},"geometry":{"type":"Point","coordinates":[117.328676,31.767704]}},{"type":"Feature","properties":{"osm_id":"8478659540","station_name":"花园大道","element_type":"node","station_id":"8478659540"},"geometry":{"type":"Point","coordinates":[117.328669,31.775305]}},{"type":"Feature","properties":{"osm_id":"8478659546","station_name":"大连路","element_type":"node","station_id":"8478659546"},"geometry":{"type":"Point","coordinates":[117.326683,31.787567]}},{"type":"Feature","properties":{"osm_id":"8478659553","station_name":"义兴","element_type":"node","station_id":"8478659553"},"geometry":{"type":"Point","coordinates":[117.319144,31.796588]}},{"type":"Feature","properties":{"osm_id":"8478659554","station_name":"包河苑","element_type":"node","station_id":"8478659554"},"geometry":{"type":"Point","coordinates":[117.311692,31.795768]}},{"type":"Feature","properties":{"osm_id":"8478659556","station_name":"盛大","element_type":"node","station_id":"8478659556"},"geometry":{"type":"Point","coordinates":[117.296427,31.794655]}},{"type":"Feature","properties":{"osm_id":"8478659561","station_name":"望湖城西","element_type":"node","station_id":"8478659561"},"geometry":{"type":"Point","coordinates":[117.283148,31.811114]}},{"type":"Feature","properties":{"osm_id":"8480149178","station_name":"凌大塘","element_type":"node","station_id":"8480149178"},"geometry":{"type":"Point","coordinates":[117.271072,31.816223]}},{"type":"Feature","properties":{"osm_id":"8480149175","station_name":"休宁路","element_type":"node","station_id":"8480149175"},"geometry":{"type":"Point","coordinates":[117.263513,31.820466]}},{"type":"Feature","properties":{"osm_id":"8478659810","station_name":"市第三医院","element_type":"node","station_id":"8478659810"},"geometry":{"type":"Point","coordinates":[117.265191,31.8306]}},{"type":"Feature","properties":{"osm_id":"8480149132","station_name":"中国科大东区","element_type":"node","station_id":"8480149132"},"geometry":{"type":"Point","coordinates":[117.267571,31.843837]}},{"type":"Feature","properties":{"osm_id":"8480149130","station_name":"稻香楼","element_type":"node","station_id":"8480149130"},"geometry":{"type":"Point","coordinates":[117.268451,31.851362]}},{"type":"Feature","properties":{"osm_id":"8480149129","station_name":"杏花公园","element_type":"node","station_id":"8480149129"},"geometry":{"type":"Point","coordinates":[117.273097,31.873053]}},{"type":"Feature","properties":{"osm_id":"8480149116","station_name":"白水坝","element_type":"node","station_id":"8480149116"},"geometry":{"type":"Point","coordinates":[117.272974,31.881539]}},{"type":"Feature","properties":{"osm_id":"8480149118","station_name":"北五里井","element_type":"node","station_id":"8480149118"},"geometry":{"type":"Point","coordinates":[117.270103,31.899529]}},{"type":"Feature","properties":{"osm_id":"8480149121","station_name":"菱湖公园","element_type":"node","station_id":"8480149121"},"geometry":{"type":"Point","coordinates":[117.266182,31.918983]}},{"type":"Feature","properties":{"osm_id":"10281993516","station_name":"六中菱湖校区","element_type":"node","station_id":"10281993516"},"geometry":{"type":"Point","coordinates":[117.265211,31.932085]}},{"type":"Feature","properties":{"osm_id":"8480149122","station_name":"汲桥路","element_type":"node","station_id":"8480149122"},"geometry":{"type":"Point","coordinates":[117.258318,31.943009]}},{"type":"Feature","properties":{"osm_id":"11013888994","station_name":"张洼","element_type":"node","station_id":"11013888994"},"geometry":{"type":"Point","coordinates":[117.316573,31.919996]}},{"type":"Feature","properties":{"osm_id":"11013888991","station_name":"兴华苑","element_type":"node","station_id":"11013888991"},"geometry":{"type":"Point","coordinates":[117.308131,31.905484]}},{"type":"Feature","properties":{"osm_id":"8506490051","station_name":"瑶海公园","element_type":"node","station_id":"8506490051"},"geometry":{"type":"Point","coordinates":[117.308822,31.892166]}},{"type":"Feature","properties":{"osm_id":"8506490064","station_name":"长淮","element_type":"node","station_id":"8506490064"},"geometry":{"type":"Point","coordinates":[117.303652,31.877419]}},{"type":"Feature","properties":{"osm_id":"8506490065","station_name":"明光路","element_type":"node","station_id":"8506490065"},"geometry":{"type":"Point","coordinates":[117.299339,31.87207]}},{"type":"Feature","properties":{"osm_id":"8506490080","station_name":"包公园","element_type":"node","station_id":"8506490080"},"geometry":{"type":"Point","coordinates":[117.295731,31.858152]}},{"type":"Feature","properties":{"osm_id":"8506490085","station_name":"合工大南区","element_type":"node","station_id":"8506490085"},"geometry":{"type":"Point","coordinates":[117.29513,31.849255]}},{"type":"Feature","properties":{"osm_id":"8506490090","station_name":"朱岗","element_type":"node","station_id":"8506490090"},"geometry":{"type":"Point","coordinates":[117.296244,31.834084]}},{"type":"Feature","properties":{"osm_id":"8506490095","station_name":"秋浦河路","element_type":"node","station_id":"8506490095"},"geometry":{"type":"Point","coordinates":[117.296612,31.825369]}},{"type":"Feature","properties":{"osm_id":"8506489782","station_name":"葛大店","element_type":"node","station_id":"8506489782"},"geometry":{"type":"Point","coordinates":[117.298018,31.816463]}},{"type":"Feature","properties":{"osm_id":"8506490140","station_name":"望湖城","element_type":"node","station_id":"8506490140"},"geometry":{"type":"Point","coordinates":[117.28682,31.807565]}},{"type":"Feature","properties":{"osm_id":"8506490156","station_name":"南站南广场","element_type":"node","station_id":"8506490156"},"geometry":{"type":"Point","coordinates":[117.285929,31.794546]}},{"type":"Feature","properties":{"osm_id":"8506490163","station_name":"骆岗","element_type":"node","station_id":"8506490163"},"geometry":{"type":"Point","coordinates":[117.285982,31.785089]}},{"type":"Feature","properties":{"osm_id":"8506490165","station_name":"高王","element_type":"node","station_id":"8506490165"},"geometry":{"type":"Point","coordinates":[117.285828,31.774932]}},{"type":"Feature","properties":{"osm_id":"8506490190","station_name":"滨湖会展中心","element_type":"node","station_id":"8506490190"},"geometry":{"type":"Point","coordinates":[117.297098,31.756571]}},{"type":"Feature","properties":{"osm_id":"8506490193","station_name":"紫庐","element_type":"node","station_id":"8506490193"},"geometry":{"type":"Point","coordinates":[117.297078,31.742794]}},{"type":"Feature","properties":{"osm_id":"8506490196","station_name":"塘西河公园","element_type":"node","station_id":"8506490196"},"geometry":{"type":"Point","coordinates":[117.297039,31.733332]}},{"type":"Feature","properties":{"osm_id":"8506490199","station_name":"金斗公园","element_type":"node","station_id":"8506490199"},"geometry":{"type":"Point","coordinates":[117.297068,31.724855]}},{"type":"Feature","properties":{"osm_id":"8506490207","station_name":"万达城","element_type":"node","station_id":"8506490207"},"geometry":{"type":"Point","coordinates":[117.29651,31.707742]}},{"type":"Feature","properties":{"osm_id":"8506490209","station_name":"万年埠","element_type":"node","station_id":"8506490209"},"geometry":{"type":"Point","coordinates":[117.296478,31.700559]}},{"type":"Feature","properties":{"osm_id":"8506490222","station_name":"丙子铺","element_type":"node","station_id":"8506490222"},"geometry":{"type":"Point","coordinates":[117.29194,31.693399]}},{"type":"Feature","properties":{"osm_id":"8506490223","station_name":"九联圩","element_type":"node","station_id":"8506490223"},"geometry":{"type":"Point","coordinates":[117.280737,31.693366]}},{"type":"Feature","properties":{"osm_id":"9328010144","station_name":"青龙岗","element_type":"node","station_id":"9328010144"},"geometry":{"type":"Point","coordinates":[117.082736,31.831595]}},{"type":"Feature","properties":{"osm_id":"9328010147","station_name":"合肥七中","element_type":"node","station_id":"9328010147"},"geometry":{"type":"Point","coordinates":[117.094826,31.831372]}},{"type":"Feature","properties":{"osm_id":"9328010150","station_name":"量子科学中心","element_type":"node","station_id":"9328010150"},"geometry":{"type":"Point","coordinates":[117.109712,31.831931]}},{"type":"Feature","properties":{"osm_id":"9328010152","station_name":"科大先研院","element_type":"node","station_id":"9328010152"},"geometry":{"type":"Point","coordinates":[117.128614,31.832092]}},{"type":"Feature","properties":{"osm_id":"8004298658","station_name":"开福寺","element_type":"node","station_id":"8004298658"},"geometry":{"type":"Point","coordinates":[117.17935,31.833664]}},{"type":"Feature","properties":{"osm_id":"8004298659","station_name":"梦城","element_type":"node","station_id":"8004298659"},"geometry":{"type":"Point","coordinates":[117.197358,31.834613]}},{"type":"Feature","properties":{"osm_id":"8004298660","station_name":"松荫桥","element_type":"node","station_id":"8004298660"},"geometry":{"type":"Point","coordinates":[117.216665,31.835405]}},{"type":"Feature","properties":{"osm_id":"8004298661","station_name":"炮兵学院","element_type":"node","station_id":"8004298661"},"geometry":{"type":"Point","coordinates":[117.240708,31.83266]}},{"type":"Feature","properties":{"osm_id":"8004298662","station_name":"南七里","element_type":"node","station_id":"8004298662"},"geometry":{"type":"Point","coordinates":[117.252402,31.832002]}},{"type":"Feature","properties":{"osm_id":"8004298664","station_name":"卫岗","element_type":"node","station_id":"8004298664"},"geometry":{"type":"Point","coordinates":[117.279856,31.832455]}},{"type":"Feature","properties":{"osm_id":"8004298669","station_name":"市儿童医院","element_type":"node","station_id":"8004298669"},"geometry":{"type":"Point","coordinates":[117.349865,31.837653]}},{"type":"Feature","properties":{"osm_id":"8004298670","station_name":"市博物馆","element_type":"node","station_id":"8004298670"},"geometry":{"type":"Point","coordinates":[117.361562,31.831959]}},{"type":"Feature","properties":{"osm_id":"8004298671","station_name":"钢红","element_type":"node","station_id":"8004298671"},"geometry":{"type":"Point","coordinates":[117.372411,31.82987]}},{"type":"Feature","properties":{"osm_id":"8004298672","station_name":"大兴集","element_type":"node","station_id":"8004298672"},"geometry":{"type":"Point","coordinates":[117.379883,31.837693]}},{"type":"Feature","properties":{"osm_id":"8004298673","station_name":"伏龙","element_type":"node","station_id":"8004298673"},"geometry":{"type":"Point","coordinates":[117.392864,31.839605]}},{"type":"Feature","properties":{"osm_id":"8004298657","station_name":"龙塘","element_type":"node","station_id":"8004298657"},"geometry":{"type":"Point","coordinates":[117.411437,31.838368]}},{"type":"Feature","properties":{"osm_id":"12437515566","station_name":"杏林","element_type":"node","station_id":"12437515566"},"geometry":{"type":"Point","coordinates":[117.278573,31.905428]}},{"type":"Feature","properties":{"osm_id":"12437515572","station_name":"庐阳经开区","element_type":"node","station_id":"12437515572"},"geometry":{"type":"Point","coordinates":[117.274619,31.925209]}},{"type":"Feature","properties":{"osm_id":"12437515638","station_name":"荷塘路","element_type":"node","station_id":"12437515638"},"geometry":{"type":"Point","coordinates":[117.254367,31.938108]}},{"type":"Feature","properties":{"osm_id":"12437515659","station_name":"双凤","element_type":"node","station_id":"12437515659"},"geometry":{"type":"Point","coordinates":[117.251566,31.958547]}},{"type":"Feature","properties":{"osm_id":"12437515673","station_name":"金梅路","element_type":"node","station_id":"12437515673"},"geometry":{"type":"Point","coordinates":[117.249437,31.977843]}},{"type":"Feature","properties":{"osm_id":"12437515680","station_name":"梅冲湖","element_type":"node","station_id":"12437515680"},"geometry":{"type":"Point","coordinates":[117.248532,31.996803]}},{"type":"Feature","properties":{"osm_id":"12437515691","station_name":"北城世纪城","element_type":"node","station_id":"12437515691"},"geometry":{"type":"Point","coordinates":[117.242536,32.013043]}},{"type":"Feature","properties":{"osm_id":"12437515731","station_name":"双墩","element_type":"node","station_id":"12437515731"},"geometry":{"type":"Point","coordinates":[117.24317,32.031553]}},{"type":"Feature","properties":{"osm_id":"12437515736","station_name":"省立医院北区","element_type":"node","station_id":"12437515736"},"geometry":{"type":"Point","coordinates":[117.240663,32.046567]}},{"type":"Feature","properties":{"osm_id":"12437515798","station_name":"北城高铁站","element_type":"node","station_id":"12437515798"},"geometry":{"type":"Point","coordinates":[117.250889,32.064789]}}]}