{"type":"FeatureCollection","generator":"metroOsmFetch (OpenStreetMap / Overpass, ODbL)","features":[{"type":"Feature","properties":{"route_company":"合肥軌道交通集團有限公司","route_id":"3","element_type":"way","color":"#098137","route_name":"合肥軌道交通3號線: 省兒童醫院新區→相城路","osm_id":"5964922","railway":"subway","status":"open"},"geometry":{"type":"LineString","coordinates":[[117.401958,31.926966],[117.391594,31.926968],[117.377557,31.927009],[117.366791,31.923223],[117.362656,31.911772],[117.355569,31.898933],[117.353531,31.892185],[117.346754,31.886888],[117.336545,31.886971],[117.325547,31.887214],[117.309869,31.885401],[117.302607,31.889616],[117.290539,31.889535],[117.281603,31.889578],[117.272849,31.888937],[117.262722,31.888773],[117.251392,31.888613],[117.240637,31.883024],[117.231204,31.872932],[117.225192,31.863708],[117.225331,31.854385],[117.225743,31.842899],[117.22598,31.834224],[117.226397,31.823677],[117.218496,31.816302],[117.210067,31.811089],[117.20982,31.802976],[117.204407,31.791804],[117.204366,31.784234],[117.204285,31.777012],[117.19966,31.7674],[117.186681,31.761258],[117.175512,31.753189],[117.163195,31.744007],[117.156872,31.725786],[117.150744,31.720468],[117.15181,31.711207],[117.160926,31.702599],[117.170329,31.696491],[117.170288,31.689197]]}},{"type":"Feature","properties":{"route_company":"合肥軌道交通集團有限公司","route_id":"2","element_type":"way","color":"#006bfa","route_name":"合肥軌道交通2號線: 南崗→撮鎮","osm_id":"5964585","railway":"subway","status":"open"},"geometry":{"type":"LineString","coordinates":[[117.110176,31.852525],[117.121394,31.852661],[117.130752,31.852939],[117.146154,31.853075],[117.16291,31.853374],[117.180469,31.853752],[117.19317,31.856015],[117.203777,31.857726],[117.217791,31.856621],[117.225331,31.854385],[117.235561,31.852912],[117.250506,31.856747],[117.259764,31.860161],[117.27008,31.863558],[117.284356,31.863636],[117.295585,31.866022],[117.308313,31.869616],[117.319171,31.869729],[117.331937,31.870156],[117.345936,31.869961],[117.361435,31.870197],[117.370088,31.870273],[117.383849,31.870622],[117.391552,31.870822],[117.414122,31.87379],[117.423925,31.875881],[117.437055,31.875762],[117.449666,31.874443],[117.466198,31.87707],[117.47514,31.872964],[117.480353,31.861364],[117.48663,31.853896],[117.486593,31.846688],[117.486529,31.835705],[117.486458,31.824397]]}},{"type":"Feature","properties":{"route_company":"合肥軌道交通集團有限公司","route_id":"4","element_type":"way","color":"#ff850d","route_name":"合肥軌道交通4號線: 綜保區→青龍崗","osm_id":"13536844","railway":"subway","status":"open"},"geometry":{"type":"LineString","coordinates":[[117.348308,31.952801],[117.343233,31.938909],[117.339594,31.928425],[117.341815,31.906718],[117.337059,31.898603],[117.336545,31.886971],[117.335185,31.877916],[117.331937,31.870156],[117.329994,31.856059],[117.318415,31.839287],[117.318658,31.826976],[117.320225,31.816905],[117.307685,31.810852],[117.296715,31.806827],[117.284684,31.801167],[117.275606,31.801716],[117.270998,31.805223],[117.263405,31.80974],[117.251973,31.810522],[117.243768,31.810673],[117.233061,31.811126],[117.22213,31.810273],[117.210067,31.811089],[117.192844,31.813647],[117.182212,31.818185],[117.170244,31.822641],[117.152181,31.822845],[117.13948,31.817775],[117.139651,31.804742],[117.132208,31.784374],[117.111211,31.784339],[117.086931,31.767796],[117.089223,31.761457],[117.09643,31.75717]]}},{"type":"Feature","properties":{"route_company":"合肥軌道交通集團有限公司","route_id":"5","element_type":"way","color":"#c1d522","route_name":"合肥軌道交通5號線: 貴陽路→汲橋路","osm_id":"12385669","railway":"subway","status":"open"},"geometry":{"type":"LineString","coordinates":[[117.258564,31.701247],[117.258606,31.711416],[117.269974,31.715155],[117.280669,31.715142],[117.296574,31.715119],[117.305512,31.715125],[117.313942,31.715105],[117.324571,31.715084],[117.333011,31.720153],[117.33305,31.733272],[117.33309,31.74272],[117.333136,31.754765],[117.328601,31.767704],[117.328593,31.775305],[117.326607,31.787551],[117.319152,31.796529],[117.311701,31.795705],[117.296414,31.794586],[117.284684,31.801167],[117.283091,31.811076],[117.271069,31.816174],[117.263444,31.820474],[117.265186,31.830631],[117.267539,31.843836],[117.26842,31.851371],[117.27008,31.863558],[117.273065,31.873057],[117.272942,31.881538],[117.272849,31.888937],[117.270072,31.899524],[117.266151,31.91898],[117.265204,31.932051],[117.258287,31.943004]]}},{"type":"Feature","properties":{"route_company":"合肥軌道交通集團有限公司","route_id":"1","element_type":"way","color":"#f50000","route_name":"合肥軌道交通1號線: 張窪→九聯圩","osm_id":"5964920","railway":"subway","status":"open"},"geometry":{"type":"LineString","coordinates":[[117.280737,31.693347],[117.29194,31.69338],[117.296501,31.700559],[117.296533,31.707741],[117.296574,31.715119],[117.297091,31.724855],[117.297062,31.733332],[117.297101,31.742794],[117.297121,31.756571],[117.285851,31.774933],[117.286005,31.785089],[117.285952,31.794545],[117.284684,31.801167],[117.286834,31.80755],[117.29804,31.816469],[117.296635,31.82537],[117.296254,31.834105],[117.295153,31.849255],[117.295753,31.858147],[117.295585,31.866022],[117.299358,31.872059],[117.303671,31.877409],[117.309869,31.885401],[117.308831,31.892184],[117.308153,31.905479],[117.316594,31.919989]]}},{"type":"Feature","properties":{"route_company":"合肥軌道交通集團有限公司","route_id":"6","element_type":"way","color":"#c99fcd","route_name":"合肥軌道交通6號線-上行","osm_id":"11747972","railway":"subway","status":"open"},"geometry":{"type":"LineString","coordinates":[[117.082736,31.831649],[117.094826,31.831426],[117.109713,31.831985],[117.128613,31.832146],[117.152181,31.822845],[117.17935,31.833689],[117.197357,31.834681],[117.216679,31.835476],[117.22598,31.834224],[117.240715,31.832693],[117.252409,31.832042],[117.265186,31.830631],[117.279841,31.832475],[117.296254,31.834105],[117.318658,31.826976],[117.349877,31.837674],[117.361593,31.831984],[117.372435,31.829903],[117.379845,31.837699],[117.392868,31.839641],[117.411446,31.838405]]}},{"type":"Feature","properties":{"route_company":"合肥軌道交通集團有限公司","route_id":"8","element_type":"way","color":"#64aee3","route_name":"合肥軌道交通8號線：一里井→北城高鐵站","osm_id":"11755282","railway":"subway","status":"open"},"geometry":{"type":"LineString","coordinates":[[117.281603,31.889578],[117.27851,31.90542],[117.274557,31.925197],[117.265204,31.932051],[117.254303,31.938108],[117.251504,31.958557],[117.249373,31.977842],[117.248469,31.996796],[117.242474,32.013031],[117.243109,32.031539],[117.2406,32.046559],[117.250826,32.06478]]}},{"type":"Feature","properties":{"osm_id":"8478659971","station_name":"相城路","element_type":"node","station_id":"8478659971"},"geometry":{"type":"Point","coordinates":[117.401958,31.926966]}},{"type":"Feature","properties":{"osm_id":"8478659973","station_name":"職教城東","element_type":"node","station_id":"8478659973"},"geometry":{"type":"Point","coordinates":[117.391594,31.926968]}},{"type":"Feature","properties":{"osm_id":"8478659967","station_name":"職教城","element_type":"node","station_id":"8478659967"},"geometry":{"type":"Point","coordinates":[117.377557,31.927009]}},{"type":"Feature","properties":{"osm_id":"8478659969","station_name":"幼兒師範","element_type":"node","station_id":"8478659969"},"geometry":{"type":"Point","coordinates":[117.366791,31.923223]}},{"type":"Feature","properties":{"osm_id":"8480148817","station_name":"文澮苑","element_type":"node","station_id":"8480148817"},"geometry":{"type":"Point","coordinates":[117.362656,31.911772]}},{"type":"Feature","properties":{"osm_id":"8480148813","station_name":"勤勞村","element_type":"node","station_id":"8480148813"},"geometry":{"type":"Point","coordinates":[117.355569,31.898933]}},{"type":"Feature","properties":{"osm_id":"8480148805","station_name":"新海大道","element_type":"node","station_id":"8480148805"},"geometry":{"type":"Point","coordinates":[117.353531,31.892185]}},{"type":"Feature","properties":{"osm_id":"8480148791","station_name":"竇橋灣","element_type":"node","station_id":"8480148791"},"geometry":{"type":"Point","coordinates":[117.346754,31.886888]}},{"type":"Feature","properties":{"osm_id":"8480148788","station_name":"方廟","element_type":"node","station_id":"8480148788"},"geometry":{"type":"Point","coordinates":[117.336545,31.886971]}},{"type":"Feature","properties":{"osm_id":"8480148786","station_name":"竹絲灘","element_type":"node","station_id":"8480148786"},"geometry":{"type":"Point","coordinates":[117.325547,31.887214]}},{"type":"Feature","properties":{"osm_id":"8480148763","station_name":"合肥火車站","element_type":"node","station_id":"8480148763"},"geometry":{"type":"Point","coordinates":[117.309869,31.885401]}},{"type":"Feature","properties":{"osm_id":"8480148757","station_name":"鴨林沖","element_type":"node","station_id":"8480148757"},"geometry":{"type":"Point","coordinates":[117.302607,31.889616]}},{"type":"Feature","properties":{"osm_id":"8480148743","station_name":"淮南路","element_type":"node","station_id":"8480148743"},"geometry":{"type":"Point","coordinates":[117.290539,31.889535]}},{"type":"Feature","properties":{"osm_id":"8480148739","station_name":"一里井","element_type":"node","station_id":"8480148739"},"geometry":{"type":"Point","coordinates":[117.281603,31.889578]}},{"type":"Feature","properties":{"osm_id":"8480148737","station_name":"海棠","element_type":"node","station_id":"8480148737"},"geometry":{"type":"Point","coordinates":[117.272849,31.888937]}},{"type":"Feature","properties":{"osm_id":"8480148734","station_name":"鄭河","element_type":"node","station_id":"8480148734"},"geometry":{"type":"Point","coordinates":[117.262722,31.888773]}},{"type":"Feature","properties":{"osm_id":"8480148729","station_name":"四泉橋","element_type":"node","station_id":"8480148729"},"geometry":{"type":"Point","coordinates":[117.251392,31.888613]}},{"type":"Feature","properties":{"osm_id":"8480148714","station_name":"杏花村","element_type":"node","station_id":"8480148714"},"geometry":{"type":"Point","coordinates":[117.240637,31.883024]}},{"type":"Feature","properties":{"osm_id":"8480148707","station_name":"合肥西站","element_type":"node","station_id":"8480148707"},"geometry":{"type":"Point","coordinates":[117.231204,31.872932]}},{"type":"Feature","properties":{"osm_id":"8480148692","station_name":"南新莊","element_type":"node","station_id":"8480148692"},"geometry":{"type":"Point","coordinates":[117.225192,31.863708]}},{"type":"Feature","properties":{"osm_id":"8480148690","station_name":"西七里塘","element_type":"node","station_id":"8480148690"},"geometry":{"type":"Point","coordinates":[117.225331,31.854385]}},{"type":"Feature","properties":{"osm_id":"8480148689","station_name":"國防科技大學","element_type":"node","station_id":"8480148689"},"geometry":{"type":"Point","coordinates":[117.225743,31.842899]}},{"type":"Feature","properties":{"osm_id":"8480148687","station_name":"洪崗","element_type":"node","station_id":"8480148687"},"geometry":{"type":"Point","coordinates":[117.22598,31.834224]}},{"type":"Feature","properties":{"osm_id":"8480148686","station_name":"市政務中心","element_type":"node","station_id":"8480148686"},"geometry":{"type":"Point","coordinates":[117.226397,31.823677]}},{"type":"Feature","properties":{"osm_id":"8480148669","station_name":"合肥大劇院","element_type":"node","station_id":"8480148669"},"geometry":{"type":"Point","coordinates":[117.218496,31.816302]}},{"type":"Feature","properties":{"osm_id":"8480148655","station_name":"圖書館","element_type":"node","station_id":"8480148655"},"geometry":{"type":"Point","coordinates":[117.210067,31.811089]}},{"type":"Feature","properties":{"osm_id":"8480148651","station_name":"省博物館","element_type":"node","station_id":"8480148651"},"geometry":{"type":"Point","coordinates":[117.20982,31.802976]}},{"type":"Feature","properties":{"osm_id":"8480148635","station_name":"安醫大二附院","element_type":"node","station_id":"8480148635"},"geometry":{"type":"Point","coordinates":[117.204407,31.791804]}},{"type":"Feature","properties":{"osm_id":"8480148632","station_name":"繁華大道","element_type":"node","station_id":"8480148632"},"geometry":{"type":"Point","coordinates":[117.204366,31.784234]}},{"type":"Feature","properties":{"osm_id":"8480148629","station_name":"大學城北","element_type":"node","station_id":"8480148629"},"geometry":{"type":"Point","coordinates":[117.204285,31.777012]}},{"type":"Feature","properties":{"osm_id":"8480125216","station_name":"工大翡翠湖校區","element_type":"node","station_id":"8480125216"},"geometry":{"type":"Point","coordinates":[117.19966,31.7674]}},{"type":"Feature","properties":{"osm_id":"8480125204","station_name":"安大磬苑校區","element_type":"node","station_id":"8480125204"},"geometry":{"type":"Point","coordinates":[117.186681,31.761258]}},{"type":"Feature","properties":{"osm_id":"8480125200","station_name":"幸福壩","element_type":"node","station_id":"8480125200"},"geometry":{"type":"Point","coordinates":[117.175512,31.753189]}},{"type":"Feature","properties":{"osm_id":"11472959424","station_name":"安醫一附院南區","element_type":"node","station_id":"11472959424"},"geometry":{"type":"Point","coordinates":[117.163195,31.744007]}},{"type":"Feature","properties":{"osm_id":"11472959369","station_name":"涼亭","element_type":"node","station_id":"11472959369"},"geometry":{"type":"Point","coordinates":[117.156872,31.725786]}},{"type":"Feature","properties":{"osm_id":"11472959365","station_name":"李灣","element_type":"node","station_id":"11472959365"},"geometry":{"type":"Point","coordinates":[117.150744,31.720468]}},{"type":"Feature","properties":{"osm_id":"11472959346","station_name":"四十埠","element_type":"node","station_id":"11472959346"},"geometry":{"type":"Point","coordinates":[117.15181,31.711207]}},{"type":"Feature","properties":{"osm_id":"11472959340","station_name":"芮祠","element_type":"node","station_id":"11472959340"},"geometry":{"type":"Point","coordinates":[117.160926,31.702599]}},{"type":"Feature","properties":{"osm_id":"11472959332","station_name":"樂平","element_type":"node","station_id":"11472959332"},"geometry":{"type":"Point","coordinates":[117.170329,31.696491]}},{"type":"Feature","properties":{"osm_id":"11472959331","station_name":"省兒童醫院新區","element_type":"node","station_id":"11472959331"},"geometry":{"type":"Point","coordinates":[117.170288,31.689197]}},{"type":"Feature","properties":{"osm_id":"8554374529","station_name":"南崗","element_type":"node","station_id":"8554374529"},"geometry":{"type":"Point","coordinates":[117.110176,31.852525]}},{"type":"Feature","properties":{"osm_id":"8554374514","station_name":"桂莊","element_type":"node","station_id":"8554374514"},"geometry":{"type":"Point","coordinates":[117.121394,31.852661]}},{"type":"Feature","properties":{"osm_id":"8554374511","station_name":"汽車西站","element_type":"node","station_id":"8554374511"},"geometry":{"type":"Point","coordinates":[117.130752,31.852939]}},{"type":"Feature","properties":{"osm_id":"8554374508","station_name":"振興路","element_type":"node","station_id":"8554374508"},"geometry":{"type":"Point","coordinates":[117.146154,31.853075]}},{"type":"Feature","properties":{"osm_id":"8554374506","station_name":"蜀山西","element_type":"node","station_id":"8554374506"},"geometry":{"type":"Point","coordinates":[117.16291,31.853374]}},{"type":"Feature","properties":{"osm_id":"8554374497","station_name":"大蜀山","element_type":"node","station_id":"8554374497"},"geometry":{"type":"Point","coordinates":[117.180469,31.853752]}},{"type":"Feature","properties":{"osm_id":"8554374494","station_name":"天柱路","element_type":"node","station_id":"8554374494"},"geometry":{"type":"Point","coordinates":[117.19317,31.856015]}},{"type":"Feature","properties":{"osm_id":"8554374491","station_name":"科學大道","element_type":"node","station_id":"8554374491"},"geometry":{"type":"Point","coordinates":[117.203777,31.857726]}},{"type":"Feature","properties":{"osm_id":"8554374477","station_name":"十里廟","element_type":"node","station_id":"8554374477"},"geometry":{"type":"Point","coordinates":[117.217791,31.856621]}},{"type":"Feature","properties":{"osm_id":"8554374465","station_name":"五里墩","element_type":"node","station_id":"8554374465"},"geometry":{"type":"Point","coordinates":[117.235561,31.852912]}},{"type":"Feature","properties":{"osm_id":"8554374454","station_name":"三里庵","element_type":"node","station_id":"8554374454"},"geometry":{"type":"Point","coordinates":[117.250506,31.856747]}},{"type":"Feature","properties":{"osm_id":"8554374451","station_name":"安農大","element_type":"node","station_id":"8554374451"},"geometry":{"type":"Point","coordinates":[117.259764,31.860161]}},{"type":"Feature","properties":{"osm_id":"8554374445","station_name":"三孝口","element_type":"node","station_id":"8554374445"},"geometry":{"type":"Point","coordinates":[117.27008,31.863558]}},{"type":"Feature","properties":{"osm_id":"8554374435","station_name":"四牌樓","element_type":"node","station_id":"8554374435"},"geometry":{"type":"Point","coordinates":[117.284356,31.863636]}},{"type":"Feature","properties":{"osm_id":"8554374424","station_name":"大東門","element_type":"node","station_id":"8554374424"},"geometry":{"type":"Point","coordinates":[117.295585,31.866022]}},{"type":"Feature","properties":{"osm_id":"8554374414","station_name":"三里街","element_type":"node","station_id":"8554374414"},"geometry":{"type":"Point","coordinates":[117.308313,31.869616]}},{"type":"Feature","properties":{"osm_id":"8554374408","station_name":"東五里井","element_type":"node","station_id":"8554374408"},"geometry":{"type":"Point","coordinates":[117.319171,31.869729]}},{"type":"Feature","properties":{"osm_id":"8554374403","station_name":"東七里","element_type":"node","station_id":"8554374403"},"geometry":{"type":"Point","coordinates":[117.331937,31.870156]}},{"type":"Feature","properties":{"osm_id":"8554374400","station_name":"漕衝","element_type":"node","station_id":"8554374400"},"geometry":{"type":"Point","coordinates":[117.345936,31.869961]}},{"type":"Feature","properties":{"osm_id":"8554374397","station_name":"東二十埠","element_type":"node","station_id":"8554374397"},"geometry":{"type":"Point","coordinates":[117.361435,31.870197]}},{"type":"Feature","properties":{"osm_id":"8554374394","station_name":"龍崗","element_type":"node","station_id":"8554374394"},"geometry":{"type":"Point","coordinates":[117.370088,31.870273]}},{"type":"Feature","properties":{"osm_id":"8554374392","station_name":"王崗","element_type":"node","station_id":"8554374392"},"geometry":{"type":"Point","coordinates":[117.383849,31.870622]}},{"type":"Feature","properties":{"osm_id":"8554374387","station_name":"三十埠","element_type":"node","station_id":"8554374387"},"geometry":{"type":"Point","coordinates":[117.391552,31.870822]}},{"type":"Feature","properties":{"osm_id":"11455273525","station_name":"三十埠東","element_type":"node","station_id":"11455273525"},"geometry":{"type":"Point","coordinates":[117.414122,31.87379]}},{"type":"Feature","properties":{"osm_id":"11455273516","station_name":"祥和","element_type":"node","station_id":"11455273516"},"geometry":{"type":"Point","coordinates":[117.423925,31.875881]}},{"type":"Feature","properties":{"osm_id":"11455273506","station_name":"桂王","element_type":"node","station_id":"11455273506"},"geometry":{"type":"Point","coordinates":[117.437055,31.875762]}},{"type":"Feature","properties":{"osm_id":"11455273495","station_name":"對河","element_type":"node","station_id":"11455273495"},"geometry":{"type":"Point","coordinates":[117.449666,31.874443]}},{"type":"Feature","properties":{"osm_id":"11455273484","station_name":"店埠河","element_type":"node","station_id":"11455273484"},"geometry":{"type":"Point","coordinates":[117.466198,31.87707]}},{"type":"Feature","properties":{"osm_id":"11457499596","station_name":"排頭","element_type":"node","station_id":"11457499596"},"geometry":{"type":"Point","coordinates":[117.47514,31.872964]}},{"type":"Feature","properties":{"osm_id":"11457499595","station_name":"肥東站","element_type":"node","station_id":"11457499595"},"geometry":{"type":"Point","coordinates":[117.480353,31.861364]}},{"type":"Feature","properties":{"osm_id":"11457499594","station_name":"和睦湖","element_type":"node","station_id":"11457499594"},"geometry":{"type":"Point","coordinates":[117.48663,31.853896]}},{"type":"Feature","properties":{"osm_id":"11457499593","station_name":"馬橋","element_type":"node","station_id":"11457499593"},"geometry":{"type":"Point","coordinates":[117.486593,31.846688]}},{"type":"Feature","properties":{"osm_id":"11457499592","station_name":"南沙河","element_type":"node","station_id":"11457499592"},"geometry":{"type":"Point","coordinates":[117.486529,31.835705]}},{"type":"Feature","properties":{"osm_id":"11455567932","station_name":"撮鎮","element_type":"node","station_id":"11455567932"},"geometry":{"type":"Point","coordinates":[117.486458,31.824397]}},{"type":"Feature","properties":{"osm_id":"9340996367","station_name":"綜保區","element_type":"node","station_id":"9340996367"},"geometry":{"type":"Point","coordinates":[117.348308,31.952801]}},{"type":"Feature","properties":{"osm_id":"9340996365","station_name":"安醫一附院北區","element_type":"node","station_id":"9340996365"},"geometry":{"type":"Point","coordinates":[117.343233,31.938909]}},{"type":"Feature","properties":{"osm_id":"9340996363","station_name":"陶衝湖東","element_type":"node","station_id":"9340996363"},"geometry":{"type":"Point","coordinates":[117.339594,31.928425]}},{"type":"Feature","properties":{"osm_id":"9340994413","station_name":"十里村","element_type":"node","station_id":"9340994413"},"geometry":{"type":"Point","coordinates":[117.341815,31.906718]}},{"type":"Feature","properties":{"osm_id":"9327972810","station_name":"新海公園","element_type":"node","station_id":"9327972810"},"geometry":{"type":"Point","coordinates":[117.337059,31.898603]}},{"type":"Feature","properties":{"osm_id":"9328009628","station_name":"站塘","element_type":"node","station_id":"9328009628"},"geometry":{"type":"Point","coordinates":[117.335185,31.877916]}},{"type":"Feature","properties":{"osm_id":"9328009645","station_name":"唐橋","element_type":"node","station_id":"9328009645"},"geometry":{"type":"Point","coordinates":[117.329994,31.856059]}},{"type":"Feature","properties":{"osm_id":"9328009656","station_name":"五里廟","element_type":"node","station_id":"9328009656"},"geometry":{"type":"Point","coordinates":[117.318415,31.839287]}},{"type":"Feature","properties":{"osm_id":"9328009674","station_name":"堯渡河路","element_type":"node","station_id":"9328009674"},"geometry":{"type":"Point","coordinates":[117.318658,31.826976]}},{"type":"Feature","properties":{"osm_id":"9328009677","station_name":"工經學院","element_type":"node","station_id":"9328009677"},"geometry":{"type":"Point","coordinates":[117.320225,31.816905]}},{"type":"Feature","properties":{"osm_id":"9328009712","station_name":"葛大店南","element_type":"node","station_id":"9328009712"},"geometry":{"type":"Point","coordinates":[117.307685,31.810852]}},{"type":"Feature","properties":{"osm_id":"9328009722","station_name":"望湖城南","element_type":"node","station_id":"9328009722"},"geometry":{"type":"Point","coordinates":[117.296715,31.806827]}},{"type":"Feature","properties":{"osm_id":"9327972784","station_name":"合肥南站","element_type":"node","station_id":"9327972784"},"geometry":{"type":"Point","coordinates":[117.284684,31.801167]}},{"type":"Feature","properties":{"osm_id":"9328009739","station_name":"淝南","element_type":"node","station_id":"9328009739"},"geometry":{"type":"Point","coordinates":[117.275606,31.801716]}},{"type":"Feature","properties":{"osm_id":"9328009769","station_name":"竹西","element_type":"node","station_id":"9328009769"},"geometry":{"type":"Point","coordinates":[117.270998,31.805223]}},{"type":"Feature","properties":{"osm_id":"9328009797","station_name":"薛河","element_type":"node","station_id":"9328009797"},"geometry":{"type":"Point","coordinates":[117.263405,31.80974]}},{"type":"Feature","properties":{"osm_id":"9328009802","station_name":"南屏路","element_type":"node","station_id":"9328009802"},"geometry":{"type":"Point","coordinates":[117.251973,31.810522]}},{"type":"Feature","properties":{"osm_id":"9328009805","station_name":"姚公廟","element_type":"node","station_id":"9328009805"},"geometry":{"type":"Point","coordinates":[117.243768,31.810673]}},{"type":"Feature","properties":{"osm_id":"9328009808","station_name":"天鵝湖東","element_type":"node","station_id":"9328009808"},"geometry":{"type":"Point","coordinates":[117.233061,31.811126]}},{"type":"Feature","properties":{"osm_id":"9328009816","station_name":"天鵝湖","element_type":"node","station_id":"9328009816"},"geometry":{"type":"Point","coordinates":[117.22213,31.810273]}},{"type":"Feature","properties":{"osm_id":"9328009849","station_name":"柳樹塘","element_type":"node","station_id":"9328009849"},"geometry":{"type":"Point","coordinates":[117.192844,31.813647]}},{"type":"Feature","properties":{"osm_id":"9328009853","station_name":"金桂","element_type":"node","station_id":"9328009853"},"geometry":{"type":"Point","coordinates":[117.182212,31.818185]}},{"type":"Feature","properties":{"osm_id":"9328009863","station_name":"玉蘭大道","element_type":"node","station_id":"9328009863"},"geometry":{"type":"Point","coordinates":[117.170244,31.822641]}},{"type":"Feature","properties":{"osm_id":"11866001910","station_name":"北雁湖","element_type":"node","station_id":"11866001910"},"geometry":{"type":"Point","coordinates":[117.152181,31.822845]}},{"type":"Feature","properties":{"osm_id":"11866001975","station_name":"復興集","element_type":"node","station_id":"11866001975"},"geometry":{"type":"Point","coordinates":[117.13948,31.817775]}},{"type":"Feature","properties":{"osm_id":"11866001978","station_name":"長安集","element_type":"node","station_id":"11866001978"},"geometry":{"type":"Point","coordinates":[117.139651,31.804742]}},{"type":"Feature","properties":{"osm_id":"11866002016","station_name":"桃花潭","element_type":"node","station_id":"11866002016"},"geometry":{"type":"Point","coordinates":[117.132208,31.784374]}},{"type":"Feature","properties":{"osm_id":"11866002155","station_name":"金小郢","element_type":"node","station_id":"11866002155"},"geometry":{"type":"Point","coordinates":[117.111211,31.784339]}},{"type":"Feature","properties":{"osm_id":"11866002115","station_name":"銅鑼寨路","element_type":"node","station_id":"11866002115"},"geometry":{"type":"Point","coordinates":[117.086931,31.767796]}},{"type":"Feature","properties":{"osm_id":"11866002107","station_name":"魏莊","element_type":"node","station_id":"11866002107"},"geometry":{"type":"Point","coordinates":[117.089223,31.761457]}},{"type":"Feature","properties":{"osm_id":"11866002085","station_name":"燒脈崗","element_type":"node","station_id":"11866002085"},"geometry":{"type":"Point","coordinates":[117.09643,31.75717]}},{"type":"Feature","properties":{"osm_id":"8478652674","station_name":"貴陽路","element_type":"node","station_id":"8478652674"},"geometry":{"type":"Point","coordinates":[117.258564,31.701247]}},{"type":"Feature","properties":{"osm_id":"8478652683","station_name":"濱湖竹園","element_type":"node","station_id":"8478652683"},"geometry":{"type":"Point","coordinates":[117.258606,31.711416]}},{"type":"Feature","properties":{"osm_id":"8478652654","station_name":"雲川公園","element_type":"node","station_id":"8478652654"},"geometry":{"type":"Point","coordinates":[117.269974,31.715155]}},{"type":"Feature","properties":{"osm_id":"8478652647","station_name":"清水衝","element_type":"node","station_id":"8478652647"},"geometry":{"type":"Point","coordinates":[117.280669,31.715142]}},{"type":"Feature","properties":{"osm_id":"8478652645","station_name":"雲谷路","element_type":"node","station_id":"8478652645"},"geometry":{"type":"Point","coordinates":[117.296574,31.715119]}},{"type":"Feature","properties":{"osm_id":"8478652664","station_name":"華山路","element_type":"node","station_id":"8478652664"},"geometry":{"type":"Point","coordinates":[117.305512,31.715125]}},{"type":"Feature","properties":{"osm_id":"8478652690","station_name":"沈灣","element_type":"node","station_id":"8478652690"},"geometry":{"type":"Point","coordinates":[117.313942,31.715105]}},{"type":"Feature","properties":{"osm_id":"8478652700","station_name":"渡江紀念館","element_type":"node","station_id":"8478652700"},"geometry":{"type":"Point","coordinates":[117.324571,31.715084]}},{"type":"Feature","properties":{"osm_id":"8478652710","station_name":"方興湖","element_type":"node","station_id":"8478652710"},"geometry":{"type":"Point","coordinates":[117.333011,31.720153]}},{"type":"Feature","properties":{"osm_id":"8478659517","station_name":"省政務中心東","element_type":"node","station_id":"8478659517"},"geometry":{"type":"Point","coordinates":[117.33305,31.733272]}},{"type":"Feature","properties":{"osm_id":"8478659527","station_name":"義城","element_type":"node","station_id":"8478659527"},"geometry":{"type":"Point","coordinates":[117.33309,31.74272]}},{"type":"Feature","properties":{"osm_id":"8478652707","station_name":"揚子江路","element_type":"node","station_id":"8478652707"},"geometry":{"type":"Point","coordinates":[117.333136,31.754765]}},{"type":"Feature","properties":{"osm_id":"8478659543","station_name":"黃河路","element_type":"node","station_id":"8478659543"},"geometry":{"type":"Point","coordinates":[117.328601,31.767704]}},{"type":"Feature","properties":{"osm_id":"8478659540","station_name":"花園大道","element_type":"node","station_id":"8478659540"},"geometry":{"type":"Point","coordinates":[117.328593,31.775305]}},{"type":"Feature","properties":{"osm_id":"8478659546","station_name":"大連路","element_type":"node","station_id":"8478659546"},"geometry":{"type":"Point","coordinates":[117.326607,31.787551]}},{"type":"Feature","properties":{"osm_id":"8478659553","station_name":"義興","element_type":"node","station_id":"8478659553"},"geometry":{"type":"Point","coordinates":[117.319152,31.796529]}},{"type":"Feature","properties":{"osm_id":"8478659554","station_name":"包河苑","element_type":"node","station_id":"8478659554"},"geometry":{"type":"Point","coordinates":[117.311701,31.795705]}},{"type":"Feature","properties":{"osm_id":"8478659556","station_name":"盛大","element_type":"node","station_id":"8478659556"},"geometry":{"type":"Point","coordinates":[117.296414,31.794586]}},{"type":"Feature","properties":{"osm_id":"8478659561","station_name":"望湖城西","element_type":"node","station_id":"8478659561"},"geometry":{"type":"Point","coordinates":[117.283091,31.811076]}},{"type":"Feature","properties":{"osm_id":"8480149178","station_name":"凌大塘","element_type":"node","station_id":"8480149178"},"geometry":{"type":"Point","coordinates":[117.271069,31.816174]}},{"type":"Feature","properties":{"osm_id":"8480149175","station_name":"休寧路","element_type":"node","station_id":"8480149175"},"geometry":{"type":"Point","coordinates":[117.263444,31.820474]}},{"type":"Feature","properties":{"osm_id":"8478659810","station_name":"市第三醫院","element_type":"node","station_id":"8478659810"},"geometry":{"type":"Point","coordinates":[117.265186,31.830631]}},{"type":"Feature","properties":{"osm_id":"8480149132","station_name":"中國科大東區","element_type":"node","station_id":"8480149132"},"geometry":{"type":"Point","coordinates":[117.267539,31.843836]}},{"type":"Feature","properties":{"osm_id":"8480149130","station_name":"稻香樓","element_type":"node","station_id":"8480149130"},"geometry":{"type":"Point","coordinates":[117.26842,31.851371]}},{"type":"Feature","properties":{"osm_id":"8480149129","station_name":"杏花公園","element_type":"node","station_id":"8480149129"},"geometry":{"type":"Point","coordinates":[117.273065,31.873057]}},{"type":"Feature","properties":{"osm_id":"8480149116","station_name":"白水壩","element_type":"node","station_id":"8480149116"},"geometry":{"type":"Point","coordinates":[117.272942,31.881538]}},{"type":"Feature","properties":{"osm_id":"8480149118","station_name":"北五里井","element_type":"node","station_id":"8480149118"},"geometry":{"type":"Point","coordinates":[117.270072,31.899524]}},{"type":"Feature","properties":{"osm_id":"8480149121","station_name":"菱湖公園","element_type":"node","station_id":"8480149121"},"geometry":{"type":"Point","coordinates":[117.266151,31.91898]}},{"type":"Feature","properties":{"osm_id":"10281993516","station_name":"六中菱湖校區","element_type":"node","station_id":"10281993516"},"geometry":{"type":"Point","coordinates":[117.265204,31.932051]}},{"type":"Feature","properties":{"osm_id":"8480149122","station_name":"汲橋路","element_type":"node","station_id":"8480149122"},"geometry":{"type":"Point","coordinates":[117.258287,31.943004]}},{"type":"Feature","properties":{"osm_id":"8506490223","station_name":"九聯圩","element_type":"node","station_id":"8506490223"},"geometry":{"type":"Point","coordinates":[117.280737,31.693347]}},{"type":"Feature","properties":{"osm_id":"8506490222","station_name":"丙子鋪","element_type":"node","station_id":"8506490222"},"geometry":{"type":"Point","coordinates":[117.29194,31.69338]}},{"type":"Feature","properties":{"osm_id":"8506490209","station_name":"萬年埠","element_type":"node","station_id":"8506490209"},"geometry":{"type":"Point","coordinates":[117.296501,31.700559]}},{"type":"Feature","properties":{"osm_id":"8506490207","station_name":"萬達城","element_type":"node","station_id":"8506490207"},"geometry":{"type":"Point","coordinates":[117.296533,31.707741]}},{"type":"Feature","properties":{"osm_id":"8506490199","station_name":"金斗公園","element_type":"node","station_id":"8506490199"},"geometry":{"type":"Point","coordinates":[117.297091,31.724855]}},{"type":"Feature","properties":{"osm_id":"8506490196","station_name":"塘西河公園","element_type":"node","station_id":"8506490196"},"geometry":{"type":"Point","coordinates":[117.297062,31.733332]}},{"type":"Feature","properties":{"osm_id":"8506490193","station_name":"紫廬","element_type":"node","station_id":"8506490193"},"geometry":{"type":"Point","coordinates":[117.297101,31.742794]}},{"type":"Feature","properties":{"osm_id":"8506490190","station_name":"濱湖會展中心","element_type":"node","station_id":"8506490190"},"geometry":{"type":"Point","coordinates":[117.297121,31.756571]}},{"type":"Feature","properties":{"osm_id":"8506490165","station_name":"高王","element_type":"node","station_id":"8506490165"},"geometry":{"type":"Point","coordinates":[117.285851,31.774933]}},{"type":"Feature","properties":{"osm_id":"8506490163","station_name":"駱崗","element_type":"node","station_id":"8506490163"},"geometry":{"type":"Point","coordinates":[117.286005,31.785089]}},{"type":"Feature","properties":{"osm_id":"8506490156","station_name":"南站南廣場","element_type":"node","station_id":"8506490156"},"geometry":{"type":"Point","coordinates":[117.285952,31.794545]}},{"type":"Feature","properties":{"osm_id":"8506490140","station_name":"望湖城","element_type":"node","station_id":"8506490140"},"geometry":{"type":"Point","coordinates":[117.286834,31.80755]}},{"type":"Feature","properties":{"osm_id":"8506489782","station_name":"葛大店","element_type":"node","station_id":"8506489782"},"geometry":{"type":"Point","coordinates":[117.29804,31.816469]}},{"type":"Feature","properties":{"osm_id":"8506490095","station_name":"秋浦河路","element_type":"node","station_id":"8506490095"},"geometry":{"type":"Point","coordinates":[117.296635,31.82537]}},{"type":"Feature","properties":{"osm_id":"8506490090","station_name":"朱崗","element_type":"node","station_id":"8506490090"},"geometry":{"type":"Point","coordinates":[117.296254,31.834105]}},{"type":"Feature","properties":{"osm_id":"8506490085","station_name":"合工大南區","element_type":"node","station_id":"8506490085"},"geometry":{"type":"Point","coordinates":[117.295153,31.849255]}},{"type":"Feature","properties":{"osm_id":"8506490080","station_name":"包公園","element_type":"node","station_id":"8506490080"},"geometry":{"type":"Point","coordinates":[117.295753,31.858147]}},{"type":"Feature","properties":{"osm_id":"8506490065","station_name":"明光路","element_type":"node","station_id":"8506490065"},"geometry":{"type":"Point","coordinates":[117.299358,31.872059]}},{"type":"Feature","properties":{"osm_id":"8506490064","station_name":"長淮","element_type":"node","station_id":"8506490064"},"geometry":{"type":"Point","coordinates":[117.303671,31.877409]}},{"type":"Feature","properties":{"osm_id":"8506490051","station_name":"瑤海公園","element_type":"node","station_id":"8506490051"},"geometry":{"type":"Point","coordinates":[117.308831,31.892184]}},{"type":"Feature","properties":{"osm_id":"11013888991","station_name":"興華苑","element_type":"node","station_id":"11013888991"},"geometry":{"type":"Point","coordinates":[117.308153,31.905479]}},{"type":"Feature","properties":{"osm_id":"11013888994","station_name":"張窪","element_type":"node","station_id":"11013888994"},"geometry":{"type":"Point","coordinates":[117.316594,31.919989]}},{"type":"Feature","properties":{"osm_id":"9328010144","station_name":"青龍崗","element_type":"node","station_id":"9328010144"},"geometry":{"type":"Point","coordinates":[117.082736,31.831649]}},{"type":"Feature","properties":{"osm_id":"9328010147","station_name":"合肥七中","element_type":"node","station_id":"9328010147"},"geometry":{"type":"Point","coordinates":[117.094826,31.831426]}},{"type":"Feature","properties":{"osm_id":"9328010150","station_name":"量子科學中心","element_type":"node","station_id":"9328010150"},"geometry":{"type":"Point","coordinates":[117.109713,31.831985]}},{"type":"Feature","properties":{"osm_id":"9328010152","station_name":"科大先研院","element_type":"node","station_id":"9328010152"},"geometry":{"type":"Point","coordinates":[117.128613,31.832146]}},{"type":"Feature","properties":{"osm_id":"8004298658","station_name":"開福寺","element_type":"node","station_id":"8004298658"},"geometry":{"type":"Point","coordinates":[117.17935,31.833689]}},{"type":"Feature","properties":{"osm_id":"8004298659","station_name":"夢城","element_type":"node","station_id":"8004298659"},"geometry":{"type":"Point","coordinates":[117.197357,31.834681]}},{"type":"Feature","properties":{"osm_id":"8004298660","station_name":"松蔭橋","element_type":"node","station_id":"8004298660"},"geometry":{"type":"Point","coordinates":[117.216679,31.835476]}},{"type":"Feature","properties":{"osm_id":"8004298661","station_name":"炮兵學院","element_type":"node","station_id":"8004298661"},"geometry":{"type":"Point","coordinates":[117.240715,31.832693]}},{"type":"Feature","properties":{"osm_id":"8004298662","station_name":"南七里","element_type":"node","station_id":"8004298662"},"geometry":{"type":"Point","coordinates":[117.252409,31.832042]}},{"type":"Feature","properties":{"osm_id":"8004298664","station_name":"衛崗","element_type":"node","station_id":"8004298664"},"geometry":{"type":"Point","coordinates":[117.279841,31.832475]}},{"type":"Feature","properties":{"osm_id":"8004298669","station_name":"市兒童醫院","element_type":"node","station_id":"8004298669"},"geometry":{"type":"Point","coordinates":[117.349877,31.837674]}},{"type":"Feature","properties":{"osm_id":"8004298670","station_name":"市博物館","element_type":"node","station_id":"8004298670"},"geometry":{"type":"Point","coordinates":[117.361593,31.831984]}},{"type":"Feature","properties":{"osm_id":"8004298671","station_name":"鋼紅","element_type":"node","station_id":"8004298671"},"geometry":{"type":"Point","coordinates":[117.372435,31.829903]}},{"type":"Feature","properties":{"osm_id":"8004298672","station_name":"大興集","element_type":"node","station_id":"8004298672"},"geometry":{"type":"Point","coordinates":[117.379845,31.837699]}},{"type":"Feature","properties":{"osm_id":"8004298673","station_name":"伏龍","element_type":"node","station_id":"8004298673"},"geometry":{"type":"Point","coordinates":[117.392868,31.839641]}},{"type":"Feature","properties":{"osm_id":"8004298657","station_name":"龍塘","element_type":"node","station_id":"8004298657"},"geometry":{"type":"Point","coordinates":[117.411446,31.838405]}},{"type":"Feature","properties":{"osm_id":"12437515566","station_name":"杏林","element_type":"node","station_id":"12437515566"},"geometry":{"type":"Point","coordinates":[117.27851,31.90542]}},{"type":"Feature","properties":{"osm_id":"12437515572","station_name":"廬陽經開區","element_type":"node","station_id":"12437515572"},"geometry":{"type":"Point","coordinates":[117.274557,31.925197]}},{"type":"Feature","properties":{"osm_id":"12437515638","station_name":"荷塘路","element_type":"node","station_id":"12437515638"},"geometry":{"type":"Point","coordinates":[117.254303,31.938108]}},{"type":"Feature","properties":{"osm_id":"12437515659","station_name":"雙鳳","element_type":"node","station_id":"12437515659"},"geometry":{"type":"Point","coordinates":[117.251504,31.958557]}},{"type":"Feature","properties":{"osm_id":"12437515673","station_name":"金梅路","element_type":"node","station_id":"12437515673"},"geometry":{"type":"Point","coordinates":[117.249373,31.977842]}},{"type":"Feature","properties":{"osm_id":"12437515680","station_name":"梅沖湖","element_type":"node","station_id":"12437515680"},"geometry":{"type":"Point","coordinates":[117.248469,31.996796]}},{"type":"Feature","properties":{"osm_id":"12437515691","station_name":"北城世紀城","element_type":"node","station_id":"12437515691"},"geometry":{"type":"Point","coordinates":[117.242474,32.013031]}},{"type":"Feature","properties":{"osm_id":"12437515731","station_name":"雙墩","element_type":"node","station_id":"12437515731"},"geometry":{"type":"Point","coordinates":[117.243109,32.031539]}},{"type":"Feature","properties":{"osm_id":"12437515736","station_name":"省立醫院北區","element_type":"node","station_id":"12437515736"},"geometry":{"type":"Point","coordinates":[117.2406,32.046559]}},{"type":"Feature","properties":{"osm_id":"12437515798","station_name":"北城高鐵站","element_type":"node","station_id":"12437515798"},"geometry":{"type":"Point","coordinates":[117.250826,32.06478]}}]}