{"type":"FeatureCollection","generator":"metroOsmFetch (OpenStreetMap / Overpass, ODbL)","features":[{"type":"Feature","properties":{"route_company":"呼和浩特市城市轨道交通建设管理有限责任公司","route_id":"2","element_type":"way","color":"#005bac","route_name":"呼和浩特地铁2号线（阿尔山路→塔利东路）","osm_id":"11697807","railway":"subway"},"geometry":{"type":"LineString","coordinates":[[111.74089,40.754194],[111.724408,40.754377],[111.700036,40.75443],[111.685729,40.757863],[111.680881,40.769714],[111.678267,40.775951],[111.674575,40.785038],[111.672937,40.797102],[111.669099,40.804574],[111.664154,40.814175],[111.661037,40.820134],[111.658976,40.8279],[111.655523,40.834994],[111.649291,40.849142],[111.657579,40.854506],[111.669572,40.856074],[111.684223,40.858027],[111.697762,40.860074],[111.711601,40.857935],[111.726034,40.857659],[111.740367,40.861032],[111.751743,40.863651],[111.758913,40.865818],[111.770054,40.867954]]}},{"type":"Feature","properties":{"route_company":"呼和浩特市城市轨道交通建设管理有限责任公司","route_id":"1","element_type":"way","color":"#e82311","route_name":"呼和浩特地铁1号线（伊利健康谷→坝堰（机场））","osm_id":"10454992","railway":"subway"},"geometry":{"type":"LineString","coordinates":[[111.568491,40.783539],[111.585813,40.793477],[111.597966,40.798541],[111.61016,40.803582],[111.625192,40.809911],[111.634323,40.813811],[111.648948,40.817487],[111.661037,40.820134],[111.669647,40.82195],[111.68167,40.824597],[111.692786,40.827445],[111.701911,40.829453],[111.713549,40.832034],[111.728565,40.835325],[111.740638,40.838006],[111.759792,40.845812],[111.774034,40.846397],[111.79369,40.850775],[111.804739,40.853351],[111.817847,40.856367]]}},{"type":"Feature","properties":{"osm_id":"12253356669","station_name":"阿尔山路","element_type":"node","station_id":"12253356669"},"geometry":{"type":"Point","coordinates":[111.74089,40.754194]}},{"type":"Feature","properties":{"osm_id":"12253357063","station_name":"喇嘛营","element_type":"node","station_id":"12253357063"},"geometry":{"type":"Point","coordinates":[111.724408,40.754377]}},{"type":"Feature","properties":{"osm_id":"12253357055","station_name":"帅家营","element_type":"node","station_id":"12253357055"},"geometry":{"type":"Point","coordinates":[111.700036,40.75443]}},{"type":"Feature","properties":{"osm_id":"12253357046","station_name":"内大南校区","element_type":"node","station_id":"12253357046"},"geometry":{"type":"Point","coordinates":[111.685729,40.757863]}},{"type":"Feature","properties":{"osm_id":"12253356654","station_name":"锡林公园","element_type":"node","station_id":"12253356654"},"geometry":{"type":"Point","coordinates":[111.680881,40.769714]}},{"type":"Feature","properties":{"osm_id":"12253356655","station_name":"五里营","element_type":"node","station_id":"12253356655"},"geometry":{"type":"Point","coordinates":[111.678267,40.775951]}},{"type":"Feature","properties":{"osm_id":"12253357041","station_name":"水上公园","element_type":"node","station_id":"12253357041"},"geometry":{"type":"Point","coordinates":[111.674575,40.785038]}},{"type":"Feature","properties":{"osm_id":"12253356646","station_name":"诺和木勒","element_type":"node","station_id":"12253356646"},"geometry":{"type":"Point","coordinates":[111.672937,40.797102]}},{"type":"Feature","properties":{"osm_id":"12253356644","station_name":"大学西街","element_type":"node","station_id":"12253356644"},"geometry":{"type":"Point","coordinates":[111.669099,40.804574]}},{"type":"Feature","properties":{"osm_id":"12253357032","station_name":"中山路","element_type":"node","station_id":"12253357032"},"geometry":{"type":"Point","coordinates":[111.664154,40.814175]}},{"type":"Feature","properties":{"osm_id":"12253357030","station_name":"新华广场","element_type":"node","station_id":"12253357030"},"geometry":{"type":"Point","coordinates":[111.661037,40.820134]}},{"type":"Feature","properties":{"osm_id":"12253357026","station_name":"呼和浩特站","element_type":"node","station_id":"12253357026"},"geometry":{"type":"Point","coordinates":[111.658976,40.8279]}},{"type":"Feature","properties":{"osm_id":"12253357013","station_name":"公主府","element_type":"node","station_id":"12253357013"},"geometry":{"type":"Point","coordinates":[111.655523,40.834994]}},{"type":"Feature","properties":{"osm_id":"12253357009","station_name":"呼和浩特体育场","element_type":"node","station_id":"12253357009"},"geometry":{"type":"Point","coordinates":[111.649291,40.849142]}},{"type":"Feature","properties":{"osm_id":"12253356641","station_name":"内蒙古体育馆","element_type":"node","station_id":"12253356641"},"geometry":{"type":"Point","coordinates":[111.657579,40.854506]}},{"type":"Feature","properties":{"osm_id":"12253356699","station_name":"成吉思汗广场","element_type":"node","station_id":"12253356699"},"geometry":{"type":"Point","coordinates":[111.669572,40.856074]}},{"type":"Feature","properties":{"osm_id":"12254720291","station_name":"豪沁营","element_type":"node","station_id":"12254720291"},"geometry":{"type":"Point","coordinates":[111.684223,40.858027]}},{"type":"Feature","properties":{"osm_id":"12254720293","station_name":"成吉思汗公园","element_type":"node","station_id":"12254720293"},"geometry":{"type":"Point","coordinates":[111.697762,40.860074]}},{"type":"Feature","properties":{"osm_id":"12254720295","station_name":"一家村","element_type":"node","station_id":"12254720295"},"geometry":{"type":"Point","coordinates":[111.711601,40.857935]}},{"type":"Feature","properties":{"osm_id":"12254720297","station_name":"丝绸之路大道","element_type":"node","station_id":"12254720297"},"geometry":{"type":"Point","coordinates":[111.726034,40.857659]}},{"type":"Feature","properties":{"osm_id":"12254742201","station_name":"北山公园","element_type":"node","station_id":"12254742201"},"geometry":{"type":"Point","coordinates":[111.740367,40.861032]}},{"type":"Feature","properties":{"osm_id":"12254720299","station_name":"百合路","element_type":"node","station_id":"12254720299"},"geometry":{"type":"Point","coordinates":[111.751743,40.863651]}},{"type":"Feature","properties":{"osm_id":"6769029068","station_name":"新店","element_type":"node","station_id":"6769029068"},"geometry":{"type":"Point","coordinates":[111.758913,40.865818]}},{"type":"Feature","properties":{"osm_id":"12253356671","station_name":"塔利东路","element_type":"node","station_id":"12253356671"},"geometry":{"type":"Point","coordinates":[111.770054,40.867954]}},{"type":"Feature","properties":{"osm_id":"7093521678","station_name":"伊利健康谷","element_type":"node","station_id":"7093521678"},"geometry":{"type":"Point","coordinates":[111.568491,40.783539]}},{"type":"Feature","properties":{"osm_id":"7095907391","station_name":"西二环路","element_type":"node","station_id":"7095907391"},"geometry":{"type":"Point","coordinates":[111.585813,40.793477]}},{"type":"Feature","properties":{"osm_id":"7097723896","station_name":"孔家营","element_type":"node","station_id":"7097723896"},"geometry":{"type":"Point","coordinates":[111.597966,40.798541]}},{"type":"Feature","properties":{"osm_id":"7097723897","station_name":"呼钢南路","element_type":"node","station_id":"7097723897"},"geometry":{"type":"Point","coordinates":[111.61016,40.803582]}},{"type":"Feature","properties":{"osm_id":"7097723903","station_name":"西龙王庙","element_type":"node","station_id":"7097723903"},"geometry":{"type":"Point","coordinates":[111.625192,40.809911]}},{"type":"Feature","properties":{"osm_id":"7098350517","station_name":"乌兰夫纪念馆站","element_type":"node","station_id":"7098350517"},"geometry":{"type":"Point","coordinates":[111.634323,40.813811]}},{"type":"Feature","properties":{"osm_id":"7098893395","station_name":"附属医院","element_type":"node","station_id":"7098893395"},"geometry":{"type":"Point","coordinates":[111.648948,40.817487]}},{"type":"Feature","properties":{"osm_id":"7098893410","station_name":"人民会堂","element_type":"node","station_id":"7098893410"},"geometry":{"type":"Point","coordinates":[111.669647,40.82195]}},{"type":"Feature","properties":{"osm_id":"7098893414","station_name":"将军衙署","element_type":"node","station_id":"7098893414"},"geometry":{"type":"Point","coordinates":[111.68167,40.824597]}},{"type":"Feature","properties":{"osm_id":"7098893466","station_name":"艺术学院","element_type":"node","station_id":"7098893466"},"geometry":{"type":"Point","coordinates":[111.692786,40.827445]}},{"type":"Feature","properties":{"osm_id":"7098893469","station_name":"东影路","element_type":"node","station_id":"7098893469"},"geometry":{"type":"Point","coordinates":[111.701911,40.829453]}},{"type":"Feature","properties":{"osm_id":"7098893467","station_name":"内蒙古展览馆","element_type":"node","station_id":"7098893467"},"geometry":{"type":"Point","coordinates":[111.713549,40.832034]}},{"type":"Feature","properties":{"osm_id":"7099913180","station_name":"内蒙古博物院","element_type":"node","station_id":"7099913180"},"geometry":{"type":"Point","coordinates":[111.728565,40.835325]}},{"type":"Feature","properties":{"osm_id":"7099913174","station_name":"市政府","element_type":"node","station_id":"7099913174"},"geometry":{"type":"Point","coordinates":[111.740638,40.838006]}},{"type":"Feature","properties":{"osm_id":"7099913163","station_name":"呼和浩特东站","element_type":"node","station_id":"7099913163"},"geometry":{"type":"Point","coordinates":[111.759792,40.845812]}},{"type":"Feature","properties":{"osm_id":"7099913151","station_name":"后不塔气","element_type":"node","station_id":"7099913151"},"geometry":{"type":"Point","coordinates":[111.774034,40.846397]}},{"type":"Feature","properties":{"osm_id":"7099913138","station_name":"什兰岱","element_type":"node","station_id":"7099913138"},"geometry":{"type":"Point","coordinates":[111.79369,40.850775]}},{"type":"Feature","properties":{"osm_id":"7099913135","station_name":"白塔西","element_type":"node","station_id":"7099913135"},"geometry":{"type":"Point","coordinates":[111.804739,40.853351]}},{"type":"Feature","properties":{"osm_id":"7099913133","station_name":"坝堰（机场）","element_type":"node","station_id":"7099913133"},"geometry":{"type":"Point","coordinates":[111.817847,40.856367]}}]}