{"type":"FeatureCollection","generator":"metroOsmFetch (OpenStreetMap / Overpass, ODbL)","features":[{"type":"Feature","properties":{"osm_id":"12253356669","station_name":"阿爾山路","element_type":"node","station_id":"12253356669"},"geometry":{"type":"Point","coordinates":[111.740914,40.754099]}},{"type":"Feature","properties":{"osm_id":"12253357063","station_name":"喇嘛營","element_type":"node","station_id":"12253357063"},"geometry":{"type":"Point","coordinates":[111.724376,40.754284]}},{"type":"Feature","properties":{"osm_id":"12253357055","station_name":"帥家營","element_type":"node","station_id":"12253357055"},"geometry":{"type":"Point","coordinates":[111.700069,40.754337]}},{"type":"Feature","properties":{"osm_id":"12253357046","station_name":"內大南校區","element_type":"node","station_id":"12253357046"},"geometry":{"type":"Point","coordinates":[111.685608,40.757832]}},{"type":"Feature","properties":{"osm_id":"12253356654","station_name":"錫林公園","element_type":"node","station_id":"12253356654"},"geometry":{"type":"Point","coordinates":[111.680755,40.769696]}},{"type":"Feature","properties":{"osm_id":"12253356655","station_name":"五里營","element_type":"node","station_id":"12253356655"},"geometry":{"type":"Point","coordinates":[111.678142,40.775929]}},{"type":"Feature","properties":{"osm_id":"12253357041","station_name":"水上公園","element_type":"node","station_id":"12253357041"},"geometry":{"type":"Point","coordinates":[111.674454,40.785009]}},{"type":"Feature","properties":{"osm_id":"12253356646","station_name":"諾和木勒","element_type":"node","station_id":"12253356646"},"geometry":{"type":"Point","coordinates":[111.672827,40.797053]}},{"type":"Feature","properties":{"osm_id":"12253356644","station_name":"大學西街","element_type":"node","station_id":"12253356644"},"geometry":{"type":"Point","coordinates":[111.66898,40.80454]}},{"type":"Feature","properties":{"osm_id":"12253357032","station_name":"中山路","element_type":"node","station_id":"12253357032"},"geometry":{"type":"Point","coordinates":[111.664035,40.81414]}},{"type":"Feature","properties":{"osm_id":"12253357030","station_name":"新華廣場","element_type":"node","station_id":"12253357030"},"geometry":{"type":"Point","coordinates":[111.660955,40.820165]}},{"type":"Feature","properties":{"osm_id":"12253357026","station_name":"呼和浩特站","element_type":"node","station_id":"12253357026"},"geometry":{"type":"Point","coordinates":[111.658851,40.827883]}},{"type":"Feature","properties":{"osm_id":"12253357013","station_name":"公主府","element_type":"node","station_id":"12253357013"},"geometry":{"type":"Point","coordinates":[111.655397,40.834978]}},{"type":"Feature","properties":{"osm_id":"12253357009","station_name":"呼和浩特體育場","element_type":"node","station_id":"12253357009"},"geometry":{"type":"Point","coordinates":[111.649168,40.849114]}},{"type":"Feature","properties":{"osm_id":"12253356641","station_name":"內蒙古體育館","element_type":"node","station_id":"12253356641"},"geometry":{"type":"Point","coordinates":[111.657551,40.8546]}},{"type":"Feature","properties":{"osm_id":"12253356699","station_name":"成吉思汗廣場","element_type":"node","station_id":"12253356699"},"geometry":{"type":"Point","coordinates":[111.66955,40.856169]}},{"type":"Feature","properties":{"osm_id":"12254720291","station_name":"豪沁營","element_type":"node","station_id":"12254720291"},"geometry":{"type":"Point","coordinates":[111.684193,40.858121]}},{"type":"Feature","properties":{"osm_id":"12254720293","station_name":"成吉思汗公園","element_type":"node","station_id":"12254720293"},"geometry":{"type":"Point","coordinates":[111.69779,40.860168]}},{"type":"Feature","properties":{"osm_id":"12254720295","station_name":"一家村","element_type":"node","station_id":"12254720295"},"geometry":{"type":"Point","coordinates":[111.711625,40.85803]}},{"type":"Feature","properties":{"osm_id":"12254720297","station_name":"絲綢之路大道","element_type":"node","station_id":"12254720297"},"geometry":{"type":"Point","coordinates":[111.725996,40.857752]}},{"type":"Feature","properties":{"osm_id":"12254742201","station_name":"北山公園","element_type":"node","station_id":"12254742201"},"geometry":{"type":"Point","coordinates":[111.740329,40.861124]}},{"type":"Feature","properties":{"osm_id":"12254720299","station_name":"百合路","element_type":"node","station_id":"12254720299"},"geometry":{"type":"Point","coordinates":[111.751703,40.863746]}},{"type":"Feature","properties":{"osm_id":"6769029068","station_name":"新店","element_type":"node","station_id":"6769029068"},"geometry":{"type":"Point","coordinates":[111.75887,40.865909]}},{"type":"Feature","properties":{"osm_id":"12253356671","station_name":"塔利東路","element_type":"node","station_id":"12253356671"},"geometry":{"type":"Point","coordinates":[111.770033,40.86805]}},{"type":"Feature","properties":{"osm_id":"7099913133","station_name":"壩堰（機場）","element_type":"node","station_id":"7099913133"},"geometry":{"type":"Point","coordinates":[111.817814,40.856423]}},{"type":"Feature","properties":{"osm_id":"7099913135","station_name":"白塔西","element_type":"node","station_id":"7099913135"},"geometry":{"type":"Point","coordinates":[111.804731,40.853367]}},{"type":"Feature","properties":{"osm_id":"7099913138","station_name":"什蘭岱","element_type":"node","station_id":"7099913138"},"geometry":{"type":"Point","coordinates":[111.793685,40.850787]}},{"type":"Feature","properties":{"osm_id":"7099913151","station_name":"後不塔氣","element_type":"node","station_id":"7099913151"},"geometry":{"type":"Point","coordinates":[111.773991,40.846528]}},{"type":"Feature","properties":{"osm_id":"7099913163","station_name":"呼和浩特東站","element_type":"node","station_id":"7099913163"},"geometry":{"type":"Point","coordinates":[111.759763,40.845888]}},{"type":"Feature","properties":{"osm_id":"7099913174","station_name":"市政府","element_type":"node","station_id":"7099913174"},"geometry":{"type":"Point","coordinates":[111.74058,40.838101]}},{"type":"Feature","properties":{"osm_id":"7099913180","station_name":"內蒙古博物院","element_type":"node","station_id":"7099913180"},"geometry":{"type":"Point","coordinates":[111.728534,40.83543]}},{"type":"Feature","properties":{"osm_id":"7098893467","station_name":"內蒙古展覽館","element_type":"node","station_id":"7098893467"},"geometry":{"type":"Point","coordinates":[111.713508,40.832131]}},{"type":"Feature","properties":{"osm_id":"7098893469","station_name":"東影路","element_type":"node","station_id":"7098893469"},"geometry":{"type":"Point","coordinates":[111.701867,40.829556]}},{"type":"Feature","properties":{"osm_id":"7098893466","station_name":"藝術學院","element_type":"node","station_id":"7098893466"},"geometry":{"type":"Point","coordinates":[111.692745,40.827551]}},{"type":"Feature","properties":{"osm_id":"7098893414","station_name":"將軍衙署","element_type":"node","station_id":"7098893414"},"geometry":{"type":"Point","coordinates":[111.681636,40.824679]}},{"type":"Feature","properties":{"osm_id":"7098893410","station_name":"人民會堂","element_type":"node","station_id":"7098893410"},"geometry":{"type":"Point","coordinates":[111.669597,40.822048]}},{"type":"Feature","properties":{"osm_id":"7098893395","station_name":"附屬醫院","element_type":"node","station_id":"7098893395"},"geometry":{"type":"Point","coordinates":[111.648937,40.817577]}},{"type":"Feature","properties":{"osm_id":"7098350517","station_name":"烏蘭夫紀念館站","element_type":"node","station_id":"7098350517"},"geometry":{"type":"Point","coordinates":[111.634297,40.813852]}},{"type":"Feature","properties":{"osm_id":"7097723903","station_name":"西龍王廟","element_type":"node","station_id":"7097723903"},"geometry":{"type":"Point","coordinates":[111.62514,40.809993]}},{"type":"Feature","properties":{"osm_id":"7097723897","station_name":"呼鋼南路","element_type":"node","station_id":"7097723897"},"geometry":{"type":"Point","coordinates":[111.61008,40.803693]}},{"type":"Feature","properties":{"osm_id":"7097723896","station_name":"孔家營","element_type":"node","station_id":"7097723896"},"geometry":{"type":"Point","coordinates":[111.597921,40.79861]}},{"type":"Feature","properties":{"osm_id":"7095907391","station_name":"西二環路","element_type":"node","station_id":"7095907391"},"geometry":{"type":"Point","coordinates":[111.58574,40.793584]}},{"type":"Feature","properties":{"osm_id":"7093521678","station_name":"伊利健康谷","element_type":"node","station_id":"7093521678"},"geometry":{"type":"Point","coordinates":[111.568491,40.783539]}},{"type":"Feature","properties":{"route_company":"呼和浩特市城市軌道交通建設管理有限責任公司","route_id":"2","element_type":"way","color":"#005bac","route_name":"呼和浩特地鐵2號線（阿爾山路→塔利東路）","osm_id":"11697807","railway":"subway","status":"open"},"geometry":{"type":"LineString","coordinates":[[111.740914,40.754099],[111.724376,40.754284],[111.700069,40.754337],[111.685608,40.757832],[111.680755,40.769696],[111.678142,40.775929],[111.674454,40.785009],[111.672827,40.797053],[111.66898,40.80454],[111.664035,40.81414],[111.660955,40.820165]]}},{"type":"Feature","properties":{"route_company":"呼和浩特市城市軌道交通建設管理有限責任公司","route_id":"2","element_type":"way","color":"#005bac","route_name":"呼和浩特地鐵2號線（阿爾山路→塔利東路）","osm_id":"11697807","railway":"subway","status":"open"},"geometry":{"type":"LineString","coordinates":[[111.660955,40.820165],[111.658851,40.827883],[111.655397,40.834978],[111.649168,40.849114],[111.657551,40.8546],[111.66955,40.856169],[111.684193,40.858121],[111.69779,40.860168],[111.711625,40.85803],[111.725996,40.857752],[111.740329,40.861124],[111.751703,40.863746],[111.75887,40.865909],[111.770033,40.86805]]}},{"type":"Feature","properties":{"route_company":"呼和浩特市城市軌道交通建設管理有限責任公司","route_id":"1","element_type":"way","color":"#e82311","route_name":"呼和浩特地鐵1號線（伊利健康谷→壩堰（機場））","osm_id":"10454992","railway":"subway","status":"open"},"geometry":{"type":"LineString","coordinates":[[111.817814,40.856423],[111.804731,40.853367],[111.793685,40.850787],[111.773991,40.846528],[111.759763,40.845888],[111.74058,40.838101],[111.728534,40.83543],[111.713508,40.832131],[111.701867,40.829556],[111.692745,40.827551],[111.681636,40.824679],[111.669597,40.822048],[111.660955,40.820165]]}},{"type":"Feature","properties":{"route_company":"呼和浩特市城市軌道交通建設管理有限責任公司","route_id":"1","element_type":"way","color":"#e82311","route_name":"呼和浩特地鐵1號線（伊利健康谷→壩堰（機場））","osm_id":"10454992","railway":"subway","status":"open"},"geometry":{"type":"LineString","coordinates":[[111.660955,40.820165],[111.648937,40.817577],[111.634297,40.813852],[111.62514,40.809993],[111.61008,40.803693],[111.597921,40.79861],[111.58574,40.793584],[111.568491,40.783539]]}}]}