{"type":"FeatureCollection","generator":"metroOsmFetch (OpenStreetMap / Overpass, ODbL)","features":[{"type":"Feature","properties":{"route_company":"香港鐵路有限公司 MTR Corporation","route_id":"TML","element_type":"way","color":"#923011","route_name":"港鐵屯馬綫 MTR Tuen Ma Line","osm_id":"6102298","railway":"subway","status":"open"},"geometry":{"type":"LineString","coordinates":[[113.973042,22.394426],[113.978005,22.411686],[114.005789,22.449236],[114.025433,22.447764],[114.034808,22.445764],[114.063469,22.434891],[114.110067,22.36822],[114.137897,22.338437],[114.153858,22.326417],[114.166706,22.304257],[114.175013,22.295647],[114.182266,22.303046],[114.182624,22.309421],[114.187558,22.316986],[114.191434,22.325876],[114.199349,22.330196],[114.2011,22.340022],[114.170773,22.363808],[114.17866,22.372939],[114.186095,22.374738],[114.194839,22.376837],[114.203784,22.383013],[114.208547,22.387789],[114.222844,22.408454],[114.225805,22.417438],[114.231813,22.424782],[114.243886,22.42908]]}},{"type":"Feature","properties":{"route_company":"香港鐵路有限公司 MTR Corporation","route_id":"KTL","element_type":"way","color":"#00ab4e","route_name":"港鐵觀塘綫 MTR Kwun Tong Line","osm_id":"272125","railway":"subway","status":"open"},"geometry":{"type":"LineString","coordinates":[[114.25233,22.304113],[114.237167,22.297828],[114.232898,22.306676],[114.22638,22.312157],[114.219145,22.315322],[114.214006,22.323379],[114.208486,22.335265],[114.2011,22.340022],[114.193205,22.341618],[114.185905,22.337504],[114.176571,22.336879],[114.168917,22.331059],[114.1683,22.324454],[114.169383,22.319252],[114.170664,22.313073],[114.182624,22.309421],[114.189646,22.304901]]}},{"type":"Feature","properties":{"route_company":"香港鐵路有限公司 MTR Corporation","route_id":"ISL","element_type":"way","color":"#007dc5","route_name":"港鐵港島綫 MTR Island Line","osm_id":"4432665","railway":"subway","status":"open"},"geometry":{"type":"LineString","coordinates":[[114.237052,22.264603],[114.239724,22.276619],[114.228818,22.279083],[114.222282,22.281624],[114.216143,22.284571],[114.208846,22.28865],[114.20047,22.290862],[114.193472,22.287507],[114.192033,22.282196],[114.184014,22.280102],[114.172964,22.277556],[114.165782,22.27882],[114.158597,22.281663],[114.152149,22.286503],[114.142781,22.285423],[114.135456,22.283964],[114.128455,22.281224]]}},{"type":"Feature","properties":{"route_company":"香港鐵路有限公司 MTR Corporation","route_id":"TWL","element_type":"way","color":"#ed1d24","route_name":"港鐵荃灣綫 MTR Tsuen Wan Line (南行 Southbound)","osm_id":"269669","railway":"subway","status":"open"},"geometry":{"type":"LineString","coordinates":[[114.117852,22.373658],[114.125116,22.370802],[114.131206,22.363027],[114.127856,22.356886],[114.126151,22.348456],[114.137897,22.338437],[114.148399,22.337443],[114.156174,22.335527],[114.162459,22.330633],[114.1683,22.324454],[114.169383,22.319252],[114.170664,22.313073],[114.171782,22.305109],[114.172297,22.297182],[114.165782,22.27882],[114.158597,22.281663]]}},{"type":"Feature","properties":{"route_company":"香港鐵路有限公司 MTR Corporation","route_id":"EAL","element_type":"way","color":"#53b7e8","route_name":"港鐵東鐵綫 MTR East Rail Line","osm_id":"4248589","railway":"subway","status":"open"},"geometry":{"type":"LineString","coordinates":[[114.065664,22.514563],[114.128076,22.501147],[114.138693,22.492118],[114.161234,22.450992],[114.170788,22.444758],[114.210055,22.413385],[114.198366,22.395337],[114.187642,22.38284],[114.17866,22.372939],[114.176571,22.336879],[114.172605,22.321953],[114.182266,22.303046],[114.175702,22.281665],[114.165782,22.27882]]}},{"type":"Feature","properties":{"route_company":"香港鐵路有限公司 MTR Corporation","route_id":"TCL","element_type":"way","color":"#f7943e","route_name":"東涌綫 Tung Chung Line","osm_id":"5317704","railway":"subway","status":"open"},"geometry":{"type":"LineString","coordinates":[[113.941322,22.289278],[114.02891,22.331809],[114.107426,22.358364],[114.126151,22.348456],[114.153858,22.326417],[114.160411,22.317703],[114.161673,22.304905],[114.158411,22.285081]]}},{"type":"Feature","properties":{"route_company":"香港鐵路有限公司 MTR Corporation","route_id":"TKL","element_type":"way","color":"#7d499d","route_name":"港鐵將軍澳綫 MTR Tseung Kwan O Line","osm_id":"269672","railway":"subway","status":"open"},"geometry":{"type":"LineString","coordinates":[[114.20047,22.290862],[114.208846,22.28865],[114.237167,22.297828],[114.25233,22.304113],[114.259947,22.307442],[114.264341,22.315514],[114.257967,22.322537]]}},{"type":"Feature","properties":{"route_company":"香港鐵路有限公司 MTR Corporation","route_id":"AEL","element_type":"way","color":"#00888a","route_name":"機場快綫 Airport Express","osm_id":"5317238","railway":"subway","status":"open"},"geometry":{"type":"LineString","coordinates":[[113.942219,22.321997],[113.937262,22.316164],[114.107426,22.358364],[114.161673,22.304905],[114.158411,22.285081]]}},{"type":"Feature","properties":{"route_company":"香港鐵路有限公司 MTR Corporation","route_id":"SIL","element_type":"way","color":"#bac429","route_name":"南港島綫 South Island Line (金鐘 Admiralty → 海怡半島 South Horizons)","osm_id":"6827211","railway":"subway","status":"open"},"geometry":{"type":"LineString","coordinates":[[114.165782,22.27882],[114.174374,22.248658],[114.167527,22.247823],[114.156105,22.241871],[114.149089,22.242347]]}},{"type":"Feature","properties":{"route_company":"香港鐵路有限公司 MTR Corporation","route_id":"DRL","element_type":"way","color":"#f173ac","route_name":"港鐵迪士尼綫 (下) MTR Disneyland Resort Line (南行 Southbound)","osm_id":"4709540","railway":"subway","status":"open"},"geometry":{"type":"LineString","coordinates":[[114.02891,22.331809],[114.045142,22.315538]]}},{"type":"Feature","properties":{"osm_id":"2179507747","station_name":"屯門","element_type":"node","station_id":"TUM"},"geometry":{"type":"Point","coordinates":[113.973042,22.394426]}},{"type":"Feature","properties":{"osm_id":"2179507660","station_name":"兆康","element_type":"node","station_id":"SIH"},"geometry":{"type":"Point","coordinates":[113.978005,22.411686]}},{"type":"Feature","properties":{"osm_id":"2179507646","station_name":"天水圍 Tin Shui Wai","element_type":"node","station_id":"TIS"},"geometry":{"type":"Point","coordinates":[114.005789,22.449236]}},{"type":"Feature","properties":{"osm_id":"2179507764","station_name":"朗屏 Long Ping","element_type":"node","station_id":"LOP"},"geometry":{"type":"Point","coordinates":[114.025433,22.447764]}},{"type":"Feature","properties":{"osm_id":"2179507624","station_name":"元朗 Yuen Long","element_type":"node","station_id":"YUL"},"geometry":{"type":"Point","coordinates":[114.034808,22.445764]}},{"type":"Feature","properties":{"osm_id":"2179507704","station_name":"錦上路 Kam Sheung Road","element_type":"node","station_id":"KSR"},"geometry":{"type":"Point","coordinates":[114.063469,22.434891]}},{"type":"Feature","properties":{"osm_id":"2179527380","station_name":"荃灣西 Tsuen Wan West","element_type":"node","station_id":"TWW"},"geometry":{"type":"Point","coordinates":[114.110067,22.36822]}},{"type":"Feature","properties":{"osm_id":"2179527342","station_name":"美孚 Mei Foo","element_type":"node","station_id":"MEF"},"geometry":{"type":"Point","coordinates":[114.137897,22.338437]}},{"type":"Feature","properties":{"osm_id":"2179557427","station_name":"南昌 Nam Cheong","element_type":"node","station_id":"NAC"},"geometry":{"type":"Point","coordinates":[114.153858,22.326417]}},{"type":"Feature","properties":{"osm_id":"2179557419","station_name":"柯士甸","element_type":"node","station_id":"AUS"},"geometry":{"type":"Point","coordinates":[114.166706,22.304257]}},{"type":"Feature","properties":{"osm_id":"2179557425","station_name":"尖東 East Tsim Sha Tsui","element_type":"node","station_id":"2179557425"},"geometry":{"type":"Point","coordinates":[114.175013,22.295647]}},{"type":"Feature","properties":{"osm_id":"2308404912","station_name":"紅磡 Hung Hom","element_type":"node","station_id":"HUH"},"geometry":{"type":"Point","coordinates":[114.182266,22.303046]}},{"type":"Feature","properties":{"osm_id":"2308405057","station_name":"何文田 Ho Man Tin","element_type":"node","station_id":"HOM"},"geometry":{"type":"Point","coordinates":[114.182624,22.309421]}},{"type":"Feature","properties":{"osm_id":"2308405024","station_name":"土瓜灣 To Kwa Wan","element_type":"node","station_id":"TKW"},"geometry":{"type":"Point","coordinates":[114.187558,22.316986]}},{"type":"Feature","properties":{"osm_id":"2308404918","station_name":"宋皇臺 Sung Wong Toi","element_type":"node","station_id":"SWT"},"geometry":{"type":"Point","coordinates":[114.191434,22.325876]}},{"type":"Feature","properties":{"osm_id":"2524919264","station_name":"啟德 Kai Tak","element_type":"node","station_id":"KAT"},"geometry":{"type":"Point","coordinates":[114.199349,22.330196]}},{"type":"Feature","properties":{"osm_id":"2308404910","station_name":"鑽石山 Diamond Hill","element_type":"node","station_id":"DIH"},"geometry":{"type":"Point","coordinates":[114.2011,22.340022]}},{"type":"Feature","properties":{"osm_id":"2308405061","station_name":"顯徑 Hin Keng","element_type":"node","station_id":"HIK"},"geometry":{"type":"Point","coordinates":[114.170773,22.363808]}},{"type":"Feature","properties":{"osm_id":"2031291969","station_name":"大圍 Tai Wai","element_type":"node","station_id":"TAW"},"geometry":{"type":"Point","coordinates":[114.17866,22.372939]}},{"type":"Feature","properties":{"osm_id":"2031292033","station_name":"車公廟 Che Kung Temple","element_type":"node","station_id":"CKT"},"geometry":{"type":"Point","coordinates":[114.186095,22.374738]}},{"type":"Feature","properties":{"osm_id":"4087334644","station_name":"沙田圍 Sha Tin Wai","element_type":"node","station_id":"STW"},"geometry":{"type":"Point","coordinates":[114.194839,22.376837]}},{"type":"Feature","properties":{"osm_id":"2031291917","station_name":"第一城 City One","element_type":"node","station_id":"CIO"},"geometry":{"type":"Point","coordinates":[114.203784,22.383013]}},{"type":"Feature","properties":{"osm_id":"2031291862","station_name":"石門 Shek Mun","element_type":"node","station_id":"SHM"},"geometry":{"type":"Point","coordinates":[114.208547,22.387789]}},{"type":"Feature","properties":{"osm_id":"4087914607","station_name":"大水坑 Tai Shui Hang","element_type":"node","station_id":"TSH"},"geometry":{"type":"Point","coordinates":[114.222844,22.408454]}},{"type":"Feature","properties":{"osm_id":"2031291900","station_name":"恆安 Heng On","element_type":"node","station_id":"HEO"},"geometry":{"type":"Point","coordinates":[114.225805,22.417438]}},{"type":"Feature","properties":{"osm_id":"2031291916","station_name":"馬鞍山 Ma On Shan","element_type":"node","station_id":"MOS"},"geometry":{"type":"Point","coordinates":[114.231813,22.424782]}},{"type":"Feature","properties":{"osm_id":"2031291951","station_name":"烏溪沙 Wu Kai Sha","element_type":"node","station_id":"WKS"},"geometry":{"type":"Point","coordinates":[114.243886,22.42908]}},{"type":"Feature","properties":{"osm_id":"984741544","station_name":"調景嶺","element_type":"node","station_id":"984741544"},"geometry":{"type":"Point","coordinates":[114.25233,22.304113]}},{"type":"Feature","properties":{"osm_id":"2674392736","station_name":"油塘","element_type":"node","station_id":"YAT"},"geometry":{"type":"Point","coordinates":[114.237167,22.297828]}},{"type":"Feature","properties":{"osm_id":"2674392727","station_name":"藍田 Lam Tin","element_type":"node","station_id":"LAT"},"geometry":{"type":"Point","coordinates":[114.232898,22.306676]}},{"type":"Feature","properties":{"osm_id":"2674335289","station_name":"觀塘 Kwun Tong","element_type":"node","station_id":"KWT"},"geometry":{"type":"Point","coordinates":[114.22638,22.312157]}},{"type":"Feature","properties":{"osm_id":"2674335290","station_name":"牛頭角 Ngau Tau Kok","element_type":"node","station_id":"NTK"},"geometry":{"type":"Point","coordinates":[114.219145,22.315322]}},{"type":"Feature","properties":{"osm_id":"2674335288","station_name":"九龍灣 Kowloon Bay","element_type":"node","station_id":"KOB"},"geometry":{"type":"Point","coordinates":[114.214006,22.323379]}},{"type":"Feature","properties":{"osm_id":"4331931864","station_name":"彩虹 Choi Hung","element_type":"node","station_id":"CHH"},"geometry":{"type":"Point","coordinates":[114.208486,22.335265]}},{"type":"Feature","properties":{"osm_id":"4331931871","station_name":"黃大仙 Wong Tai Sin","element_type":"node","station_id":"WTS"},"geometry":{"type":"Point","coordinates":[114.193205,22.341618]}},{"type":"Feature","properties":{"osm_id":"4331931866","station_name":"樂富 Lok Fu","element_type":"node","station_id":"LOF"},"geometry":{"type":"Point","coordinates":[114.185905,22.337504]}},{"type":"Feature","properties":{"osm_id":"4331931865","station_name":"九龍塘 Kowloon Tong","element_type":"node","station_id":"KOT"},"geometry":{"type":"Point","coordinates":[114.176571,22.336879]}},{"type":"Feature","properties":{"osm_id":"4331887067","station_name":"石硤尾 Shek Kip Mei","element_type":"node","station_id":"SKM"},"geometry":{"type":"Point","coordinates":[114.168917,22.331059]}},{"type":"Feature","properties":{"osm_id":"4331931868","station_name":"太子 Prince Edward","element_type":"node","station_id":"PRE"},"geometry":{"type":"Point","coordinates":[114.1683,22.324454]}},{"type":"Feature","properties":{"osm_id":"4331931867","station_name":"旺角 Mong Kok","element_type":"node","station_id":"MOK"},"geometry":{"type":"Point","coordinates":[114.169383,22.319252]}},{"type":"Feature","properties":{"osm_id":"4331931872","station_name":"油麻地 Yau Ma Tei","element_type":"node","station_id":"YMT"},"geometry":{"type":"Point","coordinates":[114.170664,22.313073]}},{"type":"Feature","properties":{"osm_id":"2319258376","station_name":"黃埔 Whampoa","element_type":"node","station_id":"WHA"},"geometry":{"type":"Point","coordinates":[114.189646,22.304901]}},{"type":"Feature","properties":{"osm_id":"253288867","station_name":"柴灣 Chai Wan","element_type":"node","station_id":"CHW"},"geometry":{"type":"Point","coordinates":[114.237052,22.264603]}},{"type":"Feature","properties":{"osm_id":"253288859","station_name":"杏花邨 Heng Fa Chuen","element_type":"node","station_id":"HFC"},"geometry":{"type":"Point","coordinates":[114.239724,22.276619]}},{"type":"Feature","properties":{"osm_id":"984409448","station_name":"筲箕灣 Shau Kei Wan","element_type":"node","station_id":"SKW"},"geometry":{"type":"Point","coordinates":[114.228818,22.279083]}},{"type":"Feature","properties":{"osm_id":"253288849","station_name":"西灣河","element_type":"node","station_id":"SWH"},"geometry":{"type":"Point","coordinates":[114.222282,22.281624]}},{"type":"Feature","properties":{"osm_id":"278943742","station_name":"太古 Tai Koo","element_type":"node","station_id":"TAK"},"geometry":{"type":"Point","coordinates":[114.216143,22.284571]}},{"type":"Feature","properties":{"osm_id":"984741558","station_name":"鰂魚涌","element_type":"node","station_id":"QUB"},"geometry":{"type":"Point","coordinates":[114.208846,22.28865]}},{"type":"Feature","properties":{"osm_id":"253288836","station_name":"北角 North Point","element_type":"node","station_id":"NOP"},"geometry":{"type":"Point","coordinates":[114.20047,22.290862]}},{"type":"Feature","properties":{"osm_id":"2564639695","station_name":"炮台山 Fortress Hill","element_type":"node","station_id":"FOH"},"geometry":{"type":"Point","coordinates":[114.193472,22.287507]}},{"type":"Feature","properties":{"osm_id":"3303947368","station_name":"天后 Tin Hau","element_type":"node","station_id":"TIH"},"geometry":{"type":"Point","coordinates":[114.192033,22.282196]}},{"type":"Feature","properties":{"osm_id":"2564544830","station_name":"銅鑼灣 Causeway Bay","element_type":"node","station_id":"CAB"},"geometry":{"type":"Point","coordinates":[114.184014,22.280102]}},{"type":"Feature","properties":{"osm_id":"2564544993","station_name":"灣仔 Wan Chai","element_type":"node","station_id":"WAC"},"geometry":{"type":"Point","coordinates":[114.172964,22.277556]}},{"type":"Feature","properties":{"osm_id":"2564545111","station_name":"金鐘","element_type":"node","station_id":"ADM"},"geometry":{"type":"Point","coordinates":[114.165782,22.27882]}},{"type":"Feature","properties":{"osm_id":"2564544875","station_name":"中環 Central","element_type":"node","station_id":"CEN"},"geometry":{"type":"Point","coordinates":[114.158597,22.281663]}},{"type":"Feature","properties":{"osm_id":"2561063241","station_name":"上環 Sheung Wan","element_type":"node","station_id":"SHW"},"geometry":{"type":"Point","coordinates":[114.152149,22.286503]}},{"type":"Feature","properties":{"osm_id":"2561063247","station_name":"西營盤 Sai Ying Pun","element_type":"node","station_id":"SYP"},"geometry":{"type":"Point","coordinates":[114.142781,22.285423]}},{"type":"Feature","properties":{"osm_id":"515673758","station_name":"香港大學 HKU","element_type":"node","station_id":"HKU"},"geometry":{"type":"Point","coordinates":[114.135456,22.283964]}},{"type":"Feature","properties":{"osm_id":"515677041","station_name":"堅尼地城","element_type":"node","station_id":"KET"},"geometry":{"type":"Point","coordinates":[114.128455,22.281224]}},{"type":"Feature","properties":{"osm_id":"2550870768","station_name":"荃灣 Tsuen Wan","element_type":"node","station_id":"TSW"},"geometry":{"type":"Point","coordinates":[114.117852,22.373658]}},{"type":"Feature","properties":{"osm_id":"2550870767","station_name":"大窩口 Tai Wo Hau","element_type":"node","station_id":"TWH"},"geometry":{"type":"Point","coordinates":[114.125116,22.370802]}},{"type":"Feature","properties":{"osm_id":"288379617","station_name":"葵興 Kwai Hing","element_type":"node","station_id":"KWH"},"geometry":{"type":"Point","coordinates":[114.131206,22.363027]}},{"type":"Feature","properties":{"osm_id":"288379611","station_name":"葵芳 Kwai Fong","element_type":"node","station_id":"KWF"},"geometry":{"type":"Point","coordinates":[114.127856,22.356886]}},{"type":"Feature","properties":{"osm_id":"288378585","station_name":"荔景 Lai King","element_type":"node","station_id":"LAK"},"geometry":{"type":"Point","coordinates":[114.126151,22.348456]}},{"type":"Feature","properties":{"osm_id":"288379517","station_name":"荔枝角 Lai Chi Kok","element_type":"node","station_id":"LCK"},"geometry":{"type":"Point","coordinates":[114.148399,22.337443]}},{"type":"Feature","properties":{"osm_id":"288379339","station_name":"長沙灣 Cheung Sha Wan","element_type":"node","station_id":"CSW"},"geometry":{"type":"Point","coordinates":[114.156174,22.335527]}},{"type":"Feature","properties":{"osm_id":"288379363","station_name":"深水埗 Sham Shui Po","element_type":"node","station_id":"SSP"},"geometry":{"type":"Point","coordinates":[114.162459,22.330633]}},{"type":"Feature","properties":{"osm_id":"2554379407","station_name":"佐敦 Jordan","element_type":"node","station_id":"JOR"},"geometry":{"type":"Point","coordinates":[114.171782,22.305109]}},{"type":"Feature","properties":{"osm_id":"2555388100","station_name":"尖沙咀 Tsim Sha Tsui","element_type":"node","station_id":"TST"},"geometry":{"type":"Point","coordinates":[114.172297,22.297182]}},{"type":"Feature","properties":{"osm_id":"1492217236","station_name":"落馬洲","element_type":"node","station_id":"LMC"},"geometry":{"type":"Point","coordinates":[114.065664,22.514563]}},{"type":"Feature","properties":{"osm_id":"644564532","station_name":"上水 Sheung Shui","element_type":"node","station_id":"SHS"},"geometry":{"type":"Point","coordinates":[114.128076,22.501147]}},{"type":"Feature","properties":{"osm_id":"2181592163","station_name":"粉嶺 Fanling","element_type":"node","station_id":"FAN"},"geometry":{"type":"Point","coordinates":[114.138693,22.492118]}},{"type":"Feature","properties":{"osm_id":"2183425923","station_name":"太和 Tai Wo","element_type":"node","station_id":"TWO"},"geometry":{"type":"Point","coordinates":[114.161234,22.450992]}},{"type":"Feature","properties":{"osm_id":"1703859087","station_name":"大埔墟 Tai Po Market","element_type":"node","station_id":"TAP"},"geometry":{"type":"Point","coordinates":[114.170788,22.444758]}},{"type":"Feature","properties":{"osm_id":"243844926","station_name":"大學 University","element_type":"node","station_id":"UNI"},"geometry":{"type":"Point","coordinates":[114.210055,22.413385]}},{"type":"Feature","properties":{"osm_id":"243844947","station_name":"火炭 Fo Tan","element_type":"node","station_id":"FOT"},"geometry":{"type":"Point","coordinates":[114.198366,22.395337]}},{"type":"Feature","properties":{"osm_id":"2185507473","station_name":"沙田 Sha Tin","element_type":"node","station_id":"SHT"},"geometry":{"type":"Point","coordinates":[114.187642,22.38284]}},{"type":"Feature","properties":{"osm_id":"243845056","station_name":"旺角東 Mong Kok East","element_type":"node","station_id":"MKK"},"geometry":{"type":"Point","coordinates":[114.172605,22.321953]}},{"type":"Feature","properties":{"osm_id":"4515155552","station_name":"會展 Exhibition Centre","element_type":"node","station_id":"EXC"},"geometry":{"type":"Point","coordinates":[114.175702,22.281665]}},{"type":"Feature","properties":{"osm_id":"2291194993","station_name":"東涌","element_type":"node","station_id":"TUC"},"geometry":{"type":"Point","coordinates":[113.941322,22.289278]}},{"type":"Feature","properties":{"osm_id":"1295654804","station_name":"欣澳 Sunny Bay","element_type":"node","station_id":"SUN"},"geometry":{"type":"Point","coordinates":[114.02891,22.331809]}},{"type":"Feature","properties":{"osm_id":"1295654775","station_name":"青衣 Tsing Yi","element_type":"node","station_id":"TSY"},"geometry":{"type":"Point","coordinates":[114.107426,22.358364]}},{"type":"Feature","properties":{"osm_id":"279126405","station_name":"奧運 Olympic","element_type":"node","station_id":"OLY"},"geometry":{"type":"Point","coordinates":[114.160411,22.317703]}},{"type":"Feature","properties":{"osm_id":"278952085","station_name":"九龍","element_type":"node","station_id":"KOW"},"geometry":{"type":"Point","coordinates":[114.161673,22.304905]}},{"type":"Feature","properties":{"osm_id":"2557051037","station_name":"香港","element_type":"node","station_id":"HOK"},"geometry":{"type":"Point","coordinates":[114.158411,22.285081]}},{"type":"Feature","properties":{"osm_id":"307391103","station_name":"將軍澳 Tseung Kwan O","element_type":"node","station_id":"TKO"},"geometry":{"type":"Point","coordinates":[114.259947,22.307442]}},{"type":"Feature","properties":{"osm_id":"2562413325","station_name":"坑口","element_type":"node","station_id":"HAH"},"geometry":{"type":"Point","coordinates":[114.264341,22.315514]}},{"type":"Feature","properties":{"osm_id":"262761250","station_name":"寶琳 Po Lam","element_type":"node","station_id":"POA"},"geometry":{"type":"Point","coordinates":[114.257967,22.322537]}},{"type":"Feature","properties":{"osm_id":"3304026514","station_name":"博覽館","element_type":"node","station_id":"3304026514"},"geometry":{"type":"Point","coordinates":[113.942219,22.321997]}},{"type":"Feature","properties":{"osm_id":"2291194921","station_name":"機場 Airport","element_type":"node","station_id":"AIR"},"geometry":{"type":"Point","coordinates":[113.937262,22.316164]}},{"type":"Feature","properties":{"osm_id":"2176979623","station_name":"海洋公園 Ocean Park","element_type":"node","station_id":"OCP"},"geometry":{"type":"Point","coordinates":[114.174374,22.248658]}},{"type":"Feature","properties":{"osm_id":"2176979857","station_name":"黃竹坑 Wong Chuk Hang","element_type":"node","station_id":"WCH"},"geometry":{"type":"Point","coordinates":[114.167527,22.247823]}},{"type":"Feature","properties":{"osm_id":"2176980003","station_name":"利東 Lei Tung","element_type":"node","station_id":"LET"},"geometry":{"type":"Point","coordinates":[114.156105,22.241871]}},{"type":"Feature","properties":{"osm_id":"3943626060","station_name":"海怡半島 South Horizons","element_type":"node","station_id":"SOH"},"geometry":{"type":"Point","coordinates":[114.149089,22.242347]}},{"type":"Feature","properties":{"osm_id":"357138078","station_name":"迪士尼 Disneyland Resort","element_type":"node","station_id":"DIS"},"geometry":{"type":"Point","coordinates":[114.045142,22.315538]}}]}