{"type":"FeatureCollection","generator":"metroOsmFetch (OpenStreetMap / Overpass, ODbL)","features":[{"type":"Feature","properties":{"route_company":"浙中都市圈城际轨道交通","route_id":"13675604","element_type":"way","color":"#e6194b","route_name":"金华轨道交通金义东线","osm_id":"13675604","railway":"subway"},"geometry":{"type":"LineString","coordinates":[[120.08361,29.331962],[120.058219,29.308143],[120.032389,29.283235],[120.014604,29.271978],[119.96822,29.239386],[119.889213,29.201466],[119.869261,29.195789],[119.801569,29.169967],[119.732118,29.117506],[119.716508,29.100351],[119.698789,29.100318],[119.670988,29.091322],[119.650346,29.084681],[119.639087,29.090922],[119.631521,29.110829]]}},{"type":"Feature","properties":{"osm_id":"9483036184","station_name":"秦塘","element_type":"node","station_id":"9483036184"},"geometry":{"type":"Point","coordinates":[120.08361,29.331962]}},{"type":"Feature","properties":{"osm_id":"9311641934","station_name":"绣湖","element_type":"node","station_id":"9311641934"},"geometry":{"type":"Point","coordinates":[120.058219,29.308143]}},{"type":"Feature","properties":{"osm_id":"7702297364","station_name":"稠江","element_type":"node","station_id":"7702297364"},"geometry":{"type":"Point","coordinates":[120.032389,29.283235]}},{"type":"Feature","properties":{"osm_id":"9312132496","station_name":"官塘","element_type":"node","station_id":"9312132496"},"geometry":{"type":"Point","coordinates":[120.014604,29.271978]}},{"type":"Feature","properties":{"osm_id":"9233082686","station_name":"义亭","element_type":"node","station_id":"9233082686"},"geometry":{"type":"Point","coordinates":[119.96822,29.239386]}},{"type":"Feature","properties":{"osm_id":"9971973250","station_name":"东华街","element_type":"node","station_id":"9971973250"},"geometry":{"type":"Point","coordinates":[119.889213,29.201466]}},{"type":"Feature","properties":{"osm_id":"7702297380","station_name":"新区","element_type":"node","station_id":"7702297380"},"geometry":{"type":"Point","coordinates":[119.869261,29.195789]}},{"type":"Feature","properties":{"osm_id":"9212131346","station_name":"塘雅","element_type":"node","station_id":"9212131346"},"geometry":{"type":"Point","coordinates":[119.801569,29.169967]}},{"type":"Feature","properties":{"osm_id":"9212131331","station_name":"金华南站","element_type":"node","station_id":"9212131331"},"geometry":{"type":"Point","coordinates":[119.732118,29.117506]}},{"type":"Feature","properties":{"osm_id":"7212050858","station_name":"轨道大厦","element_type":"node","station_id":"7212050858"},"geometry":{"type":"Point","coordinates":[119.716508,29.100351]}},{"type":"Feature","properties":{"osm_id":"9212131343","station_name":"大堰河街","element_type":"node","station_id":"9212131343"},"geometry":{"type":"Point","coordinates":[119.698789,29.100318]}},{"type":"Feature","properties":{"osm_id":"9212131341","station_name":"万达广场","element_type":"node","station_id":"9212131341"},"geometry":{"type":"Point","coordinates":[119.670988,29.091322]}},{"type":"Feature","properties":{"osm_id":"9212131335","station_name":"八一南街","element_type":"node","station_id":"9212131335"},"geometry":{"type":"Point","coordinates":[119.650346,29.084681]}},{"type":"Feature","properties":{"osm_id":"9212131333","station_name":"双溪西路","element_type":"node","station_id":"9212131333"},"geometry":{"type":"Point","coordinates":[119.639087,29.090922]}},{"type":"Feature","properties":{"osm_id":"9212131329","station_name":"金华高铁站","element_type":"node","station_id":"9212131329"},"geometry":{"type":"Point","coordinates":[119.631521,29.110829]}}]}