{"type":"FeatureCollection","generator":"metroOsmFetch (OpenStreetMap / Overpass, ODbL)","features":[{"type":"Feature","properties":{"osm_id":"2969807514","station_name":"高橋西","element_type":"node","station_id":"2969807514"},"geometry":{"type":"Point","coordinates":[121.44909,29.913078]}},{"type":"Feature","properties":{"osm_id":"2969807513","station_name":"高橋","element_type":"node","station_id":"2969807513"},"geometry":{"type":"Point","coordinates":[121.459677,29.903781]}},{"type":"Feature","properties":{"osm_id":"2969807512","station_name":"梁祝","element_type":"node","station_id":"2969807512"},"geometry":{"type":"Point","coordinates":[121.472421,29.897244]}},{"type":"Feature","properties":{"osm_id":"2969807509","station_name":"蘆港","element_type":"node","station_id":"2969807509"},"geometry":{"type":"Point","coordinates":[121.483057,29.892661]}},{"type":"Feature","properties":{"osm_id":"2969807510","station_name":"徐家漕長樂","element_type":"node","station_id":"2969807510"},"geometry":{"type":"Point","coordinates":[121.492621,29.890026]}},{"type":"Feature","properties":{"osm_id":"2969807511","station_name":"望春橋","element_type":"node","station_id":"2969807511"},"geometry":{"type":"Point","coordinates":[121.503964,29.885113]}},{"type":"Feature","properties":{"osm_id":"2969811774","station_name":"澤民","element_type":"node","station_id":"2969811774"},"geometry":{"type":"Point","coordinates":[121.515268,29.88194]}},{"type":"Feature","properties":{"osm_id":"2969811772","station_name":"大卿橋","element_type":"node","station_id":"2969811772"},"geometry":{"type":"Point","coordinates":[121.528023,29.87951]}},{"type":"Feature","properties":{"osm_id":"2969811776","station_name":"西門口","element_type":"node","station_id":"2969811776"},"geometry":{"type":"Point","coordinates":[121.535535,29.877499]}},{"type":"Feature","properties":{"osm_id":"5325681130","station_name":"鼓樓","element_type":"node","station_id":"5325681130"},"geometry":{"type":"Point","coordinates":[121.544839,29.875576]}},{"type":"Feature","properties":{"osm_id":"2969811771","station_name":"東門口(天一廣場)","element_type":"node","station_id":"2969811771"},"geometry":{"type":"Point","coordinates":[121.551938,29.873908]}},{"type":"Feature","properties":{"osm_id":"2969811773","station_name":"江廈橋東","element_type":"node","station_id":"2969811773"},"geometry":{"type":"Point","coordinates":[121.561183,29.871937]}},{"type":"Feature","properties":{"osm_id":"2969811775","station_name":"舟孟北路","element_type":"node","station_id":"2969811775"},"geometry":{"type":"Point","coordinates":[121.569921,29.869915]}},{"type":"Feature","properties":{"osm_id":"3740821503","station_name":"櫻花公園","element_type":"node","station_id":"3740821503"},"geometry":{"type":"Point","coordinates":[121.577719,29.866934]}},{"type":"Feature","properties":{"osm_id":"2969814140","station_name":"福明路","element_type":"node","station_id":"2969814140"},"geometry":{"type":"Point","coordinates":[121.589152,29.863526]}},{"type":"Feature","properties":{"osm_id":"2969814135","station_name":"世紀大道","element_type":"node","station_id":"2969814135"},"geometry":{"type":"Point","coordinates":[121.598177,29.86157]}},{"type":"Feature","properties":{"osm_id":"5437724291","station_name":"海晏北路","element_type":"node","station_id":"5437724291"},"geometry":{"type":"Point","coordinates":[121.610664,29.86277]}},{"type":"Feature","properties":{"osm_id":"2969814139","station_name":"福慶北路","element_type":"node","station_id":"2969814139"},"geometry":{"type":"Point","coordinates":[121.620143,29.861489]}},{"type":"Feature","properties":{"osm_id":"13119712618","station_name":"盛莫路","element_type":"node","station_id":"13119712618"},"geometry":{"type":"Point","coordinates":[121.631683,29.858652]}},{"type":"Feature","properties":{"osm_id":"3369592218","station_name":"東環南路","element_type":"node","station_id":"3369592218"},"geometry":{"type":"Point","coordinates":[121.646662,29.855569]}},{"type":"Feature","properties":{"osm_id":"3369592222","station_name":"邱隘東","element_type":"node","station_id":"3369592222"},"geometry":{"type":"Point","coordinates":[121.657383,29.849043]}},{"type":"Feature","properties":{"osm_id":"3369592235","station_name":"五鄉","element_type":"node","station_id":"3369592235"},"geometry":{"type":"Point","coordinates":[121.685916,29.840966]}},{"type":"Feature","properties":{"osm_id":"3369592245","station_name":"寶幢","element_type":"node","station_id":"3369592245"},"geometry":{"type":"Point","coordinates":[121.729352,29.841899]}},{"type":"Feature","properties":{"osm_id":"3369592283","station_name":"鄔隘","element_type":"node","station_id":"3369592283"},"geometry":{"type":"Point","coordinates":[121.778042,29.877316]}},{"type":"Feature","properties":{"osm_id":"3369592277","station_name":"大碶","element_type":"node","station_id":"3369592277"},"geometry":{"type":"Point","coordinates":[121.790469,29.895942]}},{"type":"Feature","properties":{"osm_id":"3369592282","station_name":"松花江路","element_type":"node","station_id":"3369592282"},"geometry":{"type":"Point","coordinates":[121.804339,29.906847]}},{"type":"Feature","properties":{"osm_id":"3369592284","station_name":"中河路","element_type":"node","station_id":"3369592284"},"geometry":{"type":"Point","coordinates":[121.825618,29.896192]}},{"type":"Feature","properties":{"osm_id":"3369592285","station_name":"長江路","element_type":"node","station_id":"3369592285"},"geometry":{"type":"Point","coordinates":[121.83957,29.893328]}},{"type":"Feature","properties":{"osm_id":"3369592267","station_name":"霞浦","element_type":"node","station_id":"3369592267"},"geometry":{"type":"Point","coordinates":[121.852786,29.893075]}},{"type":"Feature","properties":{"osm_id":"12587416127","station_name":"櫟社國際機場","element_type":"node","station_id":"12587416127"},"geometry":{"type":"Point","coordinates":[121.456606,29.820167]}},{"type":"Feature","properties":{"osm_id":"12587416115","station_name":"櫟社","element_type":"node","station_id":"12587416115"},"geometry":{"type":"Point","coordinates":[121.479034,29.811844]}},{"type":"Feature","properties":{"osm_id":"12587416106","station_name":"鄞州大道","element_type":"node","station_id":"12587416106"},"geometry":{"type":"Point","coordinates":[121.491946,29.820771]}},{"type":"Feature","properties":{"osm_id":"12587416101","station_name":"石碶","element_type":"node","station_id":"12587416101"},"geometry":{"type":"Point","coordinates":[121.499842,29.827671]}},{"type":"Feature","properties":{"osm_id":"12587416094","station_name":"輕紡城","element_type":"node","station_id":"12587416094"},"geometry":{"type":"Point","coordinates":[121.510162,29.834142]}},{"type":"Feature","properties":{"osm_id":"12587416077","station_name":"藕池","element_type":"node","station_id":"12587416077"},"geometry":{"type":"Point","coordinates":[121.508549,29.843983]}},{"type":"Feature","properties":{"osm_id":"12587416060","station_name":"客運中心","element_type":"node","station_id":"12587416060"},"geometry":{"type":"Point","coordinates":[121.508077,29.852963]}},{"type":"Feature","properties":{"osm_id":"12587416051","station_name":"麗園南路","element_type":"node","station_id":"12587416051"},"geometry":{"type":"Point","coordinates":[121.513617,29.861147]}},{"type":"Feature","properties":{"osm_id":"12587416046","station_name":"雲霞路","element_type":"node","station_id":"12587416046"},"geometry":{"type":"Point","coordinates":[121.522194,29.861067]}},{"type":"Feature","properties":{"osm_id":"12587416030","station_name":"寧波火車站","element_type":"node","station_id":"12587416030"},"geometry":{"type":"Point","coordinates":[121.533331,29.865113]}},{"type":"Feature","properties":{"osm_id":"12587416010","station_name":"城隍廟","element_type":"node","station_id":"12587416010"},"geometry":{"type":"Point","coordinates":[121.544638,29.869766]}},{"type":"Feature","properties":{"osm_id":"12587415988","station_name":"外灘大橋","element_type":"node","station_id":"12587415988"},"geometry":{"type":"Point","coordinates":[121.554604,29.885327]}},{"type":"Feature","properties":{"osm_id":"12587415983","station_name":"正大路","element_type":"node","station_id":"12587415983"},"geometry":{"type":"Point","coordinates":[121.557114,29.892151]}},{"type":"Feature","properties":{"osm_id":"12587415977","station_name":"倪家堰","element_type":"node","station_id":"12587415977"},"geometry":{"type":"Point","coordinates":[121.562642,29.900964]}},{"type":"Feature","properties":{"osm_id":"12587415965","station_name":"壓賽堰","element_type":"node","station_id":"12587415965"},"geometry":{"type":"Point","coordinates":[121.571077,29.906]}},{"type":"Feature","properties":{"osm_id":"12587415960","station_name":"大通橋","element_type":"node","station_id":"12587415960"},"geometry":{"type":"Point","coordinates":[121.577666,29.906551]}},{"type":"Feature","properties":{"osm_id":"12587415951","station_name":"孔浦","element_type":"node","station_id":"12587415951"},"geometry":{"type":"Point","coordinates":[121.588092,29.90673]}},{"type":"Feature","properties":{"osm_id":"12587416202","station_name":"路林","element_type":"node","station_id":"12587416202"},"geometry":{"type":"Point","coordinates":[121.608549,29.91165]}},{"type":"Feature","properties":{"osm_id":"12587416197","station_name":"三官堂","element_type":"node","station_id":"12587416197"},"geometry":{"type":"Point","coordinates":[121.616265,29.915088]}},{"type":"Feature","properties":{"osm_id":"12587416188","station_name":"寧波大學","element_type":"node","station_id":"12587416188"},"geometry":{"type":"Point","coordinates":[121.630741,29.914153]}},{"type":"Feature","properties":{"osm_id":"12587416224","station_name":"清水浦","element_type":"node","station_id":"12587416224"},"geometry":{"type":"Point","coordinates":[121.656876,29.924278]}},{"type":"Feature","properties":{"osm_id":"12587416173","station_name":"五里牌","element_type":"node","station_id":"12587416173"},"geometry":{"type":"Point","coordinates":[121.673349,29.940897]}},{"type":"Feature","properties":{"osm_id":"12587416165","station_name":"楓園","element_type":"node","station_id":"12587416165"},"geometry":{"type":"Point","coordinates":[121.689649,29.952466]}},{"type":"Feature","properties":{"osm_id":"12587416155","station_name":"聰園路","element_type":"node","station_id":"12587416155"},"geometry":{"type":"Point","coordinates":[121.701046,29.953914]}},{"type":"Feature","properties":{"osm_id":"12587416145","station_name":"招寶山","element_type":"node","station_id":"12587416145"},"geometry":{"type":"Point","coordinates":[121.712224,29.952419]}},{"type":"Feature","properties":{"osm_id":"12587416220","station_name":"紅聯","element_type":"node","station_id":"12587416220"},"geometry":{"type":"Point","coordinates":[121.719574,29.94137]}},{"type":"Feature","properties":{"osm_id":"12488938150","station_name":"慈城西","element_type":"node","station_id":"12488938150"},"geometry":{"type":"Point","coordinates":[121.433073,29.987253]}},{"type":"Feature","properties":{"osm_id":"3740891771","station_name":"慈城","element_type":"node","station_id":"3740891771"},"geometry":{"type":"Point","coordinates":[121.446444,29.97787]}},{"type":"Feature","properties":{"osm_id":"8308423504","station_name":"官山河","element_type":"node","station_id":"8308423504"},"geometry":{"type":"Point","coordinates":[121.455574,29.963757]}},{"type":"Feature","properties":{"osm_id":"3740891783","station_name":"長興路","element_type":"node","station_id":"3740891783"},"geometry":{"type":"Point","coordinates":[121.457685,29.950502]}},{"type":"Feature","properties":{"osm_id":"3740892246","station_name":"金山路","element_type":"node","station_id":"3740892246"},"geometry":{"type":"Point","coordinates":[121.466124,29.94353]}},{"type":"Feature","properties":{"osm_id":"3740892280","station_name":"奧體中心","element_type":"node","station_id":"3740892280"},"geometry":{"type":"Point","coordinates":[121.48243,29.938656]}},{"type":"Feature","properties":{"osm_id":"3740892247","station_name":"洪塘中路","element_type":"node","station_id":"3740892247"},"geometry":{"type":"Point","coordinates":[121.496792,29.930369]}},{"type":"Feature","properties":{"osm_id":"3740891795","station_name":"洪大路","element_type":"node","station_id":"3740891795"},"geometry":{"type":"Point","coordinates":[121.515017,29.923723]}},{"type":"Feature","properties":{"osm_id":"3740891798","station_name":"莊橋火車站","element_type":"node","station_id":"3740891798"},"geometry":{"type":"Point","coordinates":[121.529064,29.924462]}},{"type":"Feature","properties":{"osm_id":"3740892255","station_name":"麗江路","element_type":"node","station_id":"3740892255"},"geometry":{"type":"Point","coordinates":[121.534782,29.912788]}},{"type":"Feature","properties":{"osm_id":"3740891807","station_name":"雙東路","element_type":"node","station_id":"3740891807"},"geometry":{"type":"Point","coordinates":[121.52867,29.898725]}},{"type":"Feature","properties":{"osm_id":"3740892257","station_name":"翠柏裡","element_type":"node","station_id":"3740892257"},"geometry":{"type":"Point","coordinates":[121.52888,29.890063]}},{"type":"Feature","properties":{"osm_id":"3740891813","station_name":"柳西","element_type":"node","station_id":"3740891813"},"geometry":{"type":"Point","coordinates":[121.52734,29.87455]}},{"type":"Feature","properties":{"osm_id":"3740891819","station_name":"興寧橋西","element_type":"node","station_id":"3740891819"},"geometry":{"type":"Point","coordinates":[121.544471,29.861337]}},{"type":"Feature","properties":{"osm_id":"3740892266","station_name":"興寧橋東","element_type":"node","station_id":"3740892266"},"geometry":{"type":"Point","coordinates":[121.551503,29.857401]}},{"type":"Feature","properties":{"osm_id":"3740891823","station_name":"白鶴","element_type":"node","station_id":"3740891823"},"geometry":{"type":"Point","coordinates":[121.56257,29.855083]}},{"type":"Feature","properties":{"osm_id":"3740821505","station_name":"兒童公園","element_type":"node","station_id":"3740821505"},"geometry":{"type":"Point","coordinates":[121.574235,29.855259]}},{"type":"Feature","properties":{"osm_id":"3740892226","station_name":"矮柳","element_type":"node","station_id":"3740892226"},"geometry":{"type":"Point","coordinates":[121.58373,29.85383]}},{"type":"Feature","properties":{"osm_id":"3740892272","station_name":"潘火路","element_type":"node","station_id":"3740892272"},"geometry":{"type":"Point","coordinates":[121.587402,29.842445]}},{"type":"Feature","properties":{"osm_id":"3740892278","station_name":"嵩江東路","element_type":"node","station_id":"3740892278"},"geometry":{"type":"Point","coordinates":[121.579539,29.828574]}},{"type":"Feature","properties":{"osm_id":"3740892235","station_name":"南高教園區","element_type":"node","station_id":"3740892235"},"geometry":{"type":"Point","coordinates":[121.575538,29.819671]}},{"type":"Feature","properties":{"osm_id":"3740892239","station_name":"金達南路","element_type":"node","station_id":"3740892239"},"geometry":{"type":"Point","coordinates":[121.588499,29.807163]}},{"type":"Feature","properties":{"osm_id":"3740892242","station_name":"小洋江","element_type":"node","station_id":"3740892242"},"geometry":{"type":"Point","coordinates":[121.606493,29.795187]}},{"type":"Feature","properties":{"osm_id":"3740892243","station_name":"東錢湖","element_type":"node","station_id":"3740892243"},"geometry":{"type":"Point","coordinates":[121.624044,29.784734]}},{"type":"Feature","properties":{"osm_id":"12841032171","station_name":"國際會議中心","element_type":"node","station_id":"12841032171"},"geometry":{"type":"Point","coordinates":[121.630838,29.765211]}},{"type":"Feature","properties":{"osm_id":"4496682770","station_name":"佈政","element_type":"node","station_id":"4496682770"},"geometry":{"type":"Point","coordinates":[121.468448,29.849205]}},{"type":"Feature","properties":{"osm_id":"4496682775","station_name":"張家潭","element_type":"node","station_id":"4496682775"},"geometry":{"type":"Point","coordinates":[121.475169,29.840699]}},{"type":"Feature","properties":{"osm_id":"4496683580","station_name":"同德路","element_type":"node","station_id":"4496683580"},"geometry":{"type":"Point","coordinates":[121.486423,29.830333]}},{"type":"Feature","properties":{"osm_id":"4496683496","station_name":"雅渡","element_type":"node","station_id":"4496683496"},"geometry":{"type":"Point","coordinates":[121.505782,29.821599]}},{"type":"Feature","properties":{"osm_id":"4496683509","station_name":"廟堰","element_type":"node","station_id":"4496683509"},"geometry":{"type":"Point","coordinates":[121.523672,29.821592]}},{"type":"Feature","properties":{"osm_id":"4496683512","station_name":"鍾公廟","element_type":"node","station_id":"4496683512"},"geometry":{"type":"Point","coordinates":[121.535152,29.821805]}},{"type":"Feature","properties":{"osm_id":"3740821519","station_name":"鄞州區政府","element_type":"node","station_id":"3740821519"},"geometry":{"type":"Point","coordinates":[121.54584,29.821813]}},{"type":"Feature","properties":{"osm_id":"4496683582","station_name":"錢湖南路","element_type":"node","station_id":"4496683582"},"geometry":{"type":"Point","coordinates":[121.563266,29.822526]}},{"type":"Feature","properties":{"osm_id":"4496683531","station_name":"下應路","element_type":"node","station_id":"4496683531"},"geometry":{"type":"Point","coordinates":[121.588694,29.814361]}},{"type":"Feature","properties":{"osm_id":"4496683539","station_name":"大洋江","element_type":"node","station_id":"4496683539"},"geometry":{"type":"Point","coordinates":[121.597788,29.819784]}},{"type":"Feature","properties":{"osm_id":"4496683542","station_name":"泗港","element_type":"node","station_id":"4496683542"},"geometry":{"type":"Point","coordinates":[121.600834,29.827864]}},{"type":"Feature","properties":{"osm_id":"4496683545","station_name":"曹隘","element_type":"node","station_id":"4496683545"},"geometry":{"type":"Point","coordinates":[121.604692,29.84227]}},{"type":"Feature","properties":{"osm_id":"4496683583","station_name":"柳隘","element_type":"node","station_id":"4496683583"},"geometry":{"type":"Point","coordinates":[121.608022,29.854763]}},{"type":"Feature","properties":{"osm_id":"4496683584","station_name":"民安東路","element_type":"node","station_id":"4496683584"},"geometry":{"type":"Point","coordinates":[121.613293,29.870783]}},{"type":"Feature","properties":{"osm_id":"4496683554","station_name":"會展中心","element_type":"node","station_id":"4496683554"},"geometry":{"type":"Point","coordinates":[121.615599,29.877136]}},{"type":"Feature","properties":{"osm_id":"4496683585","station_name":"院士路","element_type":"node","station_id":"4496683585"},"geometry":{"type":"Point","coordinates":[121.617744,29.890639]}},{"type":"Feature","properties":{"osm_id":"4496683566","station_name":"盎孟港","element_type":"node","station_id":"4496683566"},"geometry":{"type":"Point","coordinates":[121.617924,29.899133]}},{"type":"Feature","properties":{"osm_id":"4496683578","station_name":"興莊路","element_type":"node","station_id":"4496683578"},"geometry":{"type":"Point","coordinates":[121.610569,29.923614]}},{"type":"Feature","properties":{"osm_id":"12520995752","station_name":"興海南路","element_type":"node","station_id":"12520995752"},"geometry":{"type":"Point","coordinates":[121.601727,29.926758]}},{"type":"Feature","properties":{"osm_id":"12520995754","station_name":"梅堰","element_type":"node","station_id":"12520995754"},"geometry":{"type":"Point","coordinates":[121.59078,29.926514]}},{"type":"Feature","properties":{"osm_id":"12520995758","station_name":"永茂路","element_type":"node","station_id":"12520995758"},"geometry":{"type":"Point","coordinates":[121.57986,29.95193]}},{"type":"Feature","properties":{"osm_id":"13104019847","station_name":"鎮海大道(慈海)","element_type":"node","station_id":"13104019847"},"geometry":{"type":"Point","coordinates":[121.580088,29.969728]}},{"type":"Feature","properties":{"osm_id":"12520995761","station_name":"駱駝橋","element_type":"node","station_id":"12520995761"},"geometry":{"type":"Point","coordinates":[121.581359,29.987011]}},{"type":"Feature","properties":{"osm_id":"10269626729","station_name":"俞範","element_type":"node","station_id":"10269626729"},"geometry":{"type":"Point","coordinates":[121.654482,29.966337]}},{"type":"Feature","properties":{"osm_id":"10269647707","station_name":"明海北路","element_type":"node","station_id":"10269647707"},"geometry":{"type":"Point","coordinates":[121.619566,29.964164]}},{"type":"Feature","properties":{"osm_id":"10269647708","station_name":"貴駟","element_type":"node","station_id":"10269647708"},"geometry":{"type":"Point","coordinates":[121.608736,29.967172]}},{"type":"Feature","properties":{"osm_id":"10269647709","station_name":"鎮海市民廣場","element_type":"node","station_id":"10269647709"},"geometry":{"type":"Point","coordinates":[121.594234,29.969393]}},{"type":"Feature","properties":{"osm_id":"10269626757","station_name":"駱興","element_type":"node","station_id":"10269626757"},"geometry":{"type":"Point","coordinates":[121.560957,29.970155]}},{"type":"Feature","properties":{"osm_id":"10269626765","station_name":"應嘉路","element_type":"node","station_id":"10269626765"},"geometry":{"type":"Point","coordinates":[121.546349,29.958046]}},{"type":"Feature","properties":{"osm_id":"13104028205","station_name":"寧慈東路","element_type":"node","station_id":"13104028205"},"geometry":{"type":"Point","coordinates":[121.540566,29.933006]}},{"type":"Feature","properties":{"osm_id":"13104028201","station_name":"雲飛路(康橋南)","element_type":"node","station_id":"13104028201"},"geometry":{"type":"Point","coordinates":[121.53946,29.918678]}},{"type":"Feature","properties":{"osm_id":"13104028188","station_name":"灣頭","element_type":"node","station_id":"13104028188"},"geometry":{"type":"Point","coordinates":[121.546988,29.901708]}},{"type":"Feature","properties":{"osm_id":"13104028181","station_name":"寧波大劇院","element_type":"node","station_id":"13104028181"},"geometry":{"type":"Point","coordinates":[121.546125,29.89248]}},{"type":"Feature","properties":{"osm_id":"13104028164","station_name":"曙光","element_type":"node","station_id":"13104028164"},"geometry":{"type":"Point","coordinates":[121.568122,29.879493]}},{"type":"Feature","properties":{"osm_id":"13104028156","station_name":"體育館","element_type":"node","station_id":"13104028156"},"geometry":{"type":"Point","coordinates":[121.581271,29.875222]}},{"type":"Feature","properties":{"osm_id":"13104028147","station_name":"福民公園","element_type":"node","station_id":"13104028147"},"geometry":{"type":"Point","coordinates":[121.592943,29.874626]}},{"type":"Feature","properties":{"osm_id":"13104028141","station_name":"新天路","element_type":"node","station_id":"13104028141"},"geometry":{"type":"Point","coordinates":[121.601386,29.873887]}},{"type":"Feature","properties":{"osm_id":"13104028136","station_name":"北明程路","element_type":"node","station_id":"13104028136"},"geometry":{"type":"Point","coordinates":[121.622592,29.868262]}},{"type":"Feature","properties":{"osm_id":"10269647660","station_name":"邱隘","element_type":"node","station_id":"10269647660"},"geometry":{"type":"Point","coordinates":[121.63015,29.85034]}},{"type":"Feature","properties":{"osm_id":"10269647666","station_name":"尚德路","element_type":"node","station_id":"10269647666"},"geometry":{"type":"Point","coordinates":[121.626241,29.833501]}},{"type":"Feature","properties":{"osm_id":"10269647673","station_name":"回龍","element_type":"node","station_id":"10269647673"},"geometry":{"type":"Point","coordinates":[121.623413,29.82074]}},{"type":"Feature","properties":{"osm_id":"10269647688","station_name":"安石路","element_type":"node","station_id":"10269647688"},"geometry":{"type":"Point","coordinates":[121.622395,29.802114]}},{"type":"Feature","properties":{"osm_id":"10269647706","station_name":"雲龍","element_type":"node","station_id":"10269647706"},"geometry":{"type":"Point","coordinates":[121.598121,29.785831]}},{"type":"Feature","properties":{"osm_id":"3740821496","station_name":"中興大橋南","element_type":"node","station_id":"3740821496"},"geometry":{"type":"Point","coordinates":[121.584126,29.892157]}},{"type":"Feature","properties":{"osm_id":"3740821500","station_name":"明樓","element_type":"node","station_id":"3740821500"},"geometry":{"type":"Point","coordinates":[121.584178,29.881369]}},{"type":"Feature","properties":{"osm_id":"3740822464","station_name":"仇畢","element_type":"node","station_id":"3740822464"},"geometry":{"type":"Point","coordinates":[121.571301,29.847788]}},{"type":"Feature","properties":{"osm_id":"3740821511","station_name":"錢湖北路","element_type":"node","station_id":"3740821511"},"geometry":{"type":"Point","coordinates":[121.561224,29.838197]}},{"type":"Feature","properties":{"osm_id":"3740821514","station_name":"錦寓路","element_type":"node","station_id":"3740821514"},"geometry":{"type":"Point","coordinates":[121.551983,29.836401]}},{"type":"Feature","properties":{"osm_id":"6612392318","station_name":"四明中路","element_type":"node","station_id":"6612392318"},"geometry":{"type":"Point","coordinates":[121.546762,29.830645]}},{"type":"Feature","properties":{"osm_id":"3740821521","station_name":"南部商務區","element_type":"node","station_id":"3740821521"},"geometry":{"type":"Point","coordinates":[121.54503,29.809886]}},{"type":"Feature","properties":{"osm_id":"3740821524","station_name":"鄞州客運總站","element_type":"node","station_id":"3740821524"},"geometry":{"type":"Point","coordinates":[121.53762,29.803521]}},{"type":"Feature","properties":{"osm_id":"3740822427","station_name":"句章路","element_type":"node","station_id":"3740822427"},"geometry":{"type":"Point","coordinates":[121.526733,29.799353]}},{"type":"Feature","properties":{"osm_id":"3740822428","station_name":"高塘橋","element_type":"node","station_id":"3740822428"},"geometry":{"type":"Point","coordinates":[121.524884,29.792085]}},{"type":"Feature","properties":{"osm_id":"3740822471","station_name":"姜山","element_type":"node","station_id":"3740822471"},"geometry":{"type":"Point","coordinates":[121.523501,29.773162]}},{"type":"Feature","properties":{"osm_id":"6838446454","station_name":"獅山","element_type":"node","station_id":"6838446454"},"geometry":{"type":"Point","coordinates":[121.515035,29.766441]}},{"type":"Feature","properties":{"osm_id":"3740822473","station_name":"明輝路","element_type":"node","station_id":"3740822473"},"geometry":{"type":"Point","coordinates":[121.501099,29.766853]}},{"type":"Feature","properties":{"osm_id":"3740822440","station_name":"朝陽","element_type":"node","station_id":"3740822440"},"geometry":{"type":"Point","coordinates":[121.484191,29.76755]}},{"type":"Feature","properties":{"osm_id":"3740822478","station_name":"方橋","element_type":"node","station_id":"3740822478"},"geometry":{"type":"Point","coordinates":[121.448016,29.747896]}},{"type":"Feature","properties":{"osm_id":"3740822453","station_name":"璡琳","element_type":"node","station_id":"3740822453"},"geometry":{"type":"Point","coordinates":[121.444215,29.724574]}},{"type":"Feature","properties":{"osm_id":"3740822484","station_name":"南渡","element_type":"node","station_id":"3740822484"},"geometry":{"type":"Point","coordinates":[121.442978,29.711179]}},{"type":"Feature","properties":{"osm_id":"3740822459","station_name":"大成東路","element_type":"node","station_id":"3740822459"},"geometry":{"type":"Point","coordinates":[121.445188,29.674507]}},{"type":"Feature","properties":{"osm_id":"3740822460","station_name":"金海路","element_type":"node","station_id":"3740822460"},"geometry":{"type":"Point","coordinates":[121.444948,29.654072]}},{"type":"Feature","properties":{"osm_id":"13456668284","station_name":"衙前","element_type":"node","station_id":"13456668284"},"geometry":{"type":"Point","coordinates":[121.705588,29.932635]}},{"type":"Feature","properties":{"osm_id":"13456668286","station_name":"小港西","element_type":"node","station_id":"13456668286"},"geometry":{"type":"Point","coordinates":[121.695323,29.925618]}},{"type":"Feature","properties":{"osm_id":"13456668295","station_name":"謝墅","element_type":"node","station_id":"13456668295"},"geometry":{"type":"Point","coordinates":[121.677532,29.913889]}},{"type":"Feature","properties":{"osm_id":"13456668299","station_name":"梅墟","element_type":"node","station_id":"13456668299"},"geometry":{"type":"Point","coordinates":[121.65112,29.896597]}},{"type":"Feature","properties":{"osm_id":"13456676207","station_name":"聚賢路","element_type":"node","station_id":"13456676207"},"geometry":{"type":"Point","coordinates":[121.630048,29.891144]}},{"type":"Feature","properties":{"osm_id":"13456676214","station_name":"滄海北路","element_type":"node","station_id":"13456676214"},"geometry":{"type":"Point","coordinates":[121.59907,29.889332]}},{"type":"Feature","properties":{"osm_id":"13456676223","station_name":"明珠路","element_type":"node","station_id":"13456676223"},"geometry":{"type":"Point","coordinates":[121.594312,29.885458]}},{"type":"Feature","properties":{"osm_id":"13456676243","station_name":"慶豐橋東","element_type":"node","station_id":"13456676243"},"geometry":{"type":"Point","coordinates":[121.573293,29.885]}},{"type":"Feature","properties":{"osm_id":"13456676272","station_name":"新芝路","element_type":"node","station_id":"13456676272"},"geometry":{"type":"Point","coordinates":[121.535337,29.889639]}},{"type":"Feature","properties":{"osm_id":"13456676280","station_name":"市中醫院","element_type":"node","station_id":"13456676280"},"geometry":{"type":"Point","coordinates":[121.515324,29.890434]}},{"type":"Feature","properties":{"osm_id":"13456676293","station_name":"宋家漕","element_type":"node","station_id":"13456676293"},"geometry":{"type":"Point","coordinates":[121.486158,29.88153]}},{"type":"Feature","properties":{"osm_id":"13456676297","station_name":"賣面橋","element_type":"node","station_id":"13456676297"},"geometry":{"type":"Point","coordinates":[121.468329,29.877812]}},{"type":"Feature","properties":{"osm_id":"13456676303","station_name":"匯士路","element_type":"node","station_id":"13456676303"},"geometry":{"type":"Point","coordinates":[121.444204,29.875954]}},{"type":"Feature","properties":{"osm_id":"13456676310","station_name":"集士港","element_type":"node","station_id":"13456676310"},"geometry":{"type":"Point","coordinates":[121.433926,29.863389]}},{"type":"Feature","properties":{"osm_id":"13456676312","station_name":"雲林西路","element_type":"node","station_id":"13456676312"},"geometry":{"type":"Point","coordinates":[121.433535,29.851225]}},{"type":"Feature","properties":{"osm_id":"13456676315","station_name":"古林","element_type":"node","station_id":"13456676315"},"geometry":{"type":"Point","coordinates":[121.432099,29.83666]}},{"type":"Feature","properties":{"osm_id":"10269694280","station_name":"開元路","element_type":"node","station_id":"10269694280"},"geometry":{"type":"Point","coordinates":[121.494831,29.948455]}},{"type":"Feature","properties":{"osm_id":"10269716789","station_name":"洪塘","element_type":"node","station_id":"10269716789"},"geometry":{"type":"Point","coordinates":[121.502748,29.941643]}},{"type":"Feature","properties":{"osm_id":"10269716788","station_name":"洪盛路","element_type":"node","station_id":"10269716788"},"geometry":{"type":"Point","coordinates":[121.512819,29.933308]}},{"type":"Feature","properties":{"osm_id":"10269694299","station_name":"榭嘉","element_type":"node","station_id":"10269694299"},"geometry":{"type":"Point","coordinates":[121.515608,29.916506]}},{"type":"Feature","properties":{"osm_id":"10269716786","station_name":"青林灣","element_type":"node","station_id":"10269716786"},"geometry":{"type":"Point","coordinates":[121.514754,29.903305]}},{"type":"Feature","properties":{"osm_id":"10269716782","station_name":"聯豐","element_type":"node","station_id":"10269716782"},"geometry":{"type":"Point","coordinates":[121.511536,29.87219]}},{"type":"Feature","properties":{"osm_id":"10269716737","station_name":"南苑","element_type":"node","station_id":"10269716737"},"geometry":{"type":"Point","coordinates":[121.519692,29.851635]}},{"type":"Feature","properties":{"osm_id":"10269716781","station_name":"段塘","element_type":"node","station_id":"10269716781"},"geometry":{"type":"Point","coordinates":[121.519278,29.843662]}},{"type":"Feature","properties":{"osm_id":"10269716748","station_name":"堇山西路","element_type":"node","station_id":"10269716748"},"geometry":{"type":"Point","coordinates":[121.524601,29.831182]}},{"type":"Feature","properties":{"osm_id":"10269716763","station_name":"鄞州公園南","element_type":"node","station_id":"10269716763"},"geometry":{"type":"Point","coordinates":[121.536626,29.810106]}},{"type":"Feature","properties":{"osm_id":"10269716769","station_name":"學府路","element_type":"node","station_id":"10269716769"},"geometry":{"type":"Point","coordinates":[121.555461,29.807279]}},{"type":"Feature","properties":{"osm_id":"10269716778","station_name":"寒松路","element_type":"node","station_id":"10269716778"},"geometry":{"type":"Point","coordinates":[121.572361,29.796176]}},{"type":"Feature","properties":{"route_company":"寧波市軌道交通集團有限公司","route_id":"1","element_type":"way","color":"#138fc9","route_name":"1號線：高橋西 → 霞浦","osm_id":"4622007","railway":"subway","status":"open"},"geometry":{"type":"LineString","coordinates":[[121.44909,29.913078],[121.459677,29.903781],[121.472421,29.897244],[121.483057,29.892661],[121.492621,29.890026],[121.503964,29.885113]]}},{"type":"Feature","properties":{"route_company":"寧波市軌道交通集團有限公司","route_id":"1","element_type":"way","color":"#138fc9","route_name":"1號線：高橋西 → 霞浦","osm_id":"4622007","railway":"subway","status":"open"},"geometry":{"type":"LineString","coordinates":[[121.503964,29.885113],[121.515268,29.88194]]}},{"type":"Feature","properties":{"route_company":"寧波市軌道交通集團有限公司","route_id":"1","element_type":"way","color":"#138fc9","route_name":"1號線：高橋西 → 霞浦","osm_id":"4622007","railway":"subway","status":"open"},"geometry":{"type":"LineString","coordinates":[[121.515268,29.88194],[121.528023,29.87951]]}},{"type":"Feature","properties":{"route_company":"寧波市軌道交通集團有限公司","route_id":"1","element_type":"way","color":"#138fc9","route_name":"1號線：高橋西 → 霞浦","osm_id":"4622007","railway":"subway","status":"open"},"geometry":{"type":"LineString","coordinates":[[121.528023,29.87951],[121.535535,29.877499],[121.544839,29.875576]]}},{"type":"Feature","properties":{"route_company":"寧波市軌道交通集團有限公司","route_id":"1","element_type":"way","color":"#138fc9","route_name":"1號線：高橋西 → 霞浦","osm_id":"4622007","railway":"subway","status":"open"},"geometry":{"type":"LineString","coordinates":[[121.544839,29.875576],[121.551938,29.873908],[121.561183,29.871937],[121.569921,29.869915],[121.577719,29.866934]]}},{"type":"Feature","properties":{"route_company":"寧波市軌道交通集團有限公司","route_id":"1","element_type":"way","color":"#138fc9","route_name":"1號線：高橋西 → 霞浦","osm_id":"4622007","railway":"subway","status":"open"},"geometry":{"type":"LineString","coordinates":[[121.577719,29.866934],[121.589152,29.863526],[121.598177,29.86157],[121.610664,29.86277]]}},{"type":"Feature","properties":{"route_company":"寧波市軌道交通集團有限公司","route_id":"1","element_type":"way","color":"#138fc9","route_name":"1號線：高橋西 → 霞浦","osm_id":"4622007","railway":"subway","status":"open"},"geometry":{"type":"LineString","coordinates":[[121.610664,29.86277],[121.620143,29.861489],[121.631683,29.858652]]}},{"type":"Feature","properties":{"route_company":"寧波市軌道交通集團有限公司","route_id":"1","element_type":"way","color":"#138fc9","route_name":"1號線：高橋西 → 霞浦","osm_id":"4622007","railway":"subway","status":"open"},"geometry":{"type":"LineString","coordinates":[[121.631683,29.858652],[121.646662,29.855569],[121.657383,29.849043],[121.685916,29.840966],[121.729352,29.841899],[121.778042,29.877316],[121.790469,29.895942],[121.804339,29.906847],[121.825618,29.896192],[121.83957,29.893328],[121.852786,29.893075]]}},{"type":"Feature","properties":{"route_company":"寧波市軌道交通集團有限公司","route_id":"2","element_type":"way","color":"#d60b17","route_name":"2號線：櫟社國際機場 -> 紅聯","osm_id":"5558604","railway":"subway","status":"open"},"geometry":{"type":"LineString","coordinates":[[121.456606,29.820167],[121.479034,29.811844],[121.491946,29.820771],[121.499842,29.827671]]}},{"type":"Feature","properties":{"route_company":"寧波市軌道交通集團有限公司","route_id":"2","element_type":"way","color":"#d60b17","route_name":"2號線：櫟社國際機場 -> 紅聯","osm_id":"5558604","railway":"subway","status":"open"},"geometry":{"type":"LineString","coordinates":[[121.499842,29.827671],[121.510162,29.834142],[121.508549,29.843983],[121.508077,29.852963],[121.513617,29.861147]]}},{"type":"Feature","properties":{"route_company":"寧波市軌道交通集團有限公司","route_id":"2","element_type":"way","color":"#d60b17","route_name":"2號線：櫟社國際機場 -> 紅聯","osm_id":"5558604","railway":"subway","status":"open"},"geometry":{"type":"LineString","coordinates":[[121.513617,29.861147],[121.522194,29.861067],[121.533331,29.865113]]}},{"type":"Feature","properties":{"route_company":"寧波市軌道交通集團有限公司","route_id":"2","element_type":"way","color":"#d60b17","route_name":"2號線：櫟社國際機場 -> 紅聯","osm_id":"5558604","railway":"subway","status":"open"},"geometry":{"type":"LineString","coordinates":[[121.533331,29.865113],[121.544638,29.869766],[121.544839,29.875576]]}},{"type":"Feature","properties":{"route_company":"寧波市軌道交通集團有限公司","route_id":"2","element_type":"way","color":"#d60b17","route_name":"2號線：櫟社國際機場 -> 紅聯","osm_id":"5558604","railway":"subway","status":"open"},"geometry":{"type":"LineString","coordinates":[[121.544839,29.875576],[121.554604,29.885327]]}},{"type":"Feature","properties":{"route_company":"寧波市軌道交通集團有限公司","route_id":"2","element_type":"way","color":"#d60b17","route_name":"2號線：櫟社國際機場 -> 紅聯","osm_id":"5558604","railway":"subway","status":"open"},"geometry":{"type":"LineString","coordinates":[[121.554604,29.885327],[121.557114,29.892151]]}},{"type":"Feature","properties":{"route_company":"寧波市軌道交通集團有限公司","route_id":"2","element_type":"way","color":"#d60b17","route_name":"2號線：櫟社國際機場 -> 紅聯","osm_id":"5558604","railway":"subway","status":"open"},"geometry":{"type":"LineString","coordinates":[[121.557114,29.892151],[121.562642,29.900964],[121.571077,29.906],[121.577666,29.906551]]}},{"type":"Feature","properties":{"route_company":"寧波市軌道交通集團有限公司","route_id":"2","element_type":"way","color":"#d60b17","route_name":"2號線：櫟社國際機場 -> 紅聯","osm_id":"5558604","railway":"subway","status":"open"},"geometry":{"type":"LineString","coordinates":[[121.577666,29.906551],[121.588092,29.90673],[121.608549,29.91165],[121.616265,29.915088]]}},{"type":"Feature","properties":{"route_company":"寧波市軌道交通集團有限公司","route_id":"2","element_type":"way","color":"#d60b17","route_name":"2號線：櫟社國際機場 -> 紅聯","osm_id":"5558604","railway":"subway","status":"open"},"geometry":{"type":"LineString","coordinates":[[121.616265,29.915088],[121.630741,29.914153],[121.656876,29.924278],[121.673349,29.940897],[121.689649,29.952466],[121.701046,29.953914],[121.712224,29.952419],[121.719574,29.94137]]}},{"type":"Feature","properties":{"route_company":"","route_id":"4","element_type":"way","color":"#80b82b","route_name":"4號線：慈城西 -> 國際會議中心","osm_id":"12106703","railway":"subway","status":"open"},"geometry":{"type":"LineString","coordinates":[[121.433073,29.987253],[121.446444,29.97787],[121.455574,29.963757],[121.457685,29.950502],[121.466124,29.94353],[121.48243,29.938656],[121.496792,29.930369],[121.515017,29.923723]]}},{"type":"Feature","properties":{"route_company":"","route_id":"4","element_type":"way","color":"#80b82b","route_name":"4號線：慈城西 -> 國際會議中心","osm_id":"12106703","railway":"subway","status":"open"},"geometry":{"type":"LineString","coordinates":[[121.515017,29.923723],[121.529064,29.924462],[121.534782,29.912788],[121.52867,29.898725],[121.52888,29.890063]]}},{"type":"Feature","properties":{"route_company":"","route_id":"4","element_type":"way","color":"#80b82b","route_name":"4號線：慈城西 -> 國際會議中心","osm_id":"12106703","railway":"subway","status":"open"},"geometry":{"type":"LineString","coordinates":[[121.52888,29.890063],[121.528023,29.87951]]}},{"type":"Feature","properties":{"route_company":"","route_id":"4","element_type":"way","color":"#80b82b","route_name":"4號線：慈城西 -> 國際會議中心","osm_id":"12106703","railway":"subway","status":"open"},"geometry":{"type":"LineString","coordinates":[[121.528023,29.87951],[121.52734,29.87455],[121.533331,29.865113]]}},{"type":"Feature","properties":{"route_company":"","route_id":"4","element_type":"way","color":"#80b82b","route_name":"4號線：慈城西 -> 國際會議中心","osm_id":"12106703","railway":"subway","status":"open"},"geometry":{"type":"LineString","coordinates":[[121.533331,29.865113],[121.544471,29.861337],[121.551503,29.857401],[121.56257,29.855083],[121.574235,29.855259]]}},{"type":"Feature","properties":{"route_company":"","route_id":"4","element_type":"way","color":"#80b82b","route_name":"4號線：慈城西 -> 國際會議中心","osm_id":"12106703","railway":"subway","status":"open"},"geometry":{"type":"LineString","coordinates":[[121.574235,29.855259],[121.58373,29.85383],[121.587402,29.842445],[121.579539,29.828574],[121.575538,29.819671]]}},{"type":"Feature","properties":{"route_company":"","route_id":"4","element_type":"way","color":"#80b82b","route_name":"4號線：慈城西 -> 國際會議中心","osm_id":"12106703","railway":"subway","status":"open"},"geometry":{"type":"LineString","coordinates":[[121.575538,29.819671],[121.588499,29.807163],[121.606493,29.795187]]}},{"type":"Feature","properties":{"route_company":"","route_id":"4","element_type":"way","color":"#80b82b","route_name":"4號線：慈城西 -> 國際會議中心","osm_id":"12106703","railway":"subway","status":"open"},"geometry":{"type":"LineString","coordinates":[[121.606493,29.795187],[121.624044,29.784734],[121.630838,29.765211]]}},{"type":"Feature","properties":{"route_company":"寧波市軌道交通集團有限公司","route_id":"5","element_type":"way","color":"#091f8f","route_name":"5號線：佈政 -> 駱駝橋","osm_id":"13615483","railway":"subway","status":"open"},"geometry":{"type":"LineString","coordinates":[[121.468448,29.849205],[121.475169,29.840699],[121.486423,29.830333],[121.499842,29.827671]]}},{"type":"Feature","properties":{"route_company":"寧波市軌道交通集團有限公司","route_id":"5","element_type":"way","color":"#091f8f","route_name":"5號線：佈政 -> 駱駝橋","osm_id":"13615483","railway":"subway","status":"open"},"geometry":{"type":"LineString","coordinates":[[121.499842,29.827671],[121.505782,29.821599],[121.523672,29.821592]]}},{"type":"Feature","properties":{"route_company":"寧波市軌道交通集團有限公司","route_id":"5","element_type":"way","color":"#091f8f","route_name":"5號線：佈政 -> 駱駝橋","osm_id":"13615483","railway":"subway","status":"open"},"geometry":{"type":"LineString","coordinates":[[121.523672,29.821592],[121.535152,29.821805],[121.54584,29.821813]]}},{"type":"Feature","properties":{"route_company":"寧波市軌道交通集團有限公司","route_id":"5","element_type":"way","color":"#091f8f","route_name":"5號線：佈政 -> 駱駝橋","osm_id":"13615483","railway":"subway","status":"open"},"geometry":{"type":"LineString","coordinates":[[121.54584,29.821813],[121.563266,29.822526],[121.575538,29.819671]]}},{"type":"Feature","properties":{"route_company":"寧波市軌道交通集團有限公司","route_id":"5","element_type":"way","color":"#091f8f","route_name":"5號線：佈政 -> 駱駝橋","osm_id":"13615483","railway":"subway","status":"open"},"geometry":{"type":"LineString","coordinates":[[121.575538,29.819671],[121.588694,29.814361],[121.597788,29.819784],[121.600834,29.827864],[121.604692,29.84227],[121.608022,29.854763],[121.610664,29.86277]]}},{"type":"Feature","properties":{"route_company":"寧波市軌道交通集團有限公司","route_id":"5","element_type":"way","color":"#091f8f","route_name":"5號線：佈政 -> 駱駝橋","osm_id":"13615483","railway":"subway","status":"open"},"geometry":{"type":"LineString","coordinates":[[121.610664,29.86277],[121.613293,29.870783]]}},{"type":"Feature","properties":{"route_company":"寧波市軌道交通集團有限公司","route_id":"5","element_type":"way","color":"#091f8f","route_name":"5號線：佈政 -> 駱駝橋","osm_id":"13615483","railway":"subway","status":"open"},"geometry":{"type":"LineString","coordinates":[[121.613293,29.870783],[121.615599,29.877136],[121.617744,29.890639]]}},{"type":"Feature","properties":{"route_company":"寧波市軌道交通集團有限公司","route_id":"5","element_type":"way","color":"#091f8f","route_name":"5號線：佈政 -> 駱駝橋","osm_id":"13615483","railway":"subway","status":"open"},"geometry":{"type":"LineString","coordinates":[[121.617744,29.890639],[121.617924,29.899133],[121.616265,29.915088]]}},{"type":"Feature","properties":{"route_company":"寧波市軌道交通集團有限公司","route_id":"5","element_type":"way","color":"#091f8f","route_name":"5號線：佈政 -> 駱駝橋","osm_id":"13615483","railway":"subway","status":"open"},"geometry":{"type":"LineString","coordinates":[[121.616265,29.915088],[121.610569,29.923614],[121.601727,29.926758],[121.59078,29.926514],[121.57986,29.95193],[121.580088,29.969728]]}},{"type":"Feature","properties":{"route_company":"寧波市軌道交通集團有限公司","route_id":"5","element_type":"way","color":"#091f8f","route_name":"5號線：佈政 -> 駱駝橋","osm_id":"13615483","railway":"subway","status":"open"},"geometry":{"type":"LineString","coordinates":[[121.580088,29.969728],[121.581359,29.987011]]}},{"type":"Feature","properties":{"route_company":"寧波市軌道交通集團有限公司","route_id":"7","element_type":"way","color":"#855622","route_name":"7號線：俞範 -> 雲龍","osm_id":"19533619","railway":"subway","status":"open"},"geometry":{"type":"LineString","coordinates":[[121.654482,29.966337],[121.619566,29.964164],[121.608736,29.967172],[121.594234,29.969393],[121.580088,29.969728]]}},{"type":"Feature","properties":{"route_company":"寧波市軌道交通集團有限公司","route_id":"7","element_type":"way","color":"#855622","route_name":"7號線：俞範 -> 雲龍","osm_id":"19533619","railway":"subway","status":"open"},"geometry":{"type":"LineString","coordinates":[[121.580088,29.969728],[121.560957,29.970155],[121.546349,29.958046],[121.540566,29.933006],[121.53946,29.918678],[121.546988,29.901708],[121.546125,29.89248]]}},{"type":"Feature","properties":{"route_company":"寧波市軌道交通集團有限公司","route_id":"7","element_type":"way","color":"#855622","route_name":"7號線：俞範 -> 雲龍","osm_id":"19533619","railway":"subway","status":"open"},"geometry":{"type":"LineString","coordinates":[[121.546125,29.89248],[121.554604,29.885327]]}},{"type":"Feature","properties":{"route_company":"寧波市軌道交通集團有限公司","route_id":"7","element_type":"way","color":"#855622","route_name":"7號線：俞範 -> 雲龍","osm_id":"19533619","railway":"subway","status":"open"},"geometry":{"type":"LineString","coordinates":[[121.554604,29.885327],[121.568122,29.879493],[121.581271,29.875222]]}},{"type":"Feature","properties":{"route_company":"寧波市軌道交通集團有限公司","route_id":"7","element_type":"way","color":"#855622","route_name":"7號線：俞範 -> 雲龍","osm_id":"19533619","railway":"subway","status":"open"},"geometry":{"type":"LineString","coordinates":[[121.581271,29.875222],[121.592943,29.874626],[121.601386,29.873887],[121.613293,29.870783]]}},{"type":"Feature","properties":{"route_company":"寧波市軌道交通集團有限公司","route_id":"7","element_type":"way","color":"#855622","route_name":"7號線：俞範 -> 雲龍","osm_id":"19533619","railway":"subway","status":"open"},"geometry":{"type":"LineString","coordinates":[[121.613293,29.870783],[121.622592,29.868262],[121.631683,29.858652]]}},{"type":"Feature","properties":{"route_company":"寧波市軌道交通集團有限公司","route_id":"7","element_type":"way","color":"#855622","route_name":"7號線：俞範 -> 雲龍","osm_id":"19533619","railway":"subway","status":"open"},"geometry":{"type":"LineString","coordinates":[[121.631683,29.858652],[121.63015,29.85034],[121.626241,29.833501],[121.623413,29.82074],[121.622395,29.802114],[121.606493,29.795187]]}},{"type":"Feature","properties":{"route_company":"寧波市軌道交通集團有限公司","route_id":"7","element_type":"way","color":"#855622","route_name":"7號線：俞範 -> 雲龍","osm_id":"19533619","railway":"subway","status":"open"},"geometry":{"type":"LineString","coordinates":[[121.606493,29.795187],[121.598121,29.785831]]}},{"type":"Feature","properties":{"route_company":"寧波市軌道交通集團有限公司","route_id":"3","element_type":"way","color":"#eaae1a","route_name":"3號線：金海路 -> 大通橋","osm_id":"10383240","railway":"subway","status":"open"},"geometry":{"type":"LineString","coordinates":[[121.577666,29.906551],[121.584126,29.892157],[121.584178,29.881369]]}},{"type":"Feature","properties":{"route_company":"寧波市軌道交通集團有限公司","route_id":"3","element_type":"way","color":"#eaae1a","route_name":"3號線：金海路 -> 大通橋","osm_id":"10383240","railway":"subway","status":"open"},"geometry":{"type":"LineString","coordinates":[[121.584178,29.881369],[121.581271,29.875222]]}},{"type":"Feature","properties":{"route_company":"寧波市軌道交通集團有限公司","route_id":"3","element_type":"way","color":"#eaae1a","route_name":"3號線：金海路 -> 大通橋","osm_id":"10383240","railway":"subway","status":"open"},"geometry":{"type":"LineString","coordinates":[[121.581271,29.875222],[121.577719,29.866934]]}},{"type":"Feature","properties":{"route_company":"寧波市軌道交通集團有限公司","route_id":"3","element_type":"way","color":"#eaae1a","route_name":"3號線：金海路 -> 大通橋","osm_id":"10383240","railway":"subway","status":"open"},"geometry":{"type":"LineString","coordinates":[[121.577719,29.866934],[121.574235,29.855259]]}},{"type":"Feature","properties":{"route_company":"寧波市軌道交通集團有限公司","route_id":"3","element_type":"way","color":"#eaae1a","route_name":"3號線：金海路 -> 大通橋","osm_id":"10383240","railway":"subway","status":"open"},"geometry":{"type":"LineString","coordinates":[[121.574235,29.855259],[121.571301,29.847788],[121.561224,29.838197],[121.551983,29.836401],[121.546762,29.830645],[121.54584,29.821813]]}},{"type":"Feature","properties":{"route_company":"寧波市軌道交通集團有限公司","route_id":"3","element_type":"way","color":"#eaae1a","route_name":"3號線：金海路 -> 大通橋","osm_id":"10383240","railway":"subway","status":"open"},"geometry":{"type":"LineString","coordinates":[[121.54584,29.821813],[121.54503,29.809886]]}},{"type":"Feature","properties":{"route_company":"寧波市軌道交通集團有限公司","route_id":"3","element_type":"way","color":"#eaae1a","route_name":"3號線：金海路 -> 大通橋","osm_id":"10383240","railway":"subway","status":"open"},"geometry":{"type":"LineString","coordinates":[[121.54503,29.809886],[121.53762,29.803521],[121.526733,29.799353],[121.524884,29.792085],[121.523501,29.773162],[121.515035,29.766441],[121.501099,29.766853],[121.484191,29.76755],[121.448016,29.747896],[121.444215,29.724574],[121.442978,29.711179],[121.445188,29.674507],[121.444948,29.654072]]}},{"type":"Feature","properties":{"route_company":"寧波市軌道交通集團有限公司","route_id":"6","element_type":"way","color":"#197c39","route_name":"6號線：紅聯 -> 古林","osm_id":"20085684","railway":"subway","status":"open"},"geometry":{"type":"LineString","coordinates":[[121.719574,29.94137],[121.705588,29.932635],[121.695323,29.925618],[121.677532,29.913889],[121.65112,29.896597],[121.630048,29.891144],[121.617744,29.890639]]}},{"type":"Feature","properties":{"route_company":"寧波市軌道交通集團有限公司","route_id":"6","element_type":"way","color":"#197c39","route_name":"6號線：紅聯 -> 古林","osm_id":"20085684","railway":"subway","status":"open"},"geometry":{"type":"LineString","coordinates":[[121.617744,29.890639],[121.59907,29.889332],[121.594312,29.885458],[121.584178,29.881369]]}},{"type":"Feature","properties":{"route_company":"寧波市軌道交通集團有限公司","route_id":"6","element_type":"way","color":"#197c39","route_name":"6號線：紅聯 -> 古林","osm_id":"20085684","railway":"subway","status":"open"},"geometry":{"type":"LineString","coordinates":[[121.584178,29.881369],[121.573293,29.885],[121.557114,29.892151]]}},{"type":"Feature","properties":{"route_company":"寧波市軌道交通集團有限公司","route_id":"6","element_type":"way","color":"#197c39","route_name":"6號線：紅聯 -> 古林","osm_id":"20085684","railway":"subway","status":"open"},"geometry":{"type":"LineString","coordinates":[[121.557114,29.892151],[121.546125,29.89248]]}},{"type":"Feature","properties":{"route_company":"寧波市軌道交通集團有限公司","route_id":"6","element_type":"way","color":"#197c39","route_name":"6號線：紅聯 -> 古林","osm_id":"20085684","railway":"subway","status":"open"},"geometry":{"type":"LineString","coordinates":[[121.546125,29.89248],[121.535337,29.889639],[121.52888,29.890063]]}},{"type":"Feature","properties":{"route_company":"寧波市軌道交通集團有限公司","route_id":"6","element_type":"way","color":"#197c39","route_name":"6號線：紅聯 -> 古林","osm_id":"20085684","railway":"subway","status":"open"},"geometry":{"type":"LineString","coordinates":[[121.52888,29.890063],[121.515324,29.890434]]}},{"type":"Feature","properties":{"route_company":"寧波市軌道交通集團有限公司","route_id":"6","element_type":"way","color":"#197c39","route_name":"6號線：紅聯 -> 古林","osm_id":"20085684","railway":"subway","status":"open"},"geometry":{"type":"LineString","coordinates":[[121.515324,29.890434],[121.503964,29.885113]]}},{"type":"Feature","properties":{"route_company":"寧波市軌道交通集團有限公司","route_id":"6","element_type":"way","color":"#197c39","route_name":"6號線：紅聯 -> 古林","osm_id":"20085684","railway":"subway","status":"open"},"geometry":{"type":"LineString","coordinates":[[121.503964,29.885113],[121.486158,29.88153],[121.468329,29.877812],[121.444204,29.875954],[121.433926,29.863389],[121.433535,29.851225],[121.432099,29.83666]]}},{"type":"Feature","properties":{"route_company":"寧波市軌道交通集團有限公司","route_id":"8","element_type":"way","color":"#e61477","route_name":"8號線：開元路 -> 寒松路","osm_id":"19314267","railway":"subway","status":"open"},"geometry":{"type":"LineString","coordinates":[[121.494831,29.948455],[121.502748,29.941643],[121.512819,29.933308],[121.515017,29.923723]]}},{"type":"Feature","properties":{"route_company":"寧波市軌道交通集團有限公司","route_id":"8","element_type":"way","color":"#e61477","route_name":"8號線：開元路 -> 寒松路","osm_id":"19314267","railway":"subway","status":"open"},"geometry":{"type":"LineString","coordinates":[[121.515017,29.923723],[121.515608,29.916506],[121.514754,29.903305],[121.515324,29.890434]]}},{"type":"Feature","properties":{"route_company":"寧波市軌道交通集團有限公司","route_id":"8","element_type":"way","color":"#e61477","route_name":"8號線：開元路 -> 寒松路","osm_id":"19314267","railway":"subway","status":"open"},"geometry":{"type":"LineString","coordinates":[[121.515324,29.890434],[121.515268,29.88194]]}},{"type":"Feature","properties":{"route_company":"寧波市軌道交通集團有限公司","route_id":"8","element_type":"way","color":"#e61477","route_name":"8號線：開元路 -> 寒松路","osm_id":"19314267","railway":"subway","status":"open"},"geometry":{"type":"LineString","coordinates":[[121.515268,29.88194],[121.511536,29.87219],[121.513617,29.861147]]}},{"type":"Feature","properties":{"route_company":"寧波市軌道交通集團有限公司","route_id":"8","element_type":"way","color":"#e61477","route_name":"8號線：開元路 -> 寒松路","osm_id":"19314267","railway":"subway","status":"open"},"geometry":{"type":"LineString","coordinates":[[121.513617,29.861147],[121.519692,29.851635],[121.519278,29.843662],[121.524601,29.831182],[121.523672,29.821592]]}},{"type":"Feature","properties":{"route_company":"寧波市軌道交通集團有限公司","route_id":"8","element_type":"way","color":"#e61477","route_name":"8號線：開元路 -> 寒松路","osm_id":"19314267","railway":"subway","status":"open"},"geometry":{"type":"LineString","coordinates":[[121.523672,29.821592],[121.536626,29.810106],[121.54503,29.809886]]}},{"type":"Feature","properties":{"route_company":"寧波市軌道交通集團有限公司","route_id":"8","element_type":"way","color":"#e61477","route_name":"8號線：開元路 -> 寒松路","osm_id":"19314267","railway":"subway","status":"open"},"geometry":{"type":"LineString","coordinates":[[121.54503,29.809886],[121.555461,29.807279],[121.572361,29.796176]]}}]}