{"type":"FeatureCollection","generator":"metroOsmFetch (OpenStreetMap / Overpass, ODbL)","features":[{"type":"Feature","properties":{"route_company":"宁波市轨道交通集团有限公司","route_id":"1","element_type":"way","color":"#138fc9","route_name":"1号线：高桥西 → 霞浦","osm_id":"4622007","railway":"subway"},"geometry":{"type":"LineString","coordinates":[[121.449013,29.913055],[121.459648,29.903726],[121.472395,29.897207],[121.483041,29.892616],[121.492582,29.889981],[121.504731,29.884201],[121.517108,29.881173],[121.527996,29.879498],[121.535519,29.877458],[121.544862,29.875549],[121.551922,29.873867],[121.561169,29.871896],[121.569907,29.869874],[121.577729,29.866909],[121.589136,29.863485],[121.598175,29.861527],[121.610685,29.862744],[121.620131,29.861447],[121.63164,29.858624],[121.646644,29.855529],[121.657343,29.849017],[121.685916,29.840947],[121.729388,29.841847],[121.778064,29.877305],[121.790541,29.895916],[121.804326,29.906828],[121.82561,29.89617],[121.839567,29.893306],[121.852779,29.893019]]}},{"type":"Feature","properties":{"route_company":"宁波市轨道交通集团有限公司","route_id":"2","element_type":"way","color":"#d60b17","route_name":"2号线：栎社国际机场 -> 红联","osm_id":"5558604","railway":"subway"},"geometry":{"type":"LineString","coordinates":[[121.456576,29.820127],[121.479043,29.811797],[121.49199,29.820744],[121.499798,29.827638],[121.510205,29.834113],[121.508576,29.844024],[121.508126,29.852943],[121.513584,29.861123],[121.522224,29.861028],[121.533337,29.865077],[121.544693,29.869769],[121.544862,29.875549],[121.554616,29.885293],[121.557131,29.892164],[121.562695,29.900955],[121.571078,29.905953],[121.577709,29.906527],[121.588067,29.906688],[121.608553,29.911637],[121.61629,29.915083],[121.63074,29.914137],[121.656908,29.924228],[121.673359,29.940884],[121.689678,29.952426],[121.701032,29.953868],[121.71221,29.952374],[121.71952,29.941365]]}},{"type":"Feature","properties":{"route_company":"","route_id":"4","element_type":"way","color":"#80b82b","route_name":"4号线：慈城西 -> 国际会议中心","osm_id":"12106703","railway":"subway"},"geometry":{"type":"LineString","coordinates":[[121.433055,29.987245],[121.446433,29.977844],[121.455506,29.963783],[121.457628,29.950497],[121.466117,29.943501],[121.482404,29.938627],[121.496775,29.930341],[121.514983,29.923705],[121.529061,29.924423],[121.534733,29.912791],[121.528627,29.898729],[121.528852,29.890087],[121.527996,29.879498],[121.527278,29.874569],[121.533337,29.865077],[121.544435,29.861282],[121.551428,29.857365],[121.562571,29.855029],[121.574261,29.855239],[121.583716,29.853791],[121.587345,29.84247],[121.579473,29.828593],[121.575488,29.819661],[121.588469,29.807111],[121.60798,29.795182],[121.624008,29.784699],[121.63074,29.765244]]}},{"type":"Feature","properties":{"route_company":"宁波市轨道交通集团有限公司","route_id":"5","element_type":"way","color":"#091f8f","route_name":"5号线：布政 -> 骆驼桥","osm_id":"13615483","railway":"subway"},"geometry":{"type":"LineString","coordinates":[[121.468413,29.849222],[121.475166,29.840658],[121.486424,29.830271],[121.499798,29.827638],[121.50571,29.821529],[121.523632,29.821579],[121.535146,29.821746],[121.545878,29.821791],[121.563256,29.822472],[121.575488,29.819661],[121.588683,29.81433],[121.597846,29.819763],[121.600882,29.827856],[121.604755,29.84227],[121.608091,29.854743],[121.610685,29.862744],[121.613318,29.870755],[121.615648,29.877125],[121.617741,29.890665],[121.617981,29.899133],[121.61629,29.915083],[121.610579,29.923628],[121.601726,29.926772],[121.59078,29.926551],[121.579893,29.951929],[121.580121,29.96975],[121.581397,29.987008]]}},{"type":"Feature","properties":{"route_company":"宁波市轨道交通集团有限公司","route_id":"7","element_type":"way","color":"#855622","route_name":"7号线：俞范 -> 云龙","osm_id":"19533619","railway":"subway"},"geometry":{"type":"LineString","coordinates":[[121.654501,29.966376],[121.619581,29.964207],[121.608756,29.967211],[121.594232,29.969444],[121.580121,29.96975],[121.560962,29.970224],[121.546284,29.958033],[121.540494,29.933024],[121.539441,29.918638],[121.546969,29.901668],[121.546079,29.892499],[121.554616,29.885293],[121.568103,29.879453],[121.581292,29.875191],[121.592924,29.874587],[121.601367,29.873847],[121.613318,29.870755],[121.622575,29.868214],[121.63164,29.858624],[121.630081,29.850347],[121.626168,29.833512],[121.623343,29.820753],[121.622364,29.802169],[121.604906,29.795181],[121.598065,29.785855]]}},{"type":"Feature","properties":{"route_company":"宁波市轨道交通集团有限公司","route_id":"3","element_type":"way","color":"#eaae1a","route_name":"3号线：金海路 -> 大通桥","osm_id":"10383240","railway":"subway"},"geometry":{"type":"LineString","coordinates":[[121.445001,29.654073],[121.445223,29.674508],[121.443009,29.71118],[121.444257,29.724574],[121.448065,29.747888],[121.484184,29.767495],[121.501098,29.766807],[121.515047,29.766391],[121.523531,29.773164],[121.524963,29.792078],[121.526799,29.799334],[121.537603,29.803471],[121.545061,29.809849],[121.545878,29.821791],[121.546806,29.830636],[121.551985,29.836345],[121.561265,29.838178],[121.571355,29.847753],[121.574261,29.855239],[121.577729,29.866909],[121.581292,29.875191],[121.584214,29.881386],[121.58418,29.892172],[121.577709,29.906527]]}},{"type":"Feature","properties":{"route_company":"宁波市轨道交通集团有限公司","route_id":"6","element_type":"way","color":"#197c39","route_name":"6号线：红联 -> 古林","osm_id":"20085684","railway":"subway"},"geometry":{"type":"LineString","coordinates":[[121.71952,29.941365],[121.705519,29.932652],[121.695287,29.925655],[121.677468,29.913946],[121.651102,29.896642],[121.63004,29.891201],[121.617741,29.890665],[121.599056,29.889375],[121.594262,29.88546],[121.584214,29.881386],[121.57334,29.885053],[121.557131,29.892164],[121.546079,29.892499],[121.535327,29.889692],[121.528852,29.890087],[121.515308,29.890463],[121.503111,29.886005],[121.486146,29.881583],[121.468317,29.877865],[121.444192,29.876007],[121.433897,29.863391],[121.433517,29.851224],[121.43209,29.83666]]}},{"type":"Feature","properties":{"route_company":"宁波市轨道交通集团有限公司","route_id":"8","element_type":"way","color":"#e61477","route_name":"8号线：开元路 -> 寒松路","osm_id":"19314267","railway":"subway"},"geometry":{"type":"LineString","coordinates":[[121.494792,29.948416],[121.502704,29.941598],[121.512793,29.933264],[121.514983,29.923705],[121.515547,29.916513],[121.514721,29.903302],[121.515308,29.890463],[121.513374,29.882669],[121.51147,29.872198],[121.513584,29.861123],[121.519639,29.851653],[121.519239,29.843638],[121.524542,29.831182],[121.523632,29.821579],[121.536616,29.810042],[121.545061,29.809849],[121.55543,29.807229],[121.572318,29.796132]]}},{"type":"Feature","properties":{"osm_id":"2969807514","station_name":"高桥西","element_type":"node","station_id":"2969807514"},"geometry":{"type":"Point","coordinates":[121.449013,29.913055]}},{"type":"Feature","properties":{"osm_id":"2969807513","station_name":"高桥","element_type":"node","station_id":"2969807513"},"geometry":{"type":"Point","coordinates":[121.459648,29.903726]}},{"type":"Feature","properties":{"osm_id":"2969807512","station_name":"梁祝","element_type":"node","station_id":"2969807512"},"geometry":{"type":"Point","coordinates":[121.472395,29.897207]}},{"type":"Feature","properties":{"osm_id":"2969807509","station_name":"芦港","element_type":"node","station_id":"2969807509"},"geometry":{"type":"Point","coordinates":[121.483041,29.892616]}},{"type":"Feature","properties":{"osm_id":"2969807510","station_name":"徐家漕长乐","element_type":"node","station_id":"2969807510"},"geometry":{"type":"Point","coordinates":[121.492582,29.889981]}},{"type":"Feature","properties":{"osm_id":"2969807511","station_name":"望春桥","element_type":"node","station_id":"2969807511"},"geometry":{"type":"Point","coordinates":[121.504731,29.884201]}},{"type":"Feature","properties":{"osm_id":"2969811774","station_name":"泽民","element_type":"node","station_id":"2969811774"},"geometry":{"type":"Point","coordinates":[121.517108,29.881173]}},{"type":"Feature","properties":{"osm_id":"2969811772","station_name":"大卿桥","element_type":"node","station_id":"2969811772"},"geometry":{"type":"Point","coordinates":[121.527996,29.879498]}},{"type":"Feature","properties":{"osm_id":"2969811776","station_name":"西门口","element_type":"node","station_id":"2969811776"},"geometry":{"type":"Point","coordinates":[121.535519,29.877458]}},{"type":"Feature","properties":{"osm_id":"5325681130","station_name":"鼓楼","element_type":"node","station_id":"5325681130"},"geometry":{"type":"Point","coordinates":[121.544862,29.875549]}},{"type":"Feature","properties":{"osm_id":"2969811771","station_name":"东门口(天一广场)","element_type":"node","station_id":"2969811771"},"geometry":{"type":"Point","coordinates":[121.551922,29.873867]}},{"type":"Feature","properties":{"osm_id":"2969811773","station_name":"江厦桥东","element_type":"node","station_id":"2969811773"},"geometry":{"type":"Point","coordinates":[121.561169,29.871896]}},{"type":"Feature","properties":{"osm_id":"2969811775","station_name":"舟孟北路","element_type":"node","station_id":"2969811775"},"geometry":{"type":"Point","coordinates":[121.569907,29.869874]}},{"type":"Feature","properties":{"osm_id":"3740821503","station_name":"樱花公园","element_type":"node","station_id":"3740821503"},"geometry":{"type":"Point","coordinates":[121.577729,29.866909]}},{"type":"Feature","properties":{"osm_id":"2969814140","station_name":"福明路","element_type":"node","station_id":"2969814140"},"geometry":{"type":"Point","coordinates":[121.589136,29.863485]}},{"type":"Feature","properties":{"osm_id":"2969814135","station_name":"世纪大道","element_type":"node","station_id":"2969814135"},"geometry":{"type":"Point","coordinates":[121.598175,29.861527]}},{"type":"Feature","properties":{"osm_id":"5437724291","station_name":"海晏北路","element_type":"node","station_id":"5437724291"},"geometry":{"type":"Point","coordinates":[121.610685,29.862744]}},{"type":"Feature","properties":{"osm_id":"2969814139","station_name":"福庆北路","element_type":"node","station_id":"2969814139"},"geometry":{"type":"Point","coordinates":[121.620131,29.861447]}},{"type":"Feature","properties":{"osm_id":"13119712618","station_name":"盛莫路","element_type":"node","station_id":"13119712618"},"geometry":{"type":"Point","coordinates":[121.63164,29.858624]}},{"type":"Feature","properties":{"osm_id":"3369592218","station_name":"东环南路","element_type":"node","station_id":"3369592218"},"geometry":{"type":"Point","coordinates":[121.646644,29.855529]}},{"type":"Feature","properties":{"osm_id":"3369592222","station_name":"邱隘东","element_type":"node","station_id":"3369592222"},"geometry":{"type":"Point","coordinates":[121.657343,29.849017]}},{"type":"Feature","properties":{"osm_id":"3369592235","station_name":"五乡","element_type":"node","station_id":"3369592235"},"geometry":{"type":"Point","coordinates":[121.685916,29.840947]}},{"type":"Feature","properties":{"osm_id":"3369592245","station_name":"宝幢","element_type":"node","station_id":"3369592245"},"geometry":{"type":"Point","coordinates":[121.729388,29.841847]}},{"type":"Feature","properties":{"osm_id":"3369592283","station_name":"邬隘","element_type":"node","station_id":"3369592283"},"geometry":{"type":"Point","coordinates":[121.778064,29.877305]}},{"type":"Feature","properties":{"osm_id":"3369592277","station_name":"大碶","element_type":"node","station_id":"3369592277"},"geometry":{"type":"Point","coordinates":[121.790541,29.895916]}},{"type":"Feature","properties":{"osm_id":"3369592282","station_name":"松花江路","element_type":"node","station_id":"3369592282"},"geometry":{"type":"Point","coordinates":[121.804326,29.906828]}},{"type":"Feature","properties":{"osm_id":"3369592284","station_name":"中河路","element_type":"node","station_id":"3369592284"},"geometry":{"type":"Point","coordinates":[121.82561,29.89617]}},{"type":"Feature","properties":{"osm_id":"3369592285","station_name":"长江路","element_type":"node","station_id":"3369592285"},"geometry":{"type":"Point","coordinates":[121.839567,29.893306]}},{"type":"Feature","properties":{"osm_id":"3369592267","station_name":"霞浦","element_type":"node","station_id":"3369592267"},"geometry":{"type":"Point","coordinates":[121.852779,29.893019]}},{"type":"Feature","properties":{"osm_id":"12587416127","station_name":"栎社国际机场","element_type":"node","station_id":"12587416127"},"geometry":{"type":"Point","coordinates":[121.456576,29.820127]}},{"type":"Feature","properties":{"osm_id":"12587416115","station_name":"栎社","element_type":"node","station_id":"12587416115"},"geometry":{"type":"Point","coordinates":[121.479043,29.811797]}},{"type":"Feature","properties":{"osm_id":"12587416106","station_name":"鄞州大道","element_type":"node","station_id":"12587416106"},"geometry":{"type":"Point","coordinates":[121.49199,29.820744]}},{"type":"Feature","properties":{"osm_id":"12587416101","station_name":"石碶","element_type":"node","station_id":"12587416101"},"geometry":{"type":"Point","coordinates":[121.499798,29.827638]}},{"type":"Feature","properties":{"osm_id":"12587416094","station_name":"轻纺城","element_type":"node","station_id":"12587416094"},"geometry":{"type":"Point","coordinates":[121.510205,29.834113]}},{"type":"Feature","properties":{"osm_id":"12587416077","station_name":"藕池","element_type":"node","station_id":"12587416077"},"geometry":{"type":"Point","coordinates":[121.508576,29.844024]}},{"type":"Feature","properties":{"osm_id":"12587416060","station_name":"客运中心","element_type":"node","station_id":"12587416060"},"geometry":{"type":"Point","coordinates":[121.508126,29.852943]}},{"type":"Feature","properties":{"osm_id":"12587416051","station_name":"丽园南路","element_type":"node","station_id":"12587416051"},"geometry":{"type":"Point","coordinates":[121.513584,29.861123]}},{"type":"Feature","properties":{"osm_id":"12587416046","station_name":"云霞路","element_type":"node","station_id":"12587416046"},"geometry":{"type":"Point","coordinates":[121.522224,29.861028]}},{"type":"Feature","properties":{"osm_id":"12587416030","station_name":"宁波火车站","element_type":"node","station_id":"12587416030"},"geometry":{"type":"Point","coordinates":[121.533337,29.865077]}},{"type":"Feature","properties":{"osm_id":"12587416010","station_name":"城隍庙","element_type":"node","station_id":"12587416010"},"geometry":{"type":"Point","coordinates":[121.544693,29.869769]}},{"type":"Feature","properties":{"osm_id":"12587415988","station_name":"外滩大桥","element_type":"node","station_id":"12587415988"},"geometry":{"type":"Point","coordinates":[121.554616,29.885293]}},{"type":"Feature","properties":{"osm_id":"12587415983","station_name":"正大路","element_type":"node","station_id":"12587415983"},"geometry":{"type":"Point","coordinates":[121.557131,29.892164]}},{"type":"Feature","properties":{"osm_id":"12587415977","station_name":"倪家堰","element_type":"node","station_id":"12587415977"},"geometry":{"type":"Point","coordinates":[121.562695,29.900955]}},{"type":"Feature","properties":{"osm_id":"12587415965","station_name":"压赛堰","element_type":"node","station_id":"12587415965"},"geometry":{"type":"Point","coordinates":[121.571078,29.905953]}},{"type":"Feature","properties":{"osm_id":"12587415960","station_name":"大通桥","element_type":"node","station_id":"12587415960"},"geometry":{"type":"Point","coordinates":[121.577709,29.906527]}},{"type":"Feature","properties":{"osm_id":"12587415951","station_name":"孔浦","element_type":"node","station_id":"12587415951"},"geometry":{"type":"Point","coordinates":[121.588067,29.906688]}},{"type":"Feature","properties":{"osm_id":"12587416202","station_name":"路林","element_type":"node","station_id":"12587416202"},"geometry":{"type":"Point","coordinates":[121.608553,29.911637]}},{"type":"Feature","properties":{"osm_id":"12587416197","station_name":"三官堂","element_type":"node","station_id":"12587416197"},"geometry":{"type":"Point","coordinates":[121.61629,29.915083]}},{"type":"Feature","properties":{"osm_id":"12587416188","station_name":"宁波大学","element_type":"node","station_id":"12587416188"},"geometry":{"type":"Point","coordinates":[121.63074,29.914137]}},{"type":"Feature","properties":{"osm_id":"12587416224","station_name":"清水浦","element_type":"node","station_id":"12587416224"},"geometry":{"type":"Point","coordinates":[121.656908,29.924228]}},{"type":"Feature","properties":{"osm_id":"12587416173","station_name":"五里牌","element_type":"node","station_id":"12587416173"},"geometry":{"type":"Point","coordinates":[121.673359,29.940884]}},{"type":"Feature","properties":{"osm_id":"12587416165","station_name":"枫园","element_type":"node","station_id":"12587416165"},"geometry":{"type":"Point","coordinates":[121.689678,29.952426]}},{"type":"Feature","properties":{"osm_id":"12587416155","station_name":"聪园路","element_type":"node","station_id":"12587416155"},"geometry":{"type":"Point","coordinates":[121.701032,29.953868]}},{"type":"Feature","properties":{"osm_id":"12587416145","station_name":"招宝山","element_type":"node","station_id":"12587416145"},"geometry":{"type":"Point","coordinates":[121.71221,29.952374]}},{"type":"Feature","properties":{"osm_id":"12587416220","station_name":"红联","element_type":"node","station_id":"12587416220"},"geometry":{"type":"Point","coordinates":[121.71952,29.941365]}},{"type":"Feature","properties":{"osm_id":"12488938150","station_name":"慈城西","element_type":"node","station_id":"12488938150"},"geometry":{"type":"Point","coordinates":[121.433055,29.987245]}},{"type":"Feature","properties":{"osm_id":"3740891771","station_name":"慈城","element_type":"node","station_id":"3740891771"},"geometry":{"type":"Point","coordinates":[121.446433,29.977844]}},{"type":"Feature","properties":{"osm_id":"8308423504","station_name":"官山河","element_type":"node","station_id":"8308423504"},"geometry":{"type":"Point","coordinates":[121.455506,29.963783]}},{"type":"Feature","properties":{"osm_id":"3740891783","station_name":"长兴路","element_type":"node","station_id":"3740891783"},"geometry":{"type":"Point","coordinates":[121.457628,29.950497]}},{"type":"Feature","properties":{"osm_id":"3740892246","station_name":"金山路","element_type":"node","station_id":"3740892246"},"geometry":{"type":"Point","coordinates":[121.466117,29.943501]}},{"type":"Feature","properties":{"osm_id":"3740892280","station_name":"奥体中心","element_type":"node","station_id":"3740892280"},"geometry":{"type":"Point","coordinates":[121.482404,29.938627]}},{"type":"Feature","properties":{"osm_id":"3740892247","station_name":"洪塘中路","element_type":"node","station_id":"3740892247"},"geometry":{"type":"Point","coordinates":[121.496775,29.930341]}},{"type":"Feature","properties":{"osm_id":"3740891795","station_name":"洪大路","element_type":"node","station_id":"3740891795"},"geometry":{"type":"Point","coordinates":[121.514983,29.923705]}},{"type":"Feature","properties":{"osm_id":"3740891798","station_name":"庄桥火车站","element_type":"node","station_id":"3740891798"},"geometry":{"type":"Point","coordinates":[121.529061,29.924423]}},{"type":"Feature","properties":{"osm_id":"3740892255","station_name":"丽江路","element_type":"node","station_id":"3740892255"},"geometry":{"type":"Point","coordinates":[121.534733,29.912791]}},{"type":"Feature","properties":{"osm_id":"3740891807","station_name":"双东路","element_type":"node","station_id":"3740891807"},"geometry":{"type":"Point","coordinates":[121.528627,29.898729]}},{"type":"Feature","properties":{"osm_id":"3740892257","station_name":"翠柏里","element_type":"node","station_id":"3740892257"},"geometry":{"type":"Point","coordinates":[121.528852,29.890087]}},{"type":"Feature","properties":{"osm_id":"3740891813","station_name":"柳西","element_type":"node","station_id":"3740891813"},"geometry":{"type":"Point","coordinates":[121.527278,29.874569]}},{"type":"Feature","properties":{"osm_id":"3740891819","station_name":"兴宁桥西","element_type":"node","station_id":"3740891819"},"geometry":{"type":"Point","coordinates":[121.544435,29.861282]}},{"type":"Feature","properties":{"osm_id":"3740892266","station_name":"兴宁桥东","element_type":"node","station_id":"3740892266"},"geometry":{"type":"Point","coordinates":[121.551428,29.857365]}},{"type":"Feature","properties":{"osm_id":"3740891823","station_name":"白鹤","element_type":"node","station_id":"3740891823"},"geometry":{"type":"Point","coordinates":[121.562571,29.855029]}},{"type":"Feature","properties":{"osm_id":"3740821505","station_name":"儿童公园","element_type":"node","station_id":"3740821505"},"geometry":{"type":"Point","coordinates":[121.574261,29.855239]}},{"type":"Feature","properties":{"osm_id":"3740892226","station_name":"矮柳","element_type":"node","station_id":"3740892226"},"geometry":{"type":"Point","coordinates":[121.583716,29.853791]}},{"type":"Feature","properties":{"osm_id":"3740892272","station_name":"潘火路","element_type":"node","station_id":"3740892272"},"geometry":{"type":"Point","coordinates":[121.587345,29.84247]}},{"type":"Feature","properties":{"osm_id":"3740892278","station_name":"嵩江东路","element_type":"node","station_id":"3740892278"},"geometry":{"type":"Point","coordinates":[121.579473,29.828593]}},{"type":"Feature","properties":{"osm_id":"3740892235","station_name":"南高教园区","element_type":"node","station_id":"3740892235"},"geometry":{"type":"Point","coordinates":[121.575488,29.819661]}},{"type":"Feature","properties":{"osm_id":"3740892239","station_name":"金达南路","element_type":"node","station_id":"3740892239"},"geometry":{"type":"Point","coordinates":[121.588469,29.807111]}},{"type":"Feature","properties":{"osm_id":"3740892242","station_name":"小洋江","element_type":"node","station_id":"3740892242"},"geometry":{"type":"Point","coordinates":[121.60798,29.795182]}},{"type":"Feature","properties":{"osm_id":"3740892243","station_name":"东钱湖","element_type":"node","station_id":"3740892243"},"geometry":{"type":"Point","coordinates":[121.624008,29.784699]}},{"type":"Feature","properties":{"osm_id":"12841032171","station_name":"国际会议中心","element_type":"node","station_id":"12841032171"},"geometry":{"type":"Point","coordinates":[121.63074,29.765244]}},{"type":"Feature","properties":{"osm_id":"4496682770","station_name":"布政","element_type":"node","station_id":"4496682770"},"geometry":{"type":"Point","coordinates":[121.468413,29.849222]}},{"type":"Feature","properties":{"osm_id":"4496682775","station_name":"张家潭","element_type":"node","station_id":"4496682775"},"geometry":{"type":"Point","coordinates":[121.475166,29.840658]}},{"type":"Feature","properties":{"osm_id":"4496683580","station_name":"同德路","element_type":"node","station_id":"4496683580"},"geometry":{"type":"Point","coordinates":[121.486424,29.830271]}},{"type":"Feature","properties":{"osm_id":"4496683496","station_name":"雅渡","element_type":"node","station_id":"4496683496"},"geometry":{"type":"Point","coordinates":[121.50571,29.821529]}},{"type":"Feature","properties":{"osm_id":"4496683509","station_name":"庙堰","element_type":"node","station_id":"4496683509"},"geometry":{"type":"Point","coordinates":[121.523632,29.821579]}},{"type":"Feature","properties":{"osm_id":"4496683512","station_name":"钟公庙","element_type":"node","station_id":"4496683512"},"geometry":{"type":"Point","coordinates":[121.535146,29.821746]}},{"type":"Feature","properties":{"osm_id":"3740821519","station_name":"鄞州区政府","element_type":"node","station_id":"3740821519"},"geometry":{"type":"Point","coordinates":[121.545878,29.821791]}},{"type":"Feature","properties":{"osm_id":"4496683582","station_name":"钱湖南路","element_type":"node","station_id":"4496683582"},"geometry":{"type":"Point","coordinates":[121.563256,29.822472]}},{"type":"Feature","properties":{"osm_id":"4496683531","station_name":"下应路","element_type":"node","station_id":"4496683531"},"geometry":{"type":"Point","coordinates":[121.588683,29.81433]}},{"type":"Feature","properties":{"osm_id":"4496683539","station_name":"大洋江","element_type":"node","station_id":"4496683539"},"geometry":{"type":"Point","coordinates":[121.597846,29.819763]}},{"type":"Feature","properties":{"osm_id":"4496683542","station_name":"泗港","element_type":"node","station_id":"4496683542"},"geometry":{"type":"Point","coordinates":[121.600882,29.827856]}},{"type":"Feature","properties":{"osm_id":"4496683545","station_name":"曹隘","element_type":"node","station_id":"4496683545"},"geometry":{"type":"Point","coordinates":[121.604755,29.84227]}},{"type":"Feature","properties":{"osm_id":"4496683583","station_name":"柳隘","element_type":"node","station_id":"4496683583"},"geometry":{"type":"Point","coordinates":[121.608091,29.854743]}},{"type":"Feature","properties":{"osm_id":"4496683584","station_name":"民安东路","element_type":"node","station_id":"4496683584"},"geometry":{"type":"Point","coordinates":[121.613318,29.870755]}},{"type":"Feature","properties":{"osm_id":"4496683554","station_name":"会展中心","element_type":"node","station_id":"4496683554"},"geometry":{"type":"Point","coordinates":[121.615648,29.877125]}},{"type":"Feature","properties":{"osm_id":"4496683585","station_name":"院士路","element_type":"node","station_id":"4496683585"},"geometry":{"type":"Point","coordinates":[121.617741,29.890665]}},{"type":"Feature","properties":{"osm_id":"4496683566","station_name":"盎孟港","element_type":"node","station_id":"4496683566"},"geometry":{"type":"Point","coordinates":[121.617981,29.899133]}},{"type":"Feature","properties":{"osm_id":"4496683578","station_name":"兴庄路","element_type":"node","station_id":"4496683578"},"geometry":{"type":"Point","coordinates":[121.610579,29.923628]}},{"type":"Feature","properties":{"osm_id":"12520995752","station_name":"兴海南路","element_type":"node","station_id":"12520995752"},"geometry":{"type":"Point","coordinates":[121.601726,29.926772]}},{"type":"Feature","properties":{"osm_id":"12520995754","station_name":"梅堰","element_type":"node","station_id":"12520995754"},"geometry":{"type":"Point","coordinates":[121.59078,29.926551]}},{"type":"Feature","properties":{"osm_id":"12520995758","station_name":"永茂路","element_type":"node","station_id":"12520995758"},"geometry":{"type":"Point","coordinates":[121.579893,29.951929]}},{"type":"Feature","properties":{"osm_id":"13104019847","station_name":"镇海大道(慈海)","element_type":"node","station_id":"13104019847"},"geometry":{"type":"Point","coordinates":[121.580121,29.96975]}},{"type":"Feature","properties":{"osm_id":"12520995761","station_name":"骆驼桥","element_type":"node","station_id":"12520995761"},"geometry":{"type":"Point","coordinates":[121.581397,29.987008]}},{"type":"Feature","properties":{"osm_id":"10269626729","station_name":"俞范","element_type":"node","station_id":"10269626729"},"geometry":{"type":"Point","coordinates":[121.654501,29.966376]}},{"type":"Feature","properties":{"osm_id":"10269647707","station_name":"明海北路","element_type":"node","station_id":"10269647707"},"geometry":{"type":"Point","coordinates":[121.619581,29.964207]}},{"type":"Feature","properties":{"osm_id":"10269647708","station_name":"贵驷","element_type":"node","station_id":"10269647708"},"geometry":{"type":"Point","coordinates":[121.608756,29.967211]}},{"type":"Feature","properties":{"osm_id":"10269647709","station_name":"镇海市民广场","element_type":"node","station_id":"10269647709"},"geometry":{"type":"Point","coordinates":[121.594232,29.969444]}},{"type":"Feature","properties":{"osm_id":"10269626757","station_name":"骆兴","element_type":"node","station_id":"10269626757"},"geometry":{"type":"Point","coordinates":[121.560962,29.970224]}},{"type":"Feature","properties":{"osm_id":"10269626765","station_name":"应嘉路","element_type":"node","station_id":"10269626765"},"geometry":{"type":"Point","coordinates":[121.546284,29.958033]}},{"type":"Feature","properties":{"osm_id":"13104028205","station_name":"宁慈东路","element_type":"node","station_id":"13104028205"},"geometry":{"type":"Point","coordinates":[121.540494,29.933024]}},{"type":"Feature","properties":{"osm_id":"13104028201","station_name":"云飞路(康桥南)","element_type":"node","station_id":"13104028201"},"geometry":{"type":"Point","coordinates":[121.539441,29.918638]}},{"type":"Feature","properties":{"osm_id":"13104028188","station_name":"湾头","element_type":"node","station_id":"13104028188"},"geometry":{"type":"Point","coordinates":[121.546969,29.901668]}},{"type":"Feature","properties":{"osm_id":"13104028181","station_name":"宁波大剧院","element_type":"node","station_id":"13104028181"},"geometry":{"type":"Point","coordinates":[121.546079,29.892499]}},{"type":"Feature","properties":{"osm_id":"13104028164","station_name":"曙光","element_type":"node","station_id":"13104028164"},"geometry":{"type":"Point","coordinates":[121.568103,29.879453]}},{"type":"Feature","properties":{"osm_id":"13104028156","station_name":"体育馆","element_type":"node","station_id":"13104028156"},"geometry":{"type":"Point","coordinates":[121.581292,29.875191]}},{"type":"Feature","properties":{"osm_id":"13104028147","station_name":"福民公园","element_type":"node","station_id":"13104028147"},"geometry":{"type":"Point","coordinates":[121.592924,29.874587]}},{"type":"Feature","properties":{"osm_id":"13104028141","station_name":"新天路","element_type":"node","station_id":"13104028141"},"geometry":{"type":"Point","coordinates":[121.601367,29.873847]}},{"type":"Feature","properties":{"osm_id":"13104028136","station_name":"北明程路","element_type":"node","station_id":"13104028136"},"geometry":{"type":"Point","coordinates":[121.622575,29.868214]}},{"type":"Feature","properties":{"osm_id":"10269647660","station_name":"邱隘","element_type":"node","station_id":"10269647660"},"geometry":{"type":"Point","coordinates":[121.630081,29.850347]}},{"type":"Feature","properties":{"osm_id":"10269647666","station_name":"尚德路","element_type":"node","station_id":"10269647666"},"geometry":{"type":"Point","coordinates":[121.626168,29.833512]}},{"type":"Feature","properties":{"osm_id":"10269647673","station_name":"回龙","element_type":"node","station_id":"10269647673"},"geometry":{"type":"Point","coordinates":[121.623343,29.820753]}},{"type":"Feature","properties":{"osm_id":"10269647688","station_name":"安石路","element_type":"node","station_id":"10269647688"},"geometry":{"type":"Point","coordinates":[121.622364,29.802169]}},{"type":"Feature","properties":{"osm_id":"10269647705","station_name":"小洋江","element_type":"node","station_id":"10269647705"},"geometry":{"type":"Point","coordinates":[121.604906,29.795181]}},{"type":"Feature","properties":{"osm_id":"10269647706","station_name":"云龙","element_type":"node","station_id":"10269647706"},"geometry":{"type":"Point","coordinates":[121.598065,29.785855]}},{"type":"Feature","properties":{"osm_id":"3740822460","station_name":"金海路","element_type":"node","station_id":"3740822460"},"geometry":{"type":"Point","coordinates":[121.445001,29.654073]}},{"type":"Feature","properties":{"osm_id":"3740822459","station_name":"大成东路","element_type":"node","station_id":"3740822459"},"geometry":{"type":"Point","coordinates":[121.445223,29.674508]}},{"type":"Feature","properties":{"osm_id":"3740822484","station_name":"南渡","element_type":"node","station_id":"3740822484"},"geometry":{"type":"Point","coordinates":[121.443009,29.71118]}},{"type":"Feature","properties":{"osm_id":"3740822453","station_name":"琎琳","element_type":"node","station_id":"3740822453"},"geometry":{"type":"Point","coordinates":[121.444257,29.724574]}},{"type":"Feature","properties":{"osm_id":"3740822478","station_name":"方桥","element_type":"node","station_id":"3740822478"},"geometry":{"type":"Point","coordinates":[121.448065,29.747888]}},{"type":"Feature","properties":{"osm_id":"3740822440","station_name":"朝阳","element_type":"node","station_id":"3740822440"},"geometry":{"type":"Point","coordinates":[121.484184,29.767495]}},{"type":"Feature","properties":{"osm_id":"3740822473","station_name":"明辉路","element_type":"node","station_id":"3740822473"},"geometry":{"type":"Point","coordinates":[121.501098,29.766807]}},{"type":"Feature","properties":{"osm_id":"6838446454","station_name":"狮山","element_type":"node","station_id":"6838446454"},"geometry":{"type":"Point","coordinates":[121.515047,29.766391]}},{"type":"Feature","properties":{"osm_id":"3740822471","station_name":"姜山","element_type":"node","station_id":"3740822471"},"geometry":{"type":"Point","coordinates":[121.523531,29.773164]}},{"type":"Feature","properties":{"osm_id":"3740822428","station_name":"高塘桥","element_type":"node","station_id":"3740822428"},"geometry":{"type":"Point","coordinates":[121.524963,29.792078]}},{"type":"Feature","properties":{"osm_id":"3740822427","station_name":"句章路","element_type":"node","station_id":"3740822427"},"geometry":{"type":"Point","coordinates":[121.526799,29.799334]}},{"type":"Feature","properties":{"osm_id":"3740821524","station_name":"鄞州客运总站","element_type":"node","station_id":"3740821524"},"geometry":{"type":"Point","coordinates":[121.537603,29.803471]}},{"type":"Feature","properties":{"osm_id":"3740821521","station_name":"南部商务区","element_type":"node","station_id":"3740821521"},"geometry":{"type":"Point","coordinates":[121.545061,29.809849]}},{"type":"Feature","properties":{"osm_id":"6612392318","station_name":"四明中路","element_type":"node","station_id":"6612392318"},"geometry":{"type":"Point","coordinates":[121.546806,29.830636]}},{"type":"Feature","properties":{"osm_id":"3740821514","station_name":"锦寓路","element_type":"node","station_id":"3740821514"},"geometry":{"type":"Point","coordinates":[121.551985,29.836345]}},{"type":"Feature","properties":{"osm_id":"3740821511","station_name":"钱湖北路","element_type":"node","station_id":"3740821511"},"geometry":{"type":"Point","coordinates":[121.561265,29.838178]}},{"type":"Feature","properties":{"osm_id":"3740822464","station_name":"仇毕","element_type":"node","station_id":"3740822464"},"geometry":{"type":"Point","coordinates":[121.571355,29.847753]}},{"type":"Feature","properties":{"osm_id":"3740821500","station_name":"明楼","element_type":"node","station_id":"3740821500"},"geometry":{"type":"Point","coordinates":[121.584214,29.881386]}},{"type":"Feature","properties":{"osm_id":"3740821496","station_name":"中兴大桥南","element_type":"node","station_id":"3740821496"},"geometry":{"type":"Point","coordinates":[121.58418,29.892172]}},{"type":"Feature","properties":{"osm_id":"13456668284","station_name":"衙前","element_type":"node","station_id":"13456668284"},"geometry":{"type":"Point","coordinates":[121.705519,29.932652]}},{"type":"Feature","properties":{"osm_id":"13456668286","station_name":"小港西","element_type":"node","station_id":"13456668286"},"geometry":{"type":"Point","coordinates":[121.695287,29.925655]}},{"type":"Feature","properties":{"osm_id":"13456668295","station_name":"谢墅","element_type":"node","station_id":"13456668295"},"geometry":{"type":"Point","coordinates":[121.677468,29.913946]}},{"type":"Feature","properties":{"osm_id":"13456668299","station_name":"梅墟","element_type":"node","station_id":"13456668299"},"geometry":{"type":"Point","coordinates":[121.651102,29.896642]}},{"type":"Feature","properties":{"osm_id":"13456676207","station_name":"聚贤路","element_type":"node","station_id":"13456676207"},"geometry":{"type":"Point","coordinates":[121.63004,29.891201]}},{"type":"Feature","properties":{"osm_id":"13456676214","station_name":"沧海北路","element_type":"node","station_id":"13456676214"},"geometry":{"type":"Point","coordinates":[121.599056,29.889375]}},{"type":"Feature","properties":{"osm_id":"13456676223","station_name":"明珠路","element_type":"node","station_id":"13456676223"},"geometry":{"type":"Point","coordinates":[121.594262,29.88546]}},{"type":"Feature","properties":{"osm_id":"13456676243","station_name":"庆丰桥东","element_type":"node","station_id":"13456676243"},"geometry":{"type":"Point","coordinates":[121.57334,29.885053]}},{"type":"Feature","properties":{"osm_id":"13456676272","station_name":"新芝路","element_type":"node","station_id":"13456676272"},"geometry":{"type":"Point","coordinates":[121.535327,29.889692]}},{"type":"Feature","properties":{"osm_id":"13456676280","station_name":"市中医院","element_type":"node","station_id":"13456676280"},"geometry":{"type":"Point","coordinates":[121.515308,29.890463]}},{"type":"Feature","properties":{"osm_id":"13456676286","station_name":"望春桥","element_type":"node","station_id":"13456676286"},"geometry":{"type":"Point","coordinates":[121.503111,29.886005]}},{"type":"Feature","properties":{"osm_id":"13456676293","station_name":"宋家漕","element_type":"node","station_id":"13456676293"},"geometry":{"type":"Point","coordinates":[121.486146,29.881583]}},{"type":"Feature","properties":{"osm_id":"13456676297","station_name":"卖面桥","element_type":"node","station_id":"13456676297"},"geometry":{"type":"Point","coordinates":[121.468317,29.877865]}},{"type":"Feature","properties":{"osm_id":"13456676303","station_name":"汇士路","element_type":"node","station_id":"13456676303"},"geometry":{"type":"Point","coordinates":[121.444192,29.876007]}},{"type":"Feature","properties":{"osm_id":"13456676310","station_name":"集士港","element_type":"node","station_id":"13456676310"},"geometry":{"type":"Point","coordinates":[121.433897,29.863391]}},{"type":"Feature","properties":{"osm_id":"13456676312","station_name":"云林西路","element_type":"node","station_id":"13456676312"},"geometry":{"type":"Point","coordinates":[121.433517,29.851224]}},{"type":"Feature","properties":{"osm_id":"13456676315","station_name":"古林","element_type":"node","station_id":"13456676315"},"geometry":{"type":"Point","coordinates":[121.43209,29.83666]}},{"type":"Feature","properties":{"osm_id":"10269694280","station_name":"开元路","element_type":"node","station_id":"10269694280"},"geometry":{"type":"Point","coordinates":[121.494792,29.948416]}},{"type":"Feature","properties":{"osm_id":"10269716789","station_name":"洪塘","element_type":"node","station_id":"10269716789"},"geometry":{"type":"Point","coordinates":[121.502704,29.941598]}},{"type":"Feature","properties":{"osm_id":"10269716788","station_name":"洪盛路","element_type":"node","station_id":"10269716788"},"geometry":{"type":"Point","coordinates":[121.512793,29.933264]}},{"type":"Feature","properties":{"osm_id":"10269694299","station_name":"榭嘉","element_type":"node","station_id":"10269694299"},"geometry":{"type":"Point","coordinates":[121.515547,29.916513]}},{"type":"Feature","properties":{"osm_id":"10269716786","station_name":"青林湾","element_type":"node","station_id":"10269716786"},"geometry":{"type":"Point","coordinates":[121.514721,29.903302]}},{"type":"Feature","properties":{"osm_id":"10269716783","station_name":"泽民","element_type":"node","station_id":"10269716783"},"geometry":{"type":"Point","coordinates":[121.513374,29.882669]}},{"type":"Feature","properties":{"osm_id":"10269716782","station_name":"联丰","element_type":"node","station_id":"10269716782"},"geometry":{"type":"Point","coordinates":[121.51147,29.872198]}},{"type":"Feature","properties":{"osm_id":"10269716737","station_name":"南苑","element_type":"node","station_id":"10269716737"},"geometry":{"type":"Point","coordinates":[121.519639,29.851653]}},{"type":"Feature","properties":{"osm_id":"10269716781","station_name":"段塘","element_type":"node","station_id":"10269716781"},"geometry":{"type":"Point","coordinates":[121.519239,29.843638]}},{"type":"Feature","properties":{"osm_id":"10269716748","station_name":"堇山西路","element_type":"node","station_id":"10269716748"},"geometry":{"type":"Point","coordinates":[121.524542,29.831182]}},{"type":"Feature","properties":{"osm_id":"10269716763","station_name":"鄞州公园南","element_type":"node","station_id":"10269716763"},"geometry":{"type":"Point","coordinates":[121.536616,29.810042]}},{"type":"Feature","properties":{"osm_id":"10269716769","station_name":"学府路","element_type":"node","station_id":"10269716769"},"geometry":{"type":"Point","coordinates":[121.55543,29.807229]}},{"type":"Feature","properties":{"osm_id":"10269716778","station_name":"寒松路","element_type":"node","station_id":"10269716778"},"geometry":{"type":"Point","coordinates":[121.572318,29.796132]}}]}