{"type":"FeatureCollection","generator":"metroOsmFetch (OpenStreetMap / Overpass, ODbL)","features":[{"type":"Feature","properties":{"osm_id":"11224434179","station_name":"桃仙機場","element_type":"node","station_id":"11224434179"},"geometry":{"type":"Point","coordinates":[123.488541,41.631391]}},{"type":"Feature","properties":{"osm_id":"11224434161","station_name":"綜合保稅區","element_type":"node","station_id":"11224434161"},"geometry":{"type":"Point","coordinates":[123.451755,41.637798]}},{"type":"Feature","properties":{"osm_id":"11224434153","station_name":"創新一路","element_type":"node","station_id":"11224434153"},"geometry":{"type":"Point","coordinates":[123.451793,41.648771]}},{"type":"Feature","properties":{"osm_id":"11224418452","station_name":"中央公園","element_type":"node","station_id":"11224418452"},"geometry":{"type":"Point","coordinates":[123.451936,41.664167]}},{"type":"Feature","properties":{"osm_id":"11224418445","station_name":"省博物館","element_type":"node","station_id":"11224418445"},"geometry":{"type":"Point","coordinates":[123.452104,41.676555]}},{"type":"Feature","properties":{"osm_id":"11224378636","station_name":"沈中大街","element_type":"node","station_id":"11224378636"},"geometry":{"type":"Point","coordinates":[123.458408,41.685805]}},{"type":"Feature","properties":{"osm_id":"11224378613","station_name":"沈本大街","element_type":"node","station_id":"11224378613"},"geometry":{"type":"Point","coordinates":[123.473322,41.691019]}},{"type":"Feature","properties":{"osm_id":"4066168040","station_name":"全運路","element_type":"node","station_id":"4066168040"},"geometry":{"type":"Point","coordinates":[123.476572,41.70517]}},{"type":"Feature","properties":{"osm_id":"4066168041","station_name":"白塔河路","element_type":"node","station_id":"4066168041"},"geometry":{"type":"Point","coordinates":[123.465664,41.706896]}},{"type":"Feature","properties":{"osm_id":"4066168039","station_name":"世紀大廈","element_type":"node","station_id":"4066168039"},"geometry":{"type":"Point","coordinates":[123.455953,41.717251]}},{"type":"Feature","properties":{"osm_id":"4066532412","station_name":"營盤街","element_type":"node","station_id":"4066532412"},"geometry":{"type":"Point","coordinates":[123.450527,41.728313]}},{"type":"Feature","properties":{"osm_id":"5334815561","station_name":"奧體中心","element_type":"node","station_id":"5334815561"},"geometry":{"type":"Point","coordinates":[123.447418,41.740564]}},{"type":"Feature","properties":{"osm_id":"4068152383","station_name":"五里河","element_type":"node","station_id":"4068152383"},"geometry":{"type":"Point","coordinates":[123.434367,41.750784]}},{"type":"Feature","properties":{"osm_id":"4068155447","station_name":"市圖書館","element_type":"node","station_id":"4068155447"},"geometry":{"type":"Point","coordinates":[123.429286,41.757589]}},{"type":"Feature","properties":{"osm_id":"2247693957","station_name":"工業展覽館","element_type":"node","station_id":"2247693957"},"geometry":{"type":"Point","coordinates":[123.429312,41.770883]}},{"type":"Feature","properties":{"osm_id":"4068155473","station_name":"青年公園","element_type":"node","station_id":"4068155473"},"geometry":{"type":"Point","coordinates":[123.429683,41.782432]}},{"type":"Feature","properties":{"osm_id":"4068155456","station_name":"青年大街","element_type":"node","station_id":"4068155456"},"geometry":{"type":"Point","coordinates":[123.426815,41.789934]}},{"type":"Feature","properties":{"osm_id":"4068155475","station_name":"人民廣場","element_type":"node","station_id":"4068155475"},"geometry":{"type":"Point","coordinates":[123.428081,41.802583]}},{"type":"Feature","properties":{"osm_id":"4068155472","station_name":"金融中心","element_type":"node","station_id":"4068155472"},"geometry":{"type":"Point","coordinates":[123.43253,41.80957]}},{"type":"Feature","properties":{"osm_id":"4068155448","station_name":"瀋陽北站","element_type":"node","station_id":"4068155448"},"geometry":{"type":"Point","coordinates":[123.43112,41.814888]}},{"type":"Feature","properties":{"osm_id":"4068156500","station_name":"岐山路","element_type":"node","station_id":"4068156500"},"geometry":{"type":"Point","coordinates":[123.422931,41.820037]}},{"type":"Feature","properties":{"osm_id":"9003571310","station_name":"中醫藥大學","element_type":"node","station_id":"9003571310"},"geometry":{"type":"Point","coordinates":[123.422764,41.83036]}},{"type":"Feature","properties":{"osm_id":"4068156499","station_name":"北陵公園","element_type":"node","station_id":"4068156499"},"geometry":{"type":"Point","coordinates":[123.417743,41.836492]}},{"type":"Feature","properties":{"osm_id":"4068156566","station_name":"新樂遺址","element_type":"node","station_id":"4068156566"},"geometry":{"type":"Point","coordinates":[123.412669,41.84535]}},{"type":"Feature","properties":{"osm_id":"4068156567","station_name":"陵西","element_type":"node","station_id":"4068156567"},"geometry":{"type":"Point","coordinates":[123.412061,41.85352]}},{"type":"Feature","properties":{"osm_id":"5425877926","station_name":"三臺子","element_type":"node","station_id":"5425877926"},"geometry":{"type":"Point","coordinates":[123.410983,41.865622]}},{"type":"Feature","properties":{"osm_id":"4068159924","station_name":"醫學院","element_type":"node","station_id":"4068159924"},"geometry":{"type":"Point","coordinates":[123.409355,41.883966]}},{"type":"Feature","properties":{"osm_id":"4068164028","station_name":"師範大學","element_type":"node","station_id":"4068164028"},"geometry":{"type":"Point","coordinates":[123.40342,41.904345]}},{"type":"Feature","properties":{"osm_id":"4068164029","station_name":"航空航天大學","element_type":"node","station_id":"4068164029"},"geometry":{"type":"Point","coordinates":[123.397115,41.915286]}},{"type":"Feature","properties":{"osm_id":"5546889973","station_name":"遼寧大學","element_type":"node","station_id":"5546889973"},"geometry":{"type":"Point","coordinates":[123.387687,41.927342]}},{"type":"Feature","properties":{"osm_id":"5546889982","station_name":"人傑湖公園","element_type":"node","station_id":"5546889982"},"geometry":{"type":"Point","coordinates":[123.392408,41.934105]}},{"type":"Feature","properties":{"osm_id":"5546889983","station_name":"蒲河路","element_type":"node","station_id":"5546889983"},"geometry":{"type":"Point","coordinates":[123.402531,41.944291]}},{"type":"Feature","properties":{"osm_id":"5546889984","station_name":"蒲田路","element_type":"node","station_id":"5546889984"},"geometry":{"type":"Point","coordinates":[123.399487,41.953763]}},{"type":"Feature","properties":{"osm_id":"12948925307","station_name":"十三號街","element_type":"node","station_id":"12948925307"},"geometry":{"type":"Point","coordinates":[123.223178,41.763083]}},{"type":"Feature","properties":{"osm_id":"12948947257","station_name":"中央大街","element_type":"node","station_id":"12948947257"},"geometry":{"type":"Point","coordinates":[123.236892,41.763054]}},{"type":"Feature","properties":{"osm_id":"12948923031","station_name":"七號街","element_type":"node","station_id":"12948923031"},"geometry":{"type":"Point","coordinates":[123.2536,41.76301]}},{"type":"Feature","properties":{"osm_id":"12948925326","station_name":"四號街","element_type":"node","station_id":"12948925326"},"geometry":{"type":"Point","coordinates":[123.271529,41.763749]}},{"type":"Feature","properties":{"osm_id":"13028388094","station_name":"張士","element_type":"node","station_id":"13028388094"},"geometry":{"type":"Point","coordinates":[123.287796,41.769246]}},{"type":"Feature","properties":{"osm_id":"13028388092","station_name":"開發大道","element_type":"node","station_id":"13028388092"},"geometry":{"type":"Point","coordinates":[123.299452,41.778667]}},{"type":"Feature","properties":{"osm_id":"13028356644","station_name":"於洪廣場","element_type":"node","station_id":"13028356644"},"geometry":{"type":"Point","coordinates":[123.299856,41.791982]}},{"type":"Feature","properties":{"osm_id":"12948925352","station_name":"迎賓路","element_type":"node","station_id":"12948925352"},"geometry":{"type":"Point","coordinates":[123.303649,41.799286]}},{"type":"Feature","properties":{"osm_id":"13028356643","station_name":"重工街","element_type":"node","station_id":"13028356643"},"geometry":{"type":"Point","coordinates":[123.326116,41.802688]}},{"type":"Feature","properties":{"osm_id":"13036532545","station_name":"啟工街","element_type":"node","station_id":"13036532545"},"geometry":{"type":"Point","coordinates":[123.337359,41.801371]}},{"type":"Feature","properties":{"osm_id":"12948925369","station_name":"保工街","element_type":"node","station_id":"12948925369"},"geometry":{"type":"Point","coordinates":[123.349919,41.798041]}},{"type":"Feature","properties":{"osm_id":"13028356641","station_name":"鐵西廣場","element_type":"node","station_id":"13028356641"},"geometry":{"type":"Point","coordinates":[123.364606,41.791735]}},{"type":"Feature","properties":{"osm_id":"13028356639","station_name":"雲峰北街","element_type":"node","station_id":"13028356639"},"geometry":{"type":"Point","coordinates":[123.374413,41.79415]}},{"type":"Feature","properties":{"osm_id":"13028356637","station_name":"瀋陽站","element_type":"node","station_id":"13028356637"},"geometry":{"type":"Point","coordinates":[123.389971,41.791527]}},{"type":"Feature","properties":{"osm_id":"13028337984","station_name":"太原街","element_type":"node","station_id":"13028337984"},"geometry":{"type":"Point","coordinates":[123.399943,41.787507]}},{"type":"Feature","properties":{"osm_id":"13028337982","station_name":"南市場","element_type":"node","station_id":"13028337982"},"geometry":{"type":"Point","coordinates":[123.413834,41.787001]}},{"type":"Feature","properties":{"osm_id":"13028337979","station_name":"懷遠門","element_type":"node","station_id":"13028337979"},"geometry":{"type":"Point","coordinates":[123.44122,41.794618]}},{"type":"Feature","properties":{"osm_id":"12948925408","station_name":"中街","element_type":"node","station_id":"12948925408"},"geometry":{"type":"Point","coordinates":[123.454378,41.798971]}},{"type":"Feature","properties":{"osm_id":"12948925412","station_name":"東中街","element_type":"node","station_id":"12948925412"},"geometry":{"type":"Point","coordinates":[123.465214,41.800436]}},{"type":"Feature","properties":{"osm_id":"12948925422","station_name":"滂江街","element_type":"node","station_id":"12948925422"},"geometry":{"type":"Point","coordinates":[123.482589,41.806514]}},{"type":"Feature","properties":{"osm_id":"12948925426","station_name":"黎明廣場","element_type":"node","station_id":"12948925426"},"geometry":{"type":"Point","coordinates":[123.498355,41.80587]}},{"type":"Feature","properties":{"osm_id":"12985307826","station_name":"新惠街","element_type":"node","station_id":"12985307826"},"geometry":{"type":"Point","coordinates":[123.515925,41.804272]}},{"type":"Feature","properties":{"osm_id":"12985307829","station_name":"新寧街","element_type":"node","station_id":"12985307829"},"geometry":{"type":"Point","coordinates":[123.525788,41.811128]}},{"type":"Feature","properties":{"osm_id":"12985307830","station_name":"東大營街","element_type":"node","station_id":"12985307830"},"geometry":{"type":"Point","coordinates":[123.539371,41.816145]}},{"type":"Feature","properties":{"osm_id":"12985456692","station_name":"農業大學","element_type":"node","station_id":"12985456692"},"geometry":{"type":"Point","coordinates":[123.558651,41.819465]}},{"type":"Feature","properties":{"osm_id":"12985456694","station_name":"前陵","element_type":"node","station_id":"12985456694"},"geometry":{"type":"Point","coordinates":[123.57378,41.820424]}},{"type":"Feature","properties":{"osm_id":"12985456696","station_name":"東陵公園","element_type":"node","station_id":"12985456696"},"geometry":{"type":"Point","coordinates":[123.589703,41.827472]}},{"type":"Feature","properties":{"osm_id":"12966407168","station_name":"水泉","element_type":"node","station_id":"12966407168"},"geometry":{"type":"Point","coordinates":[123.609852,41.843505]}},{"type":"Feature","properties":{"osm_id":"12966407165","station_name":"伯官北大街","element_type":"node","station_id":"12966407165"},"geometry":{"type":"Point","coordinates":[123.620494,41.852778]}},{"type":"Feature","properties":{"osm_id":"12966407164","station_name":"植物園","element_type":"node","station_id":"12966407164"},"geometry":{"type":"Point","coordinates":[123.633711,41.85155]}},{"type":"Feature","properties":{"osm_id":"12966407161","station_name":"雙馬","element_type":"node","station_id":"12966407161"},"geometry":{"type":"Point","coordinates":[123.653124,41.852937]}},{"type":"Feature","properties":{"osm_id":"13470769243","station_name":"建築大學","element_type":"node","station_id":"13470769243"},"geometry":{"type":"Point","coordinates":[123.510026,41.744966]}},{"type":"Feature","properties":{"osm_id":"13470769236","station_name":"長青南街","element_type":"node","station_id":"13470769236"},"geometry":{"type":"Point","coordinates":[123.495653,41.742164]}},{"type":"Feature","properties":{"osm_id":"13470769235","station_name":"朗日街","element_type":"node","station_id":"13470769235"},"geometry":{"type":"Point","coordinates":[123.478738,41.7388]}},{"type":"Feature","properties":{"osm_id":"13470769218","station_name":"天成街","element_type":"node","station_id":"13470769218"},"geometry":{"type":"Point","coordinates":[123.462011,41.741235]}},{"type":"Feature","properties":{"osm_id":"13470769194","station_name":"彩霞街","element_type":"node","station_id":"13470769194"},"geometry":{"type":"Point","coordinates":[123.435167,41.73176]}},{"type":"Feature","properties":{"osm_id":"13470769191","station_name":"金陽大街","element_type":"node","station_id":"13470769191"},"geometry":{"type":"Point","coordinates":[123.423631,41.729107]}},{"type":"Feature","properties":{"osm_id":"13470769188","station_name":"榆樹臺","element_type":"node","station_id":"13470769188"},"geometry":{"type":"Point","coordinates":[123.415263,41.727281]}},{"type":"Feature","properties":{"osm_id":"13470769186","station_name":"長白南","element_type":"node","station_id":"13470769186"},"geometry":{"type":"Point","coordinates":[123.403723,41.725016]}},{"type":"Feature","properties":{"osm_id":"13470769184","station_name":"勝利南街","element_type":"node","station_id":"13470769184"},"geometry":{"type":"Point","coordinates":[123.392538,41.72238]}},{"type":"Feature","properties":{"osm_id":"13470769168","station_name":"渾河站","element_type":"node","station_id":"13470769168"},"geometry":{"type":"Point","coordinates":[123.362262,41.726119]}},{"type":"Feature","properties":{"osm_id":"13470769164","station_name":"曹仲","element_type":"node","station_id":"13470769164"},"geometry":{"type":"Point","coordinates":[123.354863,41.730042]}},{"type":"Feature","properties":{"osm_id":"13470769149","station_name":"大通湖街","element_type":"node","station_id":"13470769149"},"geometry":{"type":"Point","coordinates":[123.341585,41.74955]}},{"type":"Feature","properties":{"osm_id":"13470769134","station_name":"吉力湖街","element_type":"node","station_id":"13470769134"},"geometry":{"type":"Point","coordinates":[123.339836,41.758782]}},{"type":"Feature","properties":{"osm_id":"13470769121","station_name":"滑翔","element_type":"node","station_id":"13470769121"},"geometry":{"type":"Point","coordinates":[123.352702,41.769846]}},{"type":"Feature","properties":{"osm_id":"13470769110","station_name":"沈遼路","element_type":"node","station_id":"13470769110"},"geometry":{"type":"Point","coordinates":[123.356012,41.780143]}},{"type":"Feature","properties":{"osm_id":"13470769108","station_name":"興華公園","element_type":"node","station_id":"13470769108"},"geometry":{"type":"Point","coordinates":[123.359599,41.784892]}},{"type":"Feature","properties":{"osm_id":"13470769102","station_name":"北二路","element_type":"node","station_id":"13470769102"},"geometry":{"type":"Point","coordinates":[123.373023,41.802688]}},{"type":"Feature","properties":{"osm_id":"13470769094","station_name":"重型文化廣場","element_type":"node","station_id":"13470769094"},"geometry":{"type":"Point","coordinates":[123.377728,41.810496]}},{"type":"Feature","properties":{"osm_id":"13470769089","station_name":"皇姑屯站","element_type":"node","station_id":"13470769089"},"geometry":{"type":"Point","coordinates":[123.380616,41.818736]}},{"type":"Feature","properties":{"osm_id":"13470769084","station_name":"淮河街沈醫二院","element_type":"node","station_id":"13470769084"},"geometry":{"type":"Point","coordinates":[123.384355,41.828065]}},{"type":"Feature","properties":{"osm_id":"13470769241","station_name":"怒江公園","element_type":"node","station_id":"13470769241"},"geometry":{"type":"Point","coordinates":[123.383002,41.840295]}},{"type":"Feature","properties":{"osm_id":"11224048725","station_name":"創新路","element_type":"node","station_id":"11224048725"},"geometry":{"type":"Point","coordinates":[123.407164,41.652925]}},{"type":"Feature","properties":{"osm_id":"11224048727","station_name":"瀋陽南站","element_type":"node","station_id":"11224048727"},"geometry":{"type":"Point","coordinates":[123.403424,41.665886]}},{"type":"Feature","properties":{"osm_id":"11224118345","station_name":"城建學院","element_type":"node","station_id":"11224118345"},"geometry":{"type":"Point","coordinates":[123.409631,41.679104]}},{"type":"Feature","properties":{"osm_id":"6445850050","station_name":"紅椿路","element_type":"node","station_id":"6445850050"},"geometry":{"type":"Point","coordinates":[123.396773,41.687766]}},{"type":"Feature","properties":{"osm_id":"11224138442","station_name":"雲杉路","element_type":"node","station_id":"11224138442"},"geometry":{"type":"Point","coordinates":[123.392928,41.695752]}},{"type":"Feature","properties":{"osm_id":"11224138448","station_name":"金倉路","element_type":"node","station_id":"11224138448"},"geometry":{"type":"Point","coordinates":[123.399943,41.707968]}},{"type":"Feature","properties":{"osm_id":"11224147542","station_name":"長白島","element_type":"node","station_id":"11224147542"},"geometry":{"type":"Point","coordinates":[123.397089,41.738826]}},{"type":"Feature","properties":{"osm_id":"11224147548","station_name":"南京橋","element_type":"node","station_id":"11224147548"},"geometry":{"type":"Point","coordinates":[123.39296,41.749215]}},{"type":"Feature","properties":{"osm_id":"11224147555","station_name":"砂陽","element_type":"node","station_id":"11224147555"},"geometry":{"type":"Point","coordinates":[123.38569,41.764584]}},{"type":"Feature","properties":{"osm_id":"11224147564","station_name":"南五馬路","element_type":"node","station_id":"11224147564"},"geometry":{"type":"Point","coordinates":[123.393972,41.780824]}},{"type":"Feature","properties":{"osm_id":"6445849722","station_name":"市府大路","element_type":"node","station_id":"6445849722"},"geometry":{"type":"Point","coordinates":[123.409809,41.801598]}},{"type":"Feature","properties":{"osm_id":"11224150331","station_name":"皇寺路","element_type":"node","station_id":"11224150331"},"geometry":{"type":"Point","coordinates":[123.414216,41.808834]}},{"type":"Feature","properties":{"osm_id":"6445849712","station_name":"瀋陽大學","element_type":"node","station_id":"6445849712"},"geometry":{"type":"Point","coordinates":[123.450976,41.816361]}},{"type":"Feature","properties":{"osm_id":"6445849707","station_name":"洮昌街","element_type":"node","station_id":"6445849707"},"geometry":{"type":"Point","coordinates":[123.461136,41.819792]}},{"type":"Feature","properties":{"osm_id":"8406646088","station_name":"合作街","element_type":"node","station_id":"8406646088"},"geometry":{"type":"Point","coordinates":[123.468065,41.826636]}},{"type":"Feature","properties":{"osm_id":"6445849699","station_name":"北大營","element_type":"node","station_id":"6445849699"},"geometry":{"type":"Point","coordinates":[123.47181,41.836744]}},{"type":"Feature","properties":{"osm_id":"8397770114","station_name":"觀泉路","element_type":"node","station_id":"8397770114"},"geometry":{"type":"Point","coordinates":[123.476547,41.845902]}},{"type":"Feature","properties":{"osm_id":"11224146936","station_name":"望花","element_type":"node","station_id":"11224146936"},"geometry":{"type":"Point","coordinates":[123.485132,41.862111]}},{"type":"Feature","properties":{"osm_id":"11224179347","station_name":"文官街","element_type":"node","station_id":"11224179347"},"geometry":{"type":"Point","coordinates":[123.480551,41.868645]}},{"type":"Feature","properties":{"osm_id":"11224179359","station_name":"正新路","element_type":"node","station_id":"11224179359"},"geometry":{"type":"Point","coordinates":[123.474235,41.880342]}},{"type":"Feature","properties":{"osm_id":"13470768914","station_name":"張沙布","element_type":"node","station_id":"13470768914"},"geometry":{"type":"Point","coordinates":[123.507869,41.71807]}},{"type":"Feature","properties":{"osm_id":"13470718589","station_name":"理工大學","element_type":"node","station_id":"13470718589"},"geometry":{"type":"Point","coordinates":[123.49929,41.731221]}},{"type":"Feature","properties":{"osm_id":"13470718593","station_name":"長青橋","element_type":"node","station_id":"13470718593"},"geometry":{"type":"Point","coordinates":[123.490378,41.758403]}},{"type":"Feature","properties":{"osm_id":"13470718595","station_name":"江東街","element_type":"node","station_id":"13470718595"},"geometry":{"type":"Point","coordinates":[123.48211,41.767171]}},{"type":"Feature","properties":{"osm_id":"13470768835","station_name":"泉園","element_type":"node","station_id":"13470768835"},"geometry":{"type":"Point","coordinates":[123.472405,41.775284]}},{"type":"Feature","properties":{"osm_id":"13470718585","station_name":"萬蓮","element_type":"node","station_id":"13470718585"},"geometry":{"type":"Point","coordinates":[123.477488,41.78798]}},{"type":"Feature","properties":{"osm_id":"13470718587","station_name":"長安路","element_type":"node","station_id":"13470718587"},"geometry":{"type":"Point","coordinates":[123.48021,41.797007]}},{"type":"Feature","properties":{"osm_id":"13470768859","station_name":"東北大馬路","element_type":"node","station_id":"13470768859"},"geometry":{"type":"Point","coordinates":[123.475805,41.817802]}},{"type":"Feature","properties":{"osm_id":"13470768871","station_name":"北塔","element_type":"node","station_id":"13470768871"},"geometry":{"type":"Point","coordinates":[123.449324,41.831049]}},{"type":"Feature","properties":{"osm_id":"13470718579","station_name":"陵東街","element_type":"node","station_id":"13470718579"},"geometry":{"type":"Point","coordinates":[123.438341,41.830654]}},{"type":"Feature","properties":{"osm_id":"13470768876","station_name":"長江街","element_type":"node","station_id":"13470768876"},"geometry":{"type":"Point","coordinates":[123.407377,41.829152]}},{"type":"Feature","properties":{"osm_id":"13470768877","station_name":"百鳥公園","element_type":"node","station_id":"13470768877"},"geometry":{"type":"Point","coordinates":[123.395024,41.828507]}},{"type":"Feature","properties":{"osm_id":"13470768882","station_name":"塔灣街","element_type":"node","station_id":"13470768882"},"geometry":{"type":"Point","coordinates":[123.368278,41.827201]}},{"type":"Feature","properties":{"osm_id":"13470768894","station_name":"向工街","element_type":"node","station_id":"13470768894"},"geometry":{"type":"Point","coordinates":[123.357762,41.833325]}},{"type":"Feature","properties":{"osm_id":"13470768905","station_name":"元江街","element_type":"node","station_id":"13470768905"},"geometry":{"type":"Point","coordinates":[123.350083,41.84869]}},{"type":"Feature","properties":{"osm_id":"13470768915","station_name":"丁香湖","element_type":"node","station_id":"13470768915"},"geometry":{"type":"Point","coordinates":[123.341934,41.861491]}},{"type":"Feature","properties":{"osm_id":"12462981231","station_name":"李達","element_type":"node","station_id":"12462981231"},"geometry":{"type":"Point","coordinates":[123.135637,41.665569]}},{"type":"Feature","properties":{"osm_id":"12463898898","station_name":"鐵西汽車工廠","element_type":"node","station_id":"12463898898"},"geometry":{"type":"Point","coordinates":[123.14618,41.679484]}},{"type":"Feature","properties":{"osm_id":"12463898899","station_name":"馬貝","element_type":"node","station_id":"12463898899"},"geometry":{"type":"Point","coordinates":[123.166384,41.6932]}},{"type":"Feature","properties":{"osm_id":"6445850016","station_name":"中德大街","element_type":"node","station_id":"6445850016"},"geometry":{"type":"Point","coordinates":[123.18469,41.697797]}},{"type":"Feature","properties":{"osm_id":"6445850009","station_name":"細河悠谷","element_type":"node","station_id":"6445850009"},"geometry":{"type":"Point","coordinates":[123.212638,41.709097]}},{"type":"Feature","properties":{"osm_id":"12463898895","station_name":"翟家","element_type":"node","station_id":"12463898895"},"geometry":{"type":"Point","coordinates":[123.231596,41.718313]}},{"type":"Feature","properties":{"osm_id":"12463930802","station_name":"工業大學","element_type":"node","station_id":"12463930802"},"geometry":{"type":"Point","coordinates":[123.256702,41.72792]}},{"type":"Feature","properties":{"osm_id":"6445849990","station_name":"寧官","element_type":"node","station_id":"6445849990"},"geometry":{"type":"Point","coordinates":[123.268519,41.736103]}},{"type":"Feature","properties":{"osm_id":"12463898892","station_name":"餘良","element_type":"node","station_id":"12463898892"},"geometry":{"type":"Point","coordinates":[123.277625,41.737654]}},{"type":"Feature","properties":{"osm_id":"12463898890","station_name":"甘官","element_type":"node","station_id":"12463898890"},"geometry":{"type":"Point","coordinates":[123.301191,41.744015]}},{"type":"Feature","properties":{"osm_id":"12463898887","station_name":"千島湖街","element_type":"node","station_id":"12463898887"},"geometry":{"type":"Point","coordinates":[123.31749,41.741176]}},{"type":"Feature","properties":{"osm_id":"12463898889","station_name":"南陽湖街","element_type":"node","station_id":"12463898889"},"geometry":{"type":"Point","coordinates":[123.327479,41.746294]}},{"type":"Feature","properties":{"osm_id":"6445849768","station_name":"南李官","element_type":"node","station_id":"6445849768"},"geometry":{"type":"Point","coordinates":[123.356318,41.755717]}},{"type":"Feature","properties":{"route_company":"","route_id":"2","element_type":"way","color":"#e5703a","route_name":"瀋陽地鐵2號線: 桃仙機場→蒲田路","osm_id":"5490397","railway":"subway","status":"open"},"geometry":{"type":"LineString","coordinates":[[123.488541,41.631391],[123.451755,41.637798],[123.451793,41.648771],[123.451936,41.664167],[123.452104,41.676555],[123.458408,41.685805],[123.473322,41.691019],[123.476572,41.70517],[123.465664,41.706896],[123.455953,41.717251],[123.450527,41.728313],[123.447418,41.740564]]}},{"type":"Feature","properties":{"route_company":"","route_id":"2","element_type":"way","color":"#e5703a","route_name":"瀋陽地鐵2號線: 桃仙機場→蒲田路","osm_id":"5490397","railway":"subway","status":"open"},"geometry":{"type":"LineString","coordinates":[[123.447418,41.740564],[123.434367,41.750784],[123.429286,41.757589],[123.429312,41.770883],[123.429683,41.782432],[123.426815,41.789934]]}},{"type":"Feature","properties":{"route_company":"","route_id":"2","element_type":"way","color":"#e5703a","route_name":"瀋陽地鐵2號線: 桃仙機場→蒲田路","osm_id":"5490397","railway":"subway","status":"open"},"geometry":{"type":"LineString","coordinates":[[123.426815,41.789934],[123.428081,41.802583],[123.43253,41.80957],[123.43112,41.814888]]}},{"type":"Feature","properties":{"route_company":"","route_id":"2","element_type":"way","color":"#e5703a","route_name":"瀋陽地鐵2號線: 桃仙機場→蒲田路","osm_id":"5490397","railway":"subway","status":"open"},"geometry":{"type":"LineString","coordinates":[[123.43112,41.814888],[123.422931,41.820037],[123.422764,41.83036]]}},{"type":"Feature","properties":{"route_company":"","route_id":"2","element_type":"way","color":"#e5703a","route_name":"瀋陽地鐵2號線: 桃仙機場→蒲田路","osm_id":"5490397","railway":"subway","status":"open"},"geometry":{"type":"LineString","coordinates":[[123.422764,41.83036],[123.417743,41.836492],[123.412669,41.84535],[123.412061,41.85352],[123.410983,41.865622],[123.409355,41.883966],[123.40342,41.904345],[123.397115,41.915286],[123.387687,41.927342],[123.392408,41.934105],[123.402531,41.944291],[123.399487,41.953763]]}},{"type":"Feature","properties":{"route_company":"瀋陽地鐵","route_id":"1","element_type":"way","color":"#b63f1f","route_name":"瀋陽地鐵1號線: 十三號街→黎明廣場","osm_id":"5490396","railway":"subway","status":"open"},"geometry":{"type":"LineString","coordinates":[[123.223178,41.763083],[123.236892,41.763054],[123.2536,41.76301],[123.271529,41.763749],[123.287796,41.769246],[123.299452,41.778667],[123.299856,41.791982],[123.303649,41.799286],[123.326116,41.802688],[123.337359,41.801371],[123.349919,41.798041],[123.364606,41.791735]]}},{"type":"Feature","properties":{"route_company":"瀋陽地鐵","route_id":"1","element_type":"way","color":"#b63f1f","route_name":"瀋陽地鐵1號線: 十三號街→黎明廣場","osm_id":"5490396","railway":"subway","status":"open"},"geometry":{"type":"LineString","coordinates":[[123.364606,41.791735],[123.374413,41.79415],[123.389971,41.791527],[123.399943,41.787507]]}},{"type":"Feature","properties":{"route_company":"瀋陽地鐵","route_id":"1","element_type":"way","color":"#b63f1f","route_name":"瀋陽地鐵1號線: 十三號街→黎明廣場","osm_id":"5490396","railway":"subway","status":"open"},"geometry":{"type":"LineString","coordinates":[[123.399943,41.787507],[123.413834,41.787001],[123.426815,41.789934]]}},{"type":"Feature","properties":{"route_company":"瀋陽地鐵","route_id":"1","element_type":"way","color":"#b63f1f","route_name":"瀋陽地鐵1號線: 十三號街→黎明廣場","osm_id":"5490396","railway":"subway","status":"open"},"geometry":{"type":"LineString","coordinates":[[123.426815,41.789934],[123.44122,41.794618],[123.454378,41.798971],[123.465214,41.800436],[123.482589,41.806514]]}},{"type":"Feature","properties":{"route_company":"瀋陽地鐵","route_id":"1","element_type":"way","color":"#b63f1f","route_name":"瀋陽地鐵1號線: 十三號街→黎明廣場","osm_id":"5490396","railway":"subway","status":"open"},"geometry":{"type":"LineString","coordinates":[[123.482589,41.806514],[123.498355,41.80587],[123.515925,41.804272],[123.525788,41.811128],[123.539371,41.816145],[123.558651,41.819465],[123.57378,41.820424],[123.589703,41.827472],[123.609852,41.843505],[123.620494,41.852778],[123.633711,41.85155],[123.653124,41.852937]]}},{"type":"Feature","properties":{"route_company":"瀋陽地鐵","route_id":"9","element_type":"way","color":"#017cbf","route_name":"瀋陽地鐵9號線: 怒江公園→建築大學","osm_id":"9893303","railway":"subway","status":"open"},"geometry":{"type":"LineString","coordinates":[[123.510026,41.744966],[123.495653,41.742164]]}},{"type":"Feature","properties":{"route_company":"瀋陽地鐵","route_id":"9","element_type":"way","color":"#017cbf","route_name":"瀋陽地鐵9號線: 怒江公園→建築大學","osm_id":"9893303","railway":"subway","status":"open"},"geometry":{"type":"LineString","coordinates":[[123.495653,41.742164],[123.478738,41.7388],[123.462011,41.741235],[123.447418,41.740564]]}},{"type":"Feature","properties":{"route_company":"瀋陽地鐵","route_id":"9","element_type":"way","color":"#017cbf","route_name":"瀋陽地鐵9號線: 怒江公園→建築大學","osm_id":"9893303","railway":"subway","status":"open"},"geometry":{"type":"LineString","coordinates":[[123.447418,41.740564],[123.435167,41.73176],[123.423631,41.729107],[123.415263,41.727281],[123.403723,41.725016]]}},{"type":"Feature","properties":{"route_company":"瀋陽地鐵","route_id":"9","element_type":"way","color":"#017cbf","route_name":"瀋陽地鐵9號線: 怒江公園→建築大學","osm_id":"9893303","railway":"subway","status":"open"},"geometry":{"type":"LineString","coordinates":[[123.403723,41.725016],[123.392538,41.72238],[123.362262,41.726119],[123.354863,41.730042],[123.341585,41.74955]]}},{"type":"Feature","properties":{"route_company":"瀋陽地鐵","route_id":"9","element_type":"way","color":"#017cbf","route_name":"瀋陽地鐵9號線: 怒江公園→建築大學","osm_id":"9893303","railway":"subway","status":"open"},"geometry":{"type":"LineString","coordinates":[[123.341585,41.74955],[123.339836,41.758782],[123.352702,41.769846],[123.356012,41.780143],[123.359599,41.784892],[123.364606,41.791735]]}},{"type":"Feature","properties":{"route_company":"瀋陽地鐵","route_id":"9","element_type":"way","color":"#017cbf","route_name":"瀋陽地鐵9號線: 怒江公園→建築大學","osm_id":"9893303","railway":"subway","status":"open"},"geometry":{"type":"LineString","coordinates":[[123.364606,41.791735],[123.373023,41.802688],[123.377728,41.810496],[123.380616,41.818736],[123.384355,41.828065]]}},{"type":"Feature","properties":{"route_company":"瀋陽地鐵","route_id":"9","element_type":"way","color":"#017cbf","route_name":"瀋陽地鐵9號線: 怒江公園→建築大學","osm_id":"9893303","railway":"subway","status":"open"},"geometry":{"type":"LineString","coordinates":[[123.384355,41.828065],[123.383002,41.840295]]}},{"type":"Feature","properties":{"route_company":"","route_id":"4","element_type":"way","color":"#4b0082","route_name":"line 4 :","osm_id":"16393679","railway":"subway","status":"open"},"geometry":{"type":"LineString","coordinates":[[123.407164,41.652925],[123.403424,41.665886],[123.409631,41.679104],[123.396773,41.687766],[123.392928,41.695752],[123.399943,41.707968],[123.403723,41.725016]]}},{"type":"Feature","properties":{"route_company":"","route_id":"4","element_type":"way","color":"#4b0082","route_name":"line 4 :","osm_id":"16393679","railway":"subway","status":"open"},"geometry":{"type":"LineString","coordinates":[[123.403723,41.725016],[123.397089,41.738826],[123.39296,41.749215],[123.38569,41.764584],[123.393972,41.780824],[123.399943,41.787507]]}},{"type":"Feature","properties":{"route_company":"","route_id":"4","element_type":"way","color":"#4b0082","route_name":"line 4 :","osm_id":"16393679","railway":"subway","status":"open"},"geometry":{"type":"LineString","coordinates":[[123.399943,41.787507],[123.409809,41.801598],[123.414216,41.808834],[123.43112,41.814888]]}},{"type":"Feature","properties":{"route_company":"","route_id":"4","element_type":"way","color":"#4b0082","route_name":"line 4 :","osm_id":"16393679","railway":"subway","status":"open"},"geometry":{"type":"LineString","coordinates":[[123.43112,41.814888],[123.450976,41.816361],[123.461136,41.819792],[123.468065,41.826636]]}},{"type":"Feature","properties":{"route_company":"","route_id":"4","element_type":"way","color":"#4b0082","route_name":"line 4 :","osm_id":"16393679","railway":"subway","status":"open"},"geometry":{"type":"LineString","coordinates":[[123.468065,41.826636],[123.47181,41.836744],[123.476547,41.845902],[123.485132,41.862111],[123.480551,41.868645],[123.474235,41.880342]]}},{"type":"Feature","properties":{"route_company":"","route_id":"10","element_type":"way","color":"#62aa3c","route_name":"瀋陽地鐵10號線: 丁香湖→張沙布","osm_id":"11123210","railway":"subway","status":"open"},"geometry":{"type":"LineString","coordinates":[[123.507869,41.71807],[123.49929,41.731221],[123.495653,41.742164]]}},{"type":"Feature","properties":{"route_company":"","route_id":"10","element_type":"way","color":"#62aa3c","route_name":"瀋陽地鐵10號線: 丁香湖→張沙布","osm_id":"11123210","railway":"subway","status":"open"},"geometry":{"type":"LineString","coordinates":[[123.495653,41.742164],[123.490378,41.758403],[123.48211,41.767171],[123.472405,41.775284],[123.477488,41.78798],[123.48021,41.797007],[123.482589,41.806514]]}},{"type":"Feature","properties":{"route_company":"","route_id":"10","element_type":"way","color":"#62aa3c","route_name":"瀋陽地鐵10號線: 丁香湖→張沙布","osm_id":"11123210","railway":"subway","status":"open"},"geometry":{"type":"LineString","coordinates":[[123.482589,41.806514],[123.475805,41.817802],[123.468065,41.826636]]}},{"type":"Feature","properties":{"route_company":"","route_id":"10","element_type":"way","color":"#62aa3c","route_name":"瀋陽地鐵10號線: 丁香湖→張沙布","osm_id":"11123210","railway":"subway","status":"open"},"geometry":{"type":"LineString","coordinates":[[123.468065,41.826636],[123.449324,41.831049],[123.438341,41.830654],[123.422764,41.83036]]}},{"type":"Feature","properties":{"route_company":"","route_id":"10","element_type":"way","color":"#62aa3c","route_name":"瀋陽地鐵10號線: 丁香湖→張沙布","osm_id":"11123210","railway":"subway","status":"open"},"geometry":{"type":"LineString","coordinates":[[123.422764,41.83036],[123.407377,41.829152],[123.395024,41.828507],[123.384355,41.828065]]}},{"type":"Feature","properties":{"route_company":"","route_id":"10","element_type":"way","color":"#62aa3c","route_name":"瀋陽地鐵10號線: 丁香湖→張沙布","osm_id":"11123210","railway":"subway","status":"open"},"geometry":{"type":"LineString","coordinates":[[123.384355,41.828065],[123.368278,41.827201],[123.357762,41.833325],[123.350083,41.84869],[123.341934,41.861491]]}},{"type":"Feature","properties":{"route_company":"瀋陽地鐵","route_id":"3","element_type":"way","color":"#ff007f","route_name":"瀋陽地鐵3號線: 李達→南李官","osm_id":"18482203","railway":"subway","status":"open"},"geometry":{"type":"LineString","coordinates":[[123.135637,41.665569],[123.14618,41.679484],[123.166384,41.6932],[123.18469,41.697797],[123.212638,41.709097],[123.231596,41.718313],[123.256702,41.72792],[123.268519,41.736103],[123.277625,41.737654],[123.301191,41.744015],[123.31749,41.741176],[123.327479,41.746294],[123.341585,41.74955]]}},{"type":"Feature","properties":{"route_company":"瀋陽地鐵","route_id":"3","element_type":"way","color":"#ff007f","route_name":"瀋陽地鐵3號線: 李達→南李官","osm_id":"18482203","railway":"subway","status":"open"},"geometry":{"type":"LineString","coordinates":[[123.341585,41.74955],[123.356318,41.755717]]}}]}