{"type":"FeatureCollection","generator":"metroOsmFetch (OpenStreetMap / Overpass, ODbL)","features":[{"type":"Feature","properties":{"route_company":"","route_id":"2","element_type":"way","color":"#e5703a","route_name":"沈阳地铁2号线: 桃仙机场→蒲田路","osm_id":"5490397","railway":"subway"},"geometry":{"type":"LineString","coordinates":[[123.488488,41.631421],[123.451828,41.637796],[123.451865,41.64877],[123.452008,41.664164],[123.45217,41.67656],[123.458407,41.685758],[123.47336,41.690976],[123.476597,41.70521],[123.465691,41.706927],[123.455987,41.717271],[123.450585,41.728328],[123.447421,41.740601],[123.434385,41.750803],[123.429328,41.757601],[123.429385,41.770886],[123.429729,41.782444],[123.426841,41.789916],[123.428121,41.80257],[123.43259,41.809552],[123.431484,41.814917],[123.422983,41.820042],[123.422786,41.830394],[123.417742,41.83652],[123.412703,41.845352],[123.412112,41.853527],[123.41103,41.865625],[123.409377,41.883967],[123.403465,41.904362],[123.397167,41.915316],[123.38776,41.92736],[123.39244,41.934057],[123.402577,41.944304],[123.399531,41.953779]]}},{"type":"Feature","properties":{"route_company":"沈阳地铁","route_id":"1","element_type":"way","color":"#b63f1f","route_name":"沈阳地铁1号线: 十三号街→黎明广场","osm_id":"5490396","railway":"subway"},"geometry":{"type":"LineString","coordinates":[[123.223181,41.763045],[123.236893,41.763018],[123.253599,41.762974],[123.271544,41.76371],[123.287828,41.769223],[123.299512,41.77866],[123.299919,41.791981],[123.303659,41.799215],[123.326114,41.802639],[123.337335,41.801312],[123.34984,41.79794],[123.364626,41.791702],[123.374478,41.794121],[123.389941,41.791486],[123.399785,41.787632],[123.413854,41.78695],[123.426841,41.789916],[123.441255,41.794566],[123.454375,41.798928],[123.465231,41.80039],[123.482634,41.806492],[123.498347,41.805822],[123.515913,41.804229],[123.525837,41.811039],[123.539431,41.816053],[123.558623,41.819358],[123.573815,41.820355],[123.589723,41.827423],[123.609919,41.843541],[123.620525,41.852724],[123.633704,41.851538],[123.65308,41.852876]]}},{"type":"Feature","properties":{"route_company":"沈阳地铁","route_id":"9","element_type":"way","color":"#017cbf","route_name":"沈阳地铁9号线: 怒江公园→建筑大学","osm_id":"9893303","railway":"subway"},"geometry":{"type":"LineString","coordinates":[[123.509997,41.74502],[123.495684,41.742199],[123.478719,41.738856],[123.462011,41.741293],[123.447421,41.740601],[123.435167,41.73176],[123.423608,41.729163],[123.41524,41.727337],[123.403519,41.725034],[123.392516,41.722436],[123.362305,41.726167],[123.354908,41.73009],[123.341661,41.749515],[123.339863,41.758727],[123.352763,41.769809],[123.356079,41.780114],[123.359667,41.784863],[123.364626,41.791702],[123.37309,41.802658],[123.377806,41.810493],[123.38069,41.818717],[123.384392,41.828094],[123.38308,41.840295]]}},{"type":"Feature","properties":{"route_company":"","route_id":"4","element_type":"way","color":"#4b0082","route_name":"line 4 :","osm_id":"16393679","railway":"subway"},"geometry":{"type":"LineString","coordinates":[[123.407164,41.652925],[123.403424,41.665886],[123.409631,41.679104],[123.396773,41.687766],[123.392928,41.695752],[123.399943,41.707968],[123.403519,41.725034],[123.397089,41.738826],[123.39296,41.749215],[123.38569,41.764584],[123.393972,41.780824],[123.399785,41.787632],[123.409809,41.801598],[123.414216,41.808834],[123.431484,41.814917],[123.450976,41.816361],[123.461136,41.819792],[123.468158,41.826596],[123.47181,41.836744],[123.476547,41.845902],[123.485132,41.862111],[123.480551,41.868645],[123.474235,41.880342]]}},{"type":"Feature","properties":{"route_company":"","route_id":"10","element_type":"way","color":"#62aa3c","route_name":"沈阳地铁10号线: 丁香湖→张沙布","osm_id":"11123210","railway":"subway"},"geometry":{"type":"LineString","coordinates":[[123.507937,41.718107],[123.499372,41.731233],[123.495684,41.742199],[123.490461,41.758417],[123.482173,41.767212],[123.472469,41.775325],[123.477568,41.787961],[123.480292,41.796993],[123.482634,41.806492],[123.47588,41.81783],[123.468158,41.826596],[123.449318,41.831112],[123.438341,41.830654],[123.422786,41.830394],[123.407371,41.829214],[123.395017,41.828569],[123.384392,41.828094],[123.36827,41.827264],[123.357842,41.833307],[123.350153,41.848724],[123.342018,41.861493]]}},{"type":"Feature","properties":{"route_company":"沈阳地铁","route_id":"3","element_type":"way","color":"#ff007f","route_name":"沈阳地铁3号线: 李达→南李官","osm_id":"18482203","railway":"subway"},"geometry":{"type":"LineString","coordinates":[[123.135657,41.665561],[123.146203,41.679476],[123.166393,41.693174],[123.184699,41.697775],[123.212658,41.709068],[123.231617,41.718297],[123.25671,41.727889],[123.268525,41.736085],[123.27763,41.737635],[123.301228,41.743962],[123.317566,41.741085],[123.327558,41.746209],[123.341661,41.749515],[123.356362,41.755634]]}},{"type":"Feature","properties":{"osm_id":"11224434179","station_name":"桃仙机场","element_type":"node","station_id":"11224434179"},"geometry":{"type":"Point","coordinates":[123.488488,41.631421]}},{"type":"Feature","properties":{"osm_id":"11224434161","station_name":"综合保税区","element_type":"node","station_id":"11224434161"},"geometry":{"type":"Point","coordinates":[123.451828,41.637796]}},{"type":"Feature","properties":{"osm_id":"11224434153","station_name":"创新一路","element_type":"node","station_id":"11224434153"},"geometry":{"type":"Point","coordinates":[123.451865,41.64877]}},{"type":"Feature","properties":{"osm_id":"11224418452","station_name":"中央公园","element_type":"node","station_id":"11224418452"},"geometry":{"type":"Point","coordinates":[123.452008,41.664164]}},{"type":"Feature","properties":{"osm_id":"11224418445","station_name":"省博物馆","element_type":"node","station_id":"11224418445"},"geometry":{"type":"Point","coordinates":[123.45217,41.67656]}},{"type":"Feature","properties":{"osm_id":"11224378636","station_name":"沈中大街","element_type":"node","station_id":"11224378636"},"geometry":{"type":"Point","coordinates":[123.458407,41.685758]}},{"type":"Feature","properties":{"osm_id":"11224378613","station_name":"沈本大街","element_type":"node","station_id":"11224378613"},"geometry":{"type":"Point","coordinates":[123.47336,41.690976]}},{"type":"Feature","properties":{"osm_id":"4066168040","station_name":"全运路","element_type":"node","station_id":"4066168040"},"geometry":{"type":"Point","coordinates":[123.476597,41.70521]}},{"type":"Feature","properties":{"osm_id":"4066168041","station_name":"白塔河路","element_type":"node","station_id":"4066168041"},"geometry":{"type":"Point","coordinates":[123.465691,41.706927]}},{"type":"Feature","properties":{"osm_id":"4066168039","station_name":"世纪大厦","element_type":"node","station_id":"4066168039"},"geometry":{"type":"Point","coordinates":[123.455987,41.717271]}},{"type":"Feature","properties":{"osm_id":"4066532412","station_name":"营盘街","element_type":"node","station_id":"4066532412"},"geometry":{"type":"Point","coordinates":[123.450585,41.728328]}},{"type":"Feature","properties":{"osm_id":"5334815561","station_name":"奥体中心","element_type":"node","station_id":"5334815561"},"geometry":{"type":"Point","coordinates":[123.447421,41.740601]}},{"type":"Feature","properties":{"osm_id":"4068152383","station_name":"五里河","element_type":"node","station_id":"4068152383"},"geometry":{"type":"Point","coordinates":[123.434385,41.750803]}},{"type":"Feature","properties":{"osm_id":"4068155447","station_name":"市图书馆","element_type":"node","station_id":"4068155447"},"geometry":{"type":"Point","coordinates":[123.429328,41.757601]}},{"type":"Feature","properties":{"osm_id":"2247693957","station_name":"工业展览馆","element_type":"node","station_id":"2247693957"},"geometry":{"type":"Point","coordinates":[123.429385,41.770886]}},{"type":"Feature","properties":{"osm_id":"4068155473","station_name":"青年公园","element_type":"node","station_id":"4068155473"},"geometry":{"type":"Point","coordinates":[123.429729,41.782444]}},{"type":"Feature","properties":{"osm_id":"4068155456","station_name":"青年大街","element_type":"node","station_id":"4068155456"},"geometry":{"type":"Point","coordinates":[123.426841,41.789916]}},{"type":"Feature","properties":{"osm_id":"4068155475","station_name":"人民广场","element_type":"node","station_id":"4068155475"},"geometry":{"type":"Point","coordinates":[123.428121,41.80257]}},{"type":"Feature","properties":{"osm_id":"4068155472","station_name":"金融中心","element_type":"node","station_id":"4068155472"},"geometry":{"type":"Point","coordinates":[123.43259,41.809552]}},{"type":"Feature","properties":{"osm_id":"4068155448","station_name":"沈阳北站","element_type":"node","station_id":"4068155448"},"geometry":{"type":"Point","coordinates":[123.431484,41.814917]}},{"type":"Feature","properties":{"osm_id":"4068156500","station_name":"岐山路","element_type":"node","station_id":"4068156500"},"geometry":{"type":"Point","coordinates":[123.422983,41.820042]}},{"type":"Feature","properties":{"osm_id":"9003571310","station_name":"中医药大学","element_type":"node","station_id":"9003571310"},"geometry":{"type":"Point","coordinates":[123.422786,41.830394]}},{"type":"Feature","properties":{"osm_id":"4068156499","station_name":"北陵公园","element_type":"node","station_id":"4068156499"},"geometry":{"type":"Point","coordinates":[123.417742,41.83652]}},{"type":"Feature","properties":{"osm_id":"4068156566","station_name":"新乐遗址","element_type":"node","station_id":"4068156566"},"geometry":{"type":"Point","coordinates":[123.412703,41.845352]}},{"type":"Feature","properties":{"osm_id":"4068156567","station_name":"陵西","element_type":"node","station_id":"4068156567"},"geometry":{"type":"Point","coordinates":[123.412112,41.853527]}},{"type":"Feature","properties":{"osm_id":"5425877926","station_name":"三台子","element_type":"node","station_id":"5425877926"},"geometry":{"type":"Point","coordinates":[123.41103,41.865625]}},{"type":"Feature","properties":{"osm_id":"4068159924","station_name":"医学院","element_type":"node","station_id":"4068159924"},"geometry":{"type":"Point","coordinates":[123.409377,41.883967]}},{"type":"Feature","properties":{"osm_id":"4068164028","station_name":"师范大学","element_type":"node","station_id":"4068164028"},"geometry":{"type":"Point","coordinates":[123.403465,41.904362]}},{"type":"Feature","properties":{"osm_id":"4068164029","station_name":"航空航天大学","element_type":"node","station_id":"4068164029"},"geometry":{"type":"Point","coordinates":[123.397167,41.915316]}},{"type":"Feature","properties":{"osm_id":"5546889973","station_name":"辽宁大学","element_type":"node","station_id":"5546889973"},"geometry":{"type":"Point","coordinates":[123.38776,41.92736]}},{"type":"Feature","properties":{"osm_id":"5546889982","station_name":"人杰湖公园","element_type":"node","station_id":"5546889982"},"geometry":{"type":"Point","coordinates":[123.39244,41.934057]}},{"type":"Feature","properties":{"osm_id":"5546889983","station_name":"蒲河路","element_type":"node","station_id":"5546889983"},"geometry":{"type":"Point","coordinates":[123.402577,41.944304]}},{"type":"Feature","properties":{"osm_id":"5546889984","station_name":"蒲田路","element_type":"node","station_id":"5546889984"},"geometry":{"type":"Point","coordinates":[123.399531,41.953779]}},{"type":"Feature","properties":{"osm_id":"12948925307","station_name":"十三号街","element_type":"node","station_id":"12948925307"},"geometry":{"type":"Point","coordinates":[123.223181,41.763045]}},{"type":"Feature","properties":{"osm_id":"12948947257","station_name":"中央大街","element_type":"node","station_id":"12948947257"},"geometry":{"type":"Point","coordinates":[123.236893,41.763018]}},{"type":"Feature","properties":{"osm_id":"12948923031","station_name":"七号街","element_type":"node","station_id":"12948923031"},"geometry":{"type":"Point","coordinates":[123.253599,41.762974]}},{"type":"Feature","properties":{"osm_id":"12948925326","station_name":"四号街","element_type":"node","station_id":"12948925326"},"geometry":{"type":"Point","coordinates":[123.271544,41.76371]}},{"type":"Feature","properties":{"osm_id":"13028388094","station_name":"张士","element_type":"node","station_id":"13028388094"},"geometry":{"type":"Point","coordinates":[123.287828,41.769223]}},{"type":"Feature","properties":{"osm_id":"13028388092","station_name":"开发大道","element_type":"node","station_id":"13028388092"},"geometry":{"type":"Point","coordinates":[123.299512,41.77866]}},{"type":"Feature","properties":{"osm_id":"13028356644","station_name":"于洪广场","element_type":"node","station_id":"13028356644"},"geometry":{"type":"Point","coordinates":[123.299919,41.791981]}},{"type":"Feature","properties":{"osm_id":"12948925352","station_name":"迎宾路","element_type":"node","station_id":"12948925352"},"geometry":{"type":"Point","coordinates":[123.303659,41.799215]}},{"type":"Feature","properties":{"osm_id":"13028356643","station_name":"重工街","element_type":"node","station_id":"13028356643"},"geometry":{"type":"Point","coordinates":[123.326114,41.802639]}},{"type":"Feature","properties":{"osm_id":"13036532545","station_name":"启工街","element_type":"node","station_id":"13036532545"},"geometry":{"type":"Point","coordinates":[123.337335,41.801312]}},{"type":"Feature","properties":{"osm_id":"12948925369","station_name":"保工街","element_type":"node","station_id":"12948925369"},"geometry":{"type":"Point","coordinates":[123.34984,41.79794]}},{"type":"Feature","properties":{"osm_id":"13028356641","station_name":"铁西广场","element_type":"node","station_id":"13028356641"},"geometry":{"type":"Point","coordinates":[123.364626,41.791702]}},{"type":"Feature","properties":{"osm_id":"13028356639","station_name":"云峰北街","element_type":"node","station_id":"13028356639"},"geometry":{"type":"Point","coordinates":[123.374478,41.794121]}},{"type":"Feature","properties":{"osm_id":"13028356637","station_name":"沈阳站","element_type":"node","station_id":"13028356637"},"geometry":{"type":"Point","coordinates":[123.389941,41.791486]}},{"type":"Feature","properties":{"osm_id":"13028337984","station_name":"太原街","element_type":"node","station_id":"13028337984"},"geometry":{"type":"Point","coordinates":[123.399785,41.787632]}},{"type":"Feature","properties":{"osm_id":"13028337982","station_name":"南市场","element_type":"node","station_id":"13028337982"},"geometry":{"type":"Point","coordinates":[123.413854,41.78695]}},{"type":"Feature","properties":{"osm_id":"13028337979","station_name":"怀远门","element_type":"node","station_id":"13028337979"},"geometry":{"type":"Point","coordinates":[123.441255,41.794566]}},{"type":"Feature","properties":{"osm_id":"12948925408","station_name":"中街","element_type":"node","station_id":"12948925408"},"geometry":{"type":"Point","coordinates":[123.454375,41.798928]}},{"type":"Feature","properties":{"osm_id":"12948925412","station_name":"东中街","element_type":"node","station_id":"12948925412"},"geometry":{"type":"Point","coordinates":[123.465231,41.80039]}},{"type":"Feature","properties":{"osm_id":"12948925422","station_name":"滂江街","element_type":"node","station_id":"12948925422"},"geometry":{"type":"Point","coordinates":[123.482634,41.806492]}},{"type":"Feature","properties":{"osm_id":"12948925426","station_name":"黎明广场","element_type":"node","station_id":"12948925426"},"geometry":{"type":"Point","coordinates":[123.498347,41.805822]}},{"type":"Feature","properties":{"osm_id":"12985307826","station_name":"新惠街","element_type":"node","station_id":"12985307826"},"geometry":{"type":"Point","coordinates":[123.515913,41.804229]}},{"type":"Feature","properties":{"osm_id":"12985307829","station_name":"新宁街","element_type":"node","station_id":"12985307829"},"geometry":{"type":"Point","coordinates":[123.525837,41.811039]}},{"type":"Feature","properties":{"osm_id":"12985307830","station_name":"东大营街","element_type":"node","station_id":"12985307830"},"geometry":{"type":"Point","coordinates":[123.539431,41.816053]}},{"type":"Feature","properties":{"osm_id":"12985456692","station_name":"农业大学","element_type":"node","station_id":"12985456692"},"geometry":{"type":"Point","coordinates":[123.558623,41.819358]}},{"type":"Feature","properties":{"osm_id":"12985456694","station_name":"前陵","element_type":"node","station_id":"12985456694"},"geometry":{"type":"Point","coordinates":[123.573815,41.820355]}},{"type":"Feature","properties":{"osm_id":"12985456696","station_name":"东陵公园","element_type":"node","station_id":"12985456696"},"geometry":{"type":"Point","coordinates":[123.589723,41.827423]}},{"type":"Feature","properties":{"osm_id":"12966407168","station_name":"水泉","element_type":"node","station_id":"12966407168"},"geometry":{"type":"Point","coordinates":[123.609919,41.843541]}},{"type":"Feature","properties":{"osm_id":"12966407165","station_name":"伯官北大街","element_type":"node","station_id":"12966407165"},"geometry":{"type":"Point","coordinates":[123.620525,41.852724]}},{"type":"Feature","properties":{"osm_id":"12966407164","station_name":"植物园","element_type":"node","station_id":"12966407164"},"geometry":{"type":"Point","coordinates":[123.633704,41.851538]}},{"type":"Feature","properties":{"osm_id":"12966407161","station_name":"双马","element_type":"node","station_id":"12966407161"},"geometry":{"type":"Point","coordinates":[123.65308,41.852876]}},{"type":"Feature","properties":{"osm_id":"13470769243","station_name":"建筑大学","element_type":"node","station_id":"13470769243"},"geometry":{"type":"Point","coordinates":[123.509997,41.74502]}},{"type":"Feature","properties":{"osm_id":"13470769236","station_name":"长青南街","element_type":"node","station_id":"13470769236"},"geometry":{"type":"Point","coordinates":[123.495684,41.742199]}},{"type":"Feature","properties":{"osm_id":"13470769235","station_name":"朗日街","element_type":"node","station_id":"13470769235"},"geometry":{"type":"Point","coordinates":[123.478719,41.738856]}},{"type":"Feature","properties":{"osm_id":"13470769218","station_name":"天成街","element_type":"node","station_id":"13470769218"},"geometry":{"type":"Point","coordinates":[123.462011,41.741293]}},{"type":"Feature","properties":{"osm_id":"13470769194","station_name":"彩霞街","element_type":"node","station_id":"13470769194"},"geometry":{"type":"Point","coordinates":[123.435167,41.73176]}},{"type":"Feature","properties":{"osm_id":"13470769191","station_name":"金阳大街","element_type":"node","station_id":"13470769191"},"geometry":{"type":"Point","coordinates":[123.423608,41.729163]}},{"type":"Feature","properties":{"osm_id":"13470769188","station_name":"榆树台","element_type":"node","station_id":"13470769188"},"geometry":{"type":"Point","coordinates":[123.41524,41.727337]}},{"type":"Feature","properties":{"osm_id":"13470769186","station_name":"长白南","element_type":"node","station_id":"13470769186"},"geometry":{"type":"Point","coordinates":[123.403519,41.725034]}},{"type":"Feature","properties":{"osm_id":"13470769184","station_name":"胜利南街","element_type":"node","station_id":"13470769184"},"geometry":{"type":"Point","coordinates":[123.392516,41.722436]}},{"type":"Feature","properties":{"osm_id":"13470769168","station_name":"浑河站","element_type":"node","station_id":"13470769168"},"geometry":{"type":"Point","coordinates":[123.362305,41.726167]}},{"type":"Feature","properties":{"osm_id":"13470769164","station_name":"曹仲","element_type":"node","station_id":"13470769164"},"geometry":{"type":"Point","coordinates":[123.354908,41.73009]}},{"type":"Feature","properties":{"osm_id":"13470769149","station_name":"大通湖街","element_type":"node","station_id":"13470769149"},"geometry":{"type":"Point","coordinates":[123.341661,41.749515]}},{"type":"Feature","properties":{"osm_id":"13470769134","station_name":"吉力湖街","element_type":"node","station_id":"13470769134"},"geometry":{"type":"Point","coordinates":[123.339863,41.758727]}},{"type":"Feature","properties":{"osm_id":"13470769121","station_name":"滑翔","element_type":"node","station_id":"13470769121"},"geometry":{"type":"Point","coordinates":[123.352763,41.769809]}},{"type":"Feature","properties":{"osm_id":"13470769110","station_name":"沈辽路","element_type":"node","station_id":"13470769110"},"geometry":{"type":"Point","coordinates":[123.356079,41.780114]}},{"type":"Feature","properties":{"osm_id":"13470769108","station_name":"兴华公园","element_type":"node","station_id":"13470769108"},"geometry":{"type":"Point","coordinates":[123.359667,41.784863]}},{"type":"Feature","properties":{"osm_id":"13470769102","station_name":"北二路","element_type":"node","station_id":"13470769102"},"geometry":{"type":"Point","coordinates":[123.37309,41.802658]}},{"type":"Feature","properties":{"osm_id":"13470769094","station_name":"重型文化广场","element_type":"node","station_id":"13470769094"},"geometry":{"type":"Point","coordinates":[123.377806,41.810493]}},{"type":"Feature","properties":{"osm_id":"13470769089","station_name":"皇姑屯站","element_type":"node","station_id":"13470769089"},"geometry":{"type":"Point","coordinates":[123.38069,41.818717]}},{"type":"Feature","properties":{"osm_id":"13470769084","station_name":"淮河街沈医二院","element_type":"node","station_id":"13470769084"},"geometry":{"type":"Point","coordinates":[123.384392,41.828094]}},{"type":"Feature","properties":{"osm_id":"13470769241","station_name":"怒江公园","element_type":"node","station_id":"13470769241"},"geometry":{"type":"Point","coordinates":[123.38308,41.840295]}},{"type":"Feature","properties":{"osm_id":"11224048725","station_name":"创新路","element_type":"node","station_id":"11224048725"},"geometry":{"type":"Point","coordinates":[123.407164,41.652925]}},{"type":"Feature","properties":{"osm_id":"11224048727","station_name":"沈阳南站","element_type":"node","station_id":"11224048727"},"geometry":{"type":"Point","coordinates":[123.403424,41.665886]}},{"type":"Feature","properties":{"osm_id":"11224118345","station_name":"城建学院","element_type":"node","station_id":"11224118345"},"geometry":{"type":"Point","coordinates":[123.409631,41.679104]}},{"type":"Feature","properties":{"osm_id":"6445850050","station_name":"红椿路","element_type":"node","station_id":"6445850050"},"geometry":{"type":"Point","coordinates":[123.396773,41.687766]}},{"type":"Feature","properties":{"osm_id":"11224138442","station_name":"云杉路","element_type":"node","station_id":"11224138442"},"geometry":{"type":"Point","coordinates":[123.392928,41.695752]}},{"type":"Feature","properties":{"osm_id":"11224138448","station_name":"金仓路","element_type":"node","station_id":"11224138448"},"geometry":{"type":"Point","coordinates":[123.399943,41.707968]}},{"type":"Feature","properties":{"osm_id":"11224147542","station_name":"长白岛","element_type":"node","station_id":"11224147542"},"geometry":{"type":"Point","coordinates":[123.397089,41.738826]}},{"type":"Feature","properties":{"osm_id":"11224147548","station_name":"南京桥","element_type":"node","station_id":"11224147548"},"geometry":{"type":"Point","coordinates":[123.39296,41.749215]}},{"type":"Feature","properties":{"osm_id":"11224147555","station_name":"砂阳","element_type":"node","station_id":"11224147555"},"geometry":{"type":"Point","coordinates":[123.38569,41.764584]}},{"type":"Feature","properties":{"osm_id":"11224147564","station_name":"南五马路","element_type":"node","station_id":"11224147564"},"geometry":{"type":"Point","coordinates":[123.393972,41.780824]}},{"type":"Feature","properties":{"osm_id":"6445849722","station_name":"市府大路","element_type":"node","station_id":"6445849722"},"geometry":{"type":"Point","coordinates":[123.409809,41.801598]}},{"type":"Feature","properties":{"osm_id":"11224150331","station_name":"皇寺路","element_type":"node","station_id":"11224150331"},"geometry":{"type":"Point","coordinates":[123.414216,41.808834]}},{"type":"Feature","properties":{"osm_id":"6445849712","station_name":"沈阳大学","element_type":"node","station_id":"6445849712"},"geometry":{"type":"Point","coordinates":[123.450976,41.816361]}},{"type":"Feature","properties":{"osm_id":"6445849707","station_name":"洮昌街","element_type":"node","station_id":"6445849707"},"geometry":{"type":"Point","coordinates":[123.461136,41.819792]}},{"type":"Feature","properties":{"osm_id":"8406646088","station_name":"合作街","element_type":"node","station_id":"8406646088"},"geometry":{"type":"Point","coordinates":[123.468158,41.826596]}},{"type":"Feature","properties":{"osm_id":"6445849699","station_name":"北大营","element_type":"node","station_id":"6445849699"},"geometry":{"type":"Point","coordinates":[123.47181,41.836744]}},{"type":"Feature","properties":{"osm_id":"8397770114","station_name":"观泉路","element_type":"node","station_id":"8397770114"},"geometry":{"type":"Point","coordinates":[123.476547,41.845902]}},{"type":"Feature","properties":{"osm_id":"11224146936","station_name":"望花","element_type":"node","station_id":"11224146936"},"geometry":{"type":"Point","coordinates":[123.485132,41.862111]}},{"type":"Feature","properties":{"osm_id":"11224179347","station_name":"文官街","element_type":"node","station_id":"11224179347"},"geometry":{"type":"Point","coordinates":[123.480551,41.868645]}},{"type":"Feature","properties":{"osm_id":"11224179359","station_name":"正新路","element_type":"node","station_id":"11224179359"},"geometry":{"type":"Point","coordinates":[123.474235,41.880342]}},{"type":"Feature","properties":{"osm_id":"13470768914","station_name":"张沙布","element_type":"node","station_id":"13470768914"},"geometry":{"type":"Point","coordinates":[123.507937,41.718107]}},{"type":"Feature","properties":{"osm_id":"13470718589","station_name":"理工大学","element_type":"node","station_id":"13470718589"},"geometry":{"type":"Point","coordinates":[123.499372,41.731233]}},{"type":"Feature","properties":{"osm_id":"13470718593","station_name":"长青桥","element_type":"node","station_id":"13470718593"},"geometry":{"type":"Point","coordinates":[123.490461,41.758417]}},{"type":"Feature","properties":{"osm_id":"13470718595","station_name":"江东街","element_type":"node","station_id":"13470718595"},"geometry":{"type":"Point","coordinates":[123.482173,41.767212]}},{"type":"Feature","properties":{"osm_id":"13470768835","station_name":"泉园","element_type":"node","station_id":"13470768835"},"geometry":{"type":"Point","coordinates":[123.472469,41.775325]}},{"type":"Feature","properties":{"osm_id":"13470718585","station_name":"万莲","element_type":"node","station_id":"13470718585"},"geometry":{"type":"Point","coordinates":[123.477568,41.787961]}},{"type":"Feature","properties":{"osm_id":"13470718587","station_name":"长安路","element_type":"node","station_id":"13470718587"},"geometry":{"type":"Point","coordinates":[123.480292,41.796993]}},{"type":"Feature","properties":{"osm_id":"13470768859","station_name":"东北大马路","element_type":"node","station_id":"13470768859"},"geometry":{"type":"Point","coordinates":[123.47588,41.81783]}},{"type":"Feature","properties":{"osm_id":"13470768871","station_name":"北塔","element_type":"node","station_id":"13470768871"},"geometry":{"type":"Point","coordinates":[123.449318,41.831112]}},{"type":"Feature","properties":{"osm_id":"13470718579","station_name":"陵东街","element_type":"node","station_id":"13470718579"},"geometry":{"type":"Point","coordinates":[123.438341,41.830654]}},{"type":"Feature","properties":{"osm_id":"13470768876","station_name":"长江街","element_type":"node","station_id":"13470768876"},"geometry":{"type":"Point","coordinates":[123.407371,41.829214]}},{"type":"Feature","properties":{"osm_id":"13470768877","station_name":"百鸟公园","element_type":"node","station_id":"13470768877"},"geometry":{"type":"Point","coordinates":[123.395017,41.828569]}},{"type":"Feature","properties":{"osm_id":"13470768882","station_name":"塔湾街","element_type":"node","station_id":"13470768882"},"geometry":{"type":"Point","coordinates":[123.36827,41.827264]}},{"type":"Feature","properties":{"osm_id":"13470768894","station_name":"向工街","element_type":"node","station_id":"13470768894"},"geometry":{"type":"Point","coordinates":[123.357842,41.833307]}},{"type":"Feature","properties":{"osm_id":"13470768905","station_name":"元江街","element_type":"node","station_id":"13470768905"},"geometry":{"type":"Point","coordinates":[123.350153,41.848724]}},{"type":"Feature","properties":{"osm_id":"13470768915","station_name":"丁香湖","element_type":"node","station_id":"13470768915"},"geometry":{"type":"Point","coordinates":[123.342018,41.861493]}},{"type":"Feature","properties":{"osm_id":"12462981231","station_name":"李达","element_type":"node","station_id":"12462981231"},"geometry":{"type":"Point","coordinates":[123.135657,41.665561]}},{"type":"Feature","properties":{"osm_id":"12463898898","station_name":"铁西汽车工厂","element_type":"node","station_id":"12463898898"},"geometry":{"type":"Point","coordinates":[123.146203,41.679476]}},{"type":"Feature","properties":{"osm_id":"12463898899","station_name":"马贝","element_type":"node","station_id":"12463898899"},"geometry":{"type":"Point","coordinates":[123.166393,41.693174]}},{"type":"Feature","properties":{"osm_id":"6445850016","station_name":"中德大街","element_type":"node","station_id":"6445850016"},"geometry":{"type":"Point","coordinates":[123.184699,41.697775]}},{"type":"Feature","properties":{"osm_id":"6445850009","station_name":"细河悠谷","element_type":"node","station_id":"6445850009"},"geometry":{"type":"Point","coordinates":[123.212658,41.709068]}},{"type":"Feature","properties":{"osm_id":"12463898895","station_name":"翟家","element_type":"node","station_id":"12463898895"},"geometry":{"type":"Point","coordinates":[123.231617,41.718297]}},{"type":"Feature","properties":{"osm_id":"12463930802","station_name":"工业大学","element_type":"node","station_id":"12463930802"},"geometry":{"type":"Point","coordinates":[123.25671,41.727889]}},{"type":"Feature","properties":{"osm_id":"6445849990","station_name":"宁官","element_type":"node","station_id":"6445849990"},"geometry":{"type":"Point","coordinates":[123.268525,41.736085]}},{"type":"Feature","properties":{"osm_id":"12463898892","station_name":"余良","element_type":"node","station_id":"12463898892"},"geometry":{"type":"Point","coordinates":[123.27763,41.737635]}},{"type":"Feature","properties":{"osm_id":"12463898890","station_name":"甘官","element_type":"node","station_id":"12463898890"},"geometry":{"type":"Point","coordinates":[123.301228,41.743962]}},{"type":"Feature","properties":{"osm_id":"12463898887","station_name":"千岛湖街","element_type":"node","station_id":"12463898887"},"geometry":{"type":"Point","coordinates":[123.317566,41.741085]}},{"type":"Feature","properties":{"osm_id":"12463898889","station_name":"南阳湖街","element_type":"node","station_id":"12463898889"},"geometry":{"type":"Point","coordinates":[123.327558,41.746209]}},{"type":"Feature","properties":{"osm_id":"6445849768","station_name":"南李官","element_type":"node","station_id":"6445849768"},"geometry":{"type":"Point","coordinates":[123.356362,41.755634]}}]}