{"type":"FeatureCollection","generator":"metroOsmFetch (OpenStreetMap / Overpass, ODbL)","features":[{"type":"Feature","properties":{"route_company":"","route_id":"2","element_type":"way","color":"#008900","route_name":"2号线","osm_id":"10488714","railway":"subway"},"geometry":{"type":"LineString","coordinates":[[118.162086,24.535243],[118.168067,24.526624],[118.178221,24.519492],[118.184699,24.514359],[118.189082,24.508096],[118.188104,24.502099],[118.187987,24.495887],[118.187702,24.488209],[118.179962,24.483742],[118.169334,24.487155],[118.158921,24.488388],[118.148416,24.490041],[118.14122,24.492508],[118.133472,24.494966],[118.123226,24.492985],[118.10783,24.488164],[118.100842,24.486901],[118.089837,24.483348],[118.079128,24.480844],[118.072279,24.487687],[118.044924,24.487007],[118.034789,24.483441],[118.028269,24.490256],[118.025068,24.496861],[118.009681,24.528897],[118.000007,24.533839],[117.990657,24.540225],[117.957467,24.55233],[117.942961,24.569332],[117.932338,24.581713]]}},{"type":"Feature","properties":{"route_company":"","route_id":"1","element_type":"way","color":"#ff7300","route_name":"1号线","osm_id":"8110557","railway":"subway"},"geometry":{"type":"LineString","coordinates":[[118.064858,24.646262],[118.06828,24.639999],[118.061184,24.628746],[118.050275,24.622798],[118.042801,24.616225],[118.04921,24.605955],[118.053573,24.595862],[118.052055,24.584009],[118.057356,24.578804],[118.062396,24.572161],[118.087296,24.566524],[118.111702,24.540598],[118.11153,24.528511],[118.113881,24.514909],[118.117939,24.50866],[118.12145,24.501511],[118.123226,24.492985],[118.118141,24.486619],[118.112765,24.478701],[118.106169,24.477323],[118.098491,24.470107],[118.095246,24.463759],[118.085189,24.458603],[118.078118,24.45345]]}},{"type":"Feature","properties":{"route_company":"","route_id":"3","element_type":"way","color":"#529fc9","route_name":"3号线","osm_id":"12893647","railway":"subway"},"geometry":{"type":"LineString","coordinates":[[118.27453,24.575598],[118.267207,24.582731],[118.239581,24.581382],[118.227122,24.578826],[118.162086,24.535243],[118.151309,24.525627],[118.141953,24.52203],[118.133599,24.520599],[118.121019,24.516899],[118.113881,24.514909],[118.104634,24.514289],[118.100448,24.50937],[118.098457,24.491538],[118.100842,24.486901],[118.106169,24.477323],[118.109318,24.472113]]}},{"type":"Feature","properties":{"osm_id":"7084909127","station_name":"五缘湾","element_type":"node","station_id":"7084909127"},"geometry":{"type":"Point","coordinates":[118.162086,24.535243]}},{"type":"Feature","properties":{"osm_id":"7089628605","station_name":"钟宅","element_type":"node","station_id":"7089628605"},"geometry":{"type":"Point","coordinates":[118.168067,24.526624]}},{"type":"Feature","properties":{"osm_id":"7089628607","station_name":"湿地公园","element_type":"node","station_id":"7089628607"},"geometry":{"type":"Point","coordinates":[118.178221,24.519492]}},{"type":"Feature","properties":{"osm_id":"7089628609","station_name":"五通","element_type":"node","station_id":"7089628609"},"geometry":{"type":"Point","coordinates":[118.184699,24.514359]}},{"type":"Feature","properties":{"osm_id":"7089628611","station_name":"两岸金融中心","element_type":"node","station_id":"7089628611"},"geometry":{"type":"Point","coordinates":[118.189082,24.508096]}},{"type":"Feature","properties":{"osm_id":"7089628613","station_name":"东宅","element_type":"node","station_id":"7089628613"},"geometry":{"type":"Point","coordinates":[118.188104,24.502099]}},{"type":"Feature","properties":{"osm_id":"7089628614","station_name":"观音山","element_type":"node","station_id":"7089628614"},"geometry":{"type":"Point","coordinates":[118.187987,24.495887]}},{"type":"Feature","properties":{"osm_id":"7089628616","station_name":"何厝","element_type":"node","station_id":"7089628616"},"geometry":{"type":"Point","coordinates":[118.187702,24.488209]}},{"type":"Feature","properties":{"osm_id":"7089628618","station_name":"软件园二期","element_type":"node","station_id":"7089628618"},"geometry":{"type":"Point","coordinates":[118.179962,24.483742]}},{"type":"Feature","properties":{"osm_id":"7089628620","station_name":"岭兜","element_type":"node","station_id":"7089628620"},"geometry":{"type":"Point","coordinates":[118.169334,24.487155]}},{"type":"Feature","properties":{"osm_id":"7089628622","station_name":"古地石","element_type":"node","station_id":"7089628622"},"geometry":{"type":"Point","coordinates":[118.158921,24.488388]}},{"type":"Feature","properties":{"osm_id":"7089628625","station_name":"蔡塘","element_type":"node","station_id":"7089628625"},"geometry":{"type":"Point","coordinates":[118.148416,24.490041]}},{"type":"Feature","properties":{"osm_id":"7089628626","station_name":"后埔","element_type":"node","station_id":"7089628626"},"geometry":{"type":"Point","coordinates":[118.14122,24.492508]}},{"type":"Feature","properties":{"osm_id":"7089628628","station_name":"江头","element_type":"node","station_id":"7089628628"},"geometry":{"type":"Point","coordinates":[118.133472,24.494966]}},{"type":"Feature","properties":{"osm_id":"7089628652","station_name":"吕厝","element_type":"node","station_id":"7089628652"},"geometry":{"type":"Point","coordinates":[118.123226,24.492985]}},{"type":"Feature","properties":{"osm_id":"6449658292","station_name":"育秀东路","element_type":"node","station_id":"6449658292"},"geometry":{"type":"Point","coordinates":[118.10783,24.488164]}},{"type":"Feature","properties":{"osm_id":"7089628649","station_name":"体育中心","element_type":"node","station_id":"7089628649"},"geometry":{"type":"Point","coordinates":[118.100842,24.486901]}},{"type":"Feature","properties":{"osm_id":"7089628646","station_name":"湖滨中路","element_type":"node","station_id":"7089628646"},"geometry":{"type":"Point","coordinates":[118.089837,24.483348]}},{"type":"Feature","properties":{"osm_id":"7089628644","station_name":"建业路","element_type":"node","station_id":"7089628644"},"geometry":{"type":"Point","coordinates":[118.079128,24.480844]}},{"type":"Feature","properties":{"osm_id":"7089628643","station_name":"邮轮中心","element_type":"node","station_id":"7089628643"},"geometry":{"type":"Point","coordinates":[118.072279,24.487687]}},{"type":"Feature","properties":{"osm_id":"7084910205","station_name":"海沧湾公园","element_type":"node","station_id":"7084910205"},"geometry":{"type":"Point","coordinates":[118.044924,24.487007]}},{"type":"Feature","properties":{"osm_id":"6449658280","station_name":"海沧商务中心","element_type":"node","station_id":"6449658280"},"geometry":{"type":"Point","coordinates":[118.034789,24.483441]}},{"type":"Feature","properties":{"osm_id":"7089628641","station_name":"海沧行政中心","element_type":"node","station_id":"7089628641"},"geometry":{"type":"Point","coordinates":[118.028269,24.490256]}},{"type":"Feature","properties":{"osm_id":"7089628639","station_name":"马青路","element_type":"node","station_id":"7089628639"},"geometry":{"type":"Point","coordinates":[118.025068,24.496861]}},{"type":"Feature","properties":{"osm_id":"7089628636","station_name":"翁角路","element_type":"node","station_id":"7089628636"},"geometry":{"type":"Point","coordinates":[118.009681,24.528897]}},{"type":"Feature","properties":{"osm_id":"7089628634","station_name":"新垵","element_type":"node","station_id":"7089628634"},"geometry":{"type":"Point","coordinates":[118.000007,24.533839]}},{"type":"Feature","properties":{"osm_id":"7089628633","station_name":"新阳大道","element_type":"node","station_id":"7089628633"},"geometry":{"type":"Point","coordinates":[117.990657,24.540225]}},{"type":"Feature","properties":{"osm_id":"8720287865","station_name":"东瑶","element_type":"node","station_id":"8720287865"},"geometry":{"type":"Point","coordinates":[117.957467,24.55233]}},{"type":"Feature","properties":{"osm_id":"7089628631","station_name":"东孚","element_type":"node","station_id":"7089628631"},"geometry":{"type":"Point","coordinates":[117.942961,24.569332]}},{"type":"Feature","properties":{"osm_id":"7089227399","station_name":"天竺山","element_type":"node","station_id":"7089227399"},"geometry":{"type":"Point","coordinates":[117.932338,24.581713]}},{"type":"Feature","properties":{"osm_id":"5923528661","station_name":"岩内","element_type":"node","station_id":"5923528661"},"geometry":{"type":"Point","coordinates":[118.064858,24.646262]}},{"type":"Feature","properties":{"osm_id":"5923528663","station_name":"厦门北站","element_type":"node","station_id":"5923528663"},"geometry":{"type":"Point","coordinates":[118.06828,24.639999]}},{"type":"Feature","properties":{"osm_id":"5923528669","station_name":"天水路","element_type":"node","station_id":"5923528669"},"geometry":{"type":"Point","coordinates":[118.061184,24.628746]}},{"type":"Feature","properties":{"osm_id":"5923528671","station_name":"集美大道","element_type":"node","station_id":"5923528671"},"geometry":{"type":"Point","coordinates":[118.050275,24.622798]}},{"type":"Feature","properties":{"osm_id":"5923528675","station_name":"集美软件园","element_type":"node","station_id":"5923528675"},"geometry":{"type":"Point","coordinates":[118.042801,24.616225]}},{"type":"Feature","properties":{"osm_id":"5923528679","station_name":"诚毅广场","element_type":"node","station_id":"5923528679"},"geometry":{"type":"Point","coordinates":[118.04921,24.605955]}},{"type":"Feature","properties":{"osm_id":"5923528684","station_name":"官任","element_type":"node","station_id":"5923528684"},"geometry":{"type":"Point","coordinates":[118.053573,24.595862]}},{"type":"Feature","properties":{"osm_id":"5923528991","station_name":"杏锦路","element_type":"node","station_id":"5923528991"},"geometry":{"type":"Point","coordinates":[118.052055,24.584009]}},{"type":"Feature","properties":{"osm_id":"5923528996","station_name":"杏林村","element_type":"node","station_id":"5923528996"},"geometry":{"type":"Point","coordinates":[118.057356,24.578804]}},{"type":"Feature","properties":{"osm_id":"5923529002","station_name":"园博苑","element_type":"node","station_id":"5923529002"},"geometry":{"type":"Point","coordinates":[118.062396,24.572161]}},{"type":"Feature","properties":{"osm_id":"8913400716","station_name":"集美学村","element_type":"node","station_id":"8913400716"},"geometry":{"type":"Point","coordinates":[118.087296,24.566524]}},{"type":"Feature","properties":{"osm_id":"5923529021","station_name":"高崎","element_type":"node","station_id":"5923529021"},"geometry":{"type":"Point","coordinates":[118.111702,24.540598]}},{"type":"Feature","properties":{"osm_id":"5923529032","station_name":"殿前","element_type":"node","station_id":"5923529032"},"geometry":{"type":"Point","coordinates":[118.11153,24.528511]}},{"type":"Feature","properties":{"osm_id":"5923529043","station_name":"火炬园","element_type":"node","station_id":"5923529043"},"geometry":{"type":"Point","coordinates":[118.113881,24.514909]}},{"type":"Feature","properties":{"osm_id":"5923529048","station_name":"塘边","element_type":"node","station_id":"5923529048"},"geometry":{"type":"Point","coordinates":[118.117939,24.50866]}},{"type":"Feature","properties":{"osm_id":"5923529053","station_name":"乌石浦","element_type":"node","station_id":"5923529053"},"geometry":{"type":"Point","coordinates":[118.12145,24.501511]}},{"type":"Feature","properties":{"osm_id":"5923529061","station_name":"莲花路口","element_type":"node","station_id":"5923529061"},"geometry":{"type":"Point","coordinates":[118.118141,24.486619]}},{"type":"Feature","properties":{"osm_id":"6487452792","station_name":"莲坂","element_type":"node","station_id":"6487452792"},"geometry":{"type":"Point","coordinates":[118.112765,24.478701]}},{"type":"Feature","properties":{"osm_id":"5923529069","station_name":"湖滨东路","element_type":"node","station_id":"5923529069"},"geometry":{"type":"Point","coordinates":[118.106169,24.477323]}},{"type":"Feature","properties":{"osm_id":"5923529078","station_name":"文灶","element_type":"node","station_id":"5923529078"},"geometry":{"type":"Point","coordinates":[118.098491,24.470107]}},{"type":"Feature","properties":{"osm_id":"5923529084","station_name":"将军祠","element_type":"node","station_id":"5923529084"},"geometry":{"type":"Point","coordinates":[118.095246,24.463759]}},{"type":"Feature","properties":{"osm_id":"8913400710","station_name":"中山公园","element_type":"node","station_id":"8913400710"},"geometry":{"type":"Point","coordinates":[118.085189,24.458603]}},{"type":"Feature","properties":{"osm_id":"5923529195","station_name":"镇海路","element_type":"node","station_id":"5923529195"},"geometry":{"type":"Point","coordinates":[118.078118,24.45345]}},{"type":"Feature","properties":{"osm_id":"8870472882","station_name":"蔡厝","element_type":"node","station_id":"8870472882"},"geometry":{"type":"Point","coordinates":[118.27453,24.575598]}},{"type":"Feature","properties":{"osm_id":"8914223662","station_name":"后村","element_type":"node","station_id":"8914223662"},"geometry":{"type":"Point","coordinates":[118.267207,24.582731]}},{"type":"Feature","properties":{"osm_id":"8914223665","station_name":"鼓锣","element_type":"node","station_id":"8914223665"},"geometry":{"type":"Point","coordinates":[118.239581,24.581382]}},{"type":"Feature","properties":{"osm_id":"8914223659","station_name":"林前","element_type":"node","station_id":"8914223659"},"geometry":{"type":"Point","coordinates":[118.227122,24.578826]}},{"type":"Feature","properties":{"osm_id":"8914223657","station_name":"湖里创新园","element_type":"node","station_id":"8914223657"},"geometry":{"type":"Point","coordinates":[118.151309,24.525627]}},{"type":"Feature","properties":{"osm_id":"8914223654","station_name":"坂尚","element_type":"node","station_id":"8914223654"},"geometry":{"type":"Point","coordinates":[118.141953,24.52203]}},{"type":"Feature","properties":{"osm_id":"8914223653","station_name":"安兜","element_type":"node","station_id":"8914223653"},"geometry":{"type":"Point","coordinates":[118.133599,24.520599]}},{"type":"Feature","properties":{"osm_id":"6449658395","station_name":"小东山","element_type":"node","station_id":"6449658395"},"geometry":{"type":"Point","coordinates":[118.121019,24.516899]}},{"type":"Feature","properties":{"osm_id":"8914223649","station_name":"华荣路","element_type":"node","station_id":"8914223649"},"geometry":{"type":"Point","coordinates":[118.104634,24.514289]}},{"type":"Feature","properties":{"osm_id":"8323949010","station_name":"湖里公园","element_type":"node","station_id":"8323949010"},"geometry":{"type":"Point","coordinates":[118.100448,24.50937]}},{"type":"Feature","properties":{"osm_id":"8914223647","station_name":"人才中心","element_type":"node","station_id":"8914223647"},"geometry":{"type":"Point","coordinates":[118.098457,24.491538]}},{"type":"Feature","properties":{"osm_id":"8870472890","station_name":"厦门火车站","element_type":"node","station_id":"8870472890"},"geometry":{"type":"Point","coordinates":[118.109318,24.472113]}}]}