{"type":"FeatureCollection","generator":"metroOsmFetch (OpenStreetMap / Overpass, ODbL)","features":[{"type":"Feature","properties":{"route_company":"","route_id":"2","element_type":"way","color":"#4bb134","route_name":"廈門軌道交通2號線（五緣灣→天竺山）","osm_id":"10488714","railway":"subway","status":"open"},"geometry":{"type":"LineString","coordinates":[[118.162086,24.535243],[118.168067,24.526624],[118.178221,24.519492],[118.184699,24.514359],[118.189082,24.508096],[118.188104,24.502099],[118.187987,24.495887],[118.187702,24.488209],[118.179962,24.483742],[118.169334,24.487155],[118.158921,24.488388],[118.148416,24.490041],[118.14122,24.492508],[118.133472,24.494966],[118.123226,24.492985],[118.10783,24.488164],[118.100842,24.486901],[118.089837,24.483348],[118.079128,24.480844],[118.072279,24.487687],[118.044924,24.487007],[118.034789,24.483441],[118.028269,24.490256],[118.025068,24.496861],[118.009681,24.528897],[118.000007,24.533839],[117.990657,24.540225],[117.957467,24.55233],[117.942961,24.569332],[117.932338,24.581713]]}},{"type":"Feature","properties":{"route_company":"","route_id":"1","element_type":"way","color":"#ec7000","route_name":"廈門軌道交通1號線","osm_id":"8110557","railway":"subway","status":"open"},"geometry":{"type":"LineString","coordinates":[[118.064858,24.646262],[118.06828,24.639999],[118.061184,24.628746],[118.050275,24.622798],[118.042801,24.616225],[118.04921,24.605955],[118.053573,24.595862],[118.052055,24.584009],[118.057356,24.578804],[118.062396,24.572161],[118.087296,24.566524],[118.111702,24.540598],[118.11153,24.528511],[118.113881,24.514909],[118.117939,24.50866],[118.12145,24.501511],[118.123226,24.492985],[118.118141,24.486619],[118.112765,24.478701],[118.106169,24.477323],[118.098491,24.470107],[118.095246,24.463759],[118.085189,24.458603],[118.078118,24.45345]]}},{"type":"Feature","properties":{"route_company":"","route_id":"3","element_type":"way","color":"#0c89de","route_name":"廈門軌道交通3號線（廈門火車站→蔡厝）","osm_id":"12888045","railway":"subway","status":"open"},"geometry":{"type":"LineString","coordinates":[[118.27453,24.575598],[118.267207,24.582731],[118.239581,24.581382],[118.227122,24.578826],[118.162086,24.535243],[118.151309,24.525627],[118.141953,24.52203],[118.133599,24.520599],[118.121019,24.516899],[118.113881,24.514909],[118.104634,24.514289],[118.100448,24.50937],[118.098457,24.491538],[118.100842,24.486901],[118.106169,24.477323],[118.109318,24.472113]]}},{"type":"Feature","properties":{"osm_id":"7084909127","station_name":"五緣灣","element_type":"node","station_id":"7084909127"},"geometry":{"type":"Point","coordinates":[118.162086,24.535243]}},{"type":"Feature","properties":{"osm_id":"7089628605","station_name":"鍾宅","element_type":"node","station_id":"7089628605"},"geometry":{"type":"Point","coordinates":[118.168067,24.526624]}},{"type":"Feature","properties":{"osm_id":"7089628607","station_name":"溼地公園","element_type":"node","station_id":"7089628607"},"geometry":{"type":"Point","coordinates":[118.178221,24.519492]}},{"type":"Feature","properties":{"osm_id":"7089628609","station_name":"五通","element_type":"node","station_id":"7089628609"},"geometry":{"type":"Point","coordinates":[118.184699,24.514359]}},{"type":"Feature","properties":{"osm_id":"7089628611","station_name":"兩岸金融中心","element_type":"node","station_id":"7089628611"},"geometry":{"type":"Point","coordinates":[118.189082,24.508096]}},{"type":"Feature","properties":{"osm_id":"7089628613","station_name":"東宅","element_type":"node","station_id":"7089628613"},"geometry":{"type":"Point","coordinates":[118.188104,24.502099]}},{"type":"Feature","properties":{"osm_id":"7089628614","station_name":"觀音山","element_type":"node","station_id":"7089628614"},"geometry":{"type":"Point","coordinates":[118.187987,24.495887]}},{"type":"Feature","properties":{"osm_id":"7089628616","station_name":"何厝","element_type":"node","station_id":"7089628616"},"geometry":{"type":"Point","coordinates":[118.187702,24.488209]}},{"type":"Feature","properties":{"osm_id":"7089628618","station_name":"軟件園二期","element_type":"node","station_id":"7089628618"},"geometry":{"type":"Point","coordinates":[118.179962,24.483742]}},{"type":"Feature","properties":{"osm_id":"7089628620","station_name":"嶺兜","element_type":"node","station_id":"7089628620"},"geometry":{"type":"Point","coordinates":[118.169334,24.487155]}},{"type":"Feature","properties":{"osm_id":"7089628622","station_name":"古地石","element_type":"node","station_id":"7089628622"},"geometry":{"type":"Point","coordinates":[118.158921,24.488388]}},{"type":"Feature","properties":{"osm_id":"7089628625","station_name":"蔡塘","element_type":"node","station_id":"7089628625"},"geometry":{"type":"Point","coordinates":[118.148416,24.490041]}},{"type":"Feature","properties":{"osm_id":"7089628626","station_name":"後埔","element_type":"node","station_id":"7089628626"},"geometry":{"type":"Point","coordinates":[118.14122,24.492508]}},{"type":"Feature","properties":{"osm_id":"7089628628","station_name":"江頭","element_type":"node","station_id":"7089628628"},"geometry":{"type":"Point","coordinates":[118.133472,24.494966]}},{"type":"Feature","properties":{"osm_id":"7089628652","station_name":"呂厝","element_type":"node","station_id":"7089628652"},"geometry":{"type":"Point","coordinates":[118.123226,24.492985]}},{"type":"Feature","properties":{"osm_id":"6449658292","station_name":"育秀東路","element_type":"node","station_id":"6449658292"},"geometry":{"type":"Point","coordinates":[118.10783,24.488164]}},{"type":"Feature","properties":{"osm_id":"7089628649","station_name":"體育中心","element_type":"node","station_id":"7089628649"},"geometry":{"type":"Point","coordinates":[118.100842,24.486901]}},{"type":"Feature","properties":{"osm_id":"7089628646","station_name":"湖濱中路","element_type":"node","station_id":"7089628646"},"geometry":{"type":"Point","coordinates":[118.089837,24.483348]}},{"type":"Feature","properties":{"osm_id":"7089628644","station_name":"建業路","element_type":"node","station_id":"7089628644"},"geometry":{"type":"Point","coordinates":[118.079128,24.480844]}},{"type":"Feature","properties":{"osm_id":"7089628643","station_name":"郵輪中心","element_type":"node","station_id":"7089628643"},"geometry":{"type":"Point","coordinates":[118.072279,24.487687]}},{"type":"Feature","properties":{"osm_id":"7084910205","station_name":"海滄灣公園","element_type":"node","station_id":"7084910205"},"geometry":{"type":"Point","coordinates":[118.044924,24.487007]}},{"type":"Feature","properties":{"osm_id":"6449658280","station_name":"海滄商務中心","element_type":"node","station_id":"6449658280"},"geometry":{"type":"Point","coordinates":[118.034789,24.483441]}},{"type":"Feature","properties":{"osm_id":"7089628641","station_name":"海滄行政中心","element_type":"node","station_id":"7089628641"},"geometry":{"type":"Point","coordinates":[118.028269,24.490256]}},{"type":"Feature","properties":{"osm_id":"7089628639","station_name":"馬青路","element_type":"node","station_id":"7089628639"},"geometry":{"type":"Point","coordinates":[118.025068,24.496861]}},{"type":"Feature","properties":{"osm_id":"7089628636","station_name":"翁角路","element_type":"node","station_id":"7089628636"},"geometry":{"type":"Point","coordinates":[118.009681,24.528897]}},{"type":"Feature","properties":{"osm_id":"7089628634","station_name":"新垵","element_type":"node","station_id":"7089628634"},"geometry":{"type":"Point","coordinates":[118.000007,24.533839]}},{"type":"Feature","properties":{"osm_id":"7089628633","station_name":"新陽大道","element_type":"node","station_id":"7089628633"},"geometry":{"type":"Point","coordinates":[117.990657,24.540225]}},{"type":"Feature","properties":{"osm_id":"8720287865","station_name":"東瑤","element_type":"node","station_id":"8720287865"},"geometry":{"type":"Point","coordinates":[117.957467,24.55233]}},{"type":"Feature","properties":{"osm_id":"7089628631","station_name":"東孚","element_type":"node","station_id":"7089628631"},"geometry":{"type":"Point","coordinates":[117.942961,24.569332]}},{"type":"Feature","properties":{"osm_id":"7089227399","station_name":"天竺山","element_type":"node","station_id":"7089227399"},"geometry":{"type":"Point","coordinates":[117.932338,24.581713]}},{"type":"Feature","properties":{"osm_id":"5923528661","station_name":"巖內","element_type":"node","station_id":"5923528661"},"geometry":{"type":"Point","coordinates":[118.064858,24.646262]}},{"type":"Feature","properties":{"osm_id":"5923528663","station_name":"廈門北站","element_type":"node","station_id":"5923528663"},"geometry":{"type":"Point","coordinates":[118.06828,24.639999]}},{"type":"Feature","properties":{"osm_id":"5923528669","station_name":"天水路","element_type":"node","station_id":"5923528669"},"geometry":{"type":"Point","coordinates":[118.061184,24.628746]}},{"type":"Feature","properties":{"osm_id":"5923528671","station_name":"集美大道","element_type":"node","station_id":"5923528671"},"geometry":{"type":"Point","coordinates":[118.050275,24.622798]}},{"type":"Feature","properties":{"osm_id":"5923528675","station_name":"集美軟件園","element_type":"node","station_id":"5923528675"},"geometry":{"type":"Point","coordinates":[118.042801,24.616225]}},{"type":"Feature","properties":{"osm_id":"5923528679","station_name":"誠毅廣場","element_type":"node","station_id":"5923528679"},"geometry":{"type":"Point","coordinates":[118.04921,24.605955]}},{"type":"Feature","properties":{"osm_id":"5923528684","station_name":"官任","element_type":"node","station_id":"5923528684"},"geometry":{"type":"Point","coordinates":[118.053573,24.595862]}},{"type":"Feature","properties":{"osm_id":"5923528991","station_name":"杏錦路","element_type":"node","station_id":"5923528991"},"geometry":{"type":"Point","coordinates":[118.052055,24.584009]}},{"type":"Feature","properties":{"osm_id":"5923528996","station_name":"杏林村","element_type":"node","station_id":"5923528996"},"geometry":{"type":"Point","coordinates":[118.057356,24.578804]}},{"type":"Feature","properties":{"osm_id":"5923529002","station_name":"園博苑","element_type":"node","station_id":"5923529002"},"geometry":{"type":"Point","coordinates":[118.062396,24.572161]}},{"type":"Feature","properties":{"osm_id":"8913400716","station_name":"集美學村","element_type":"node","station_id":"8913400716"},"geometry":{"type":"Point","coordinates":[118.087296,24.566524]}},{"type":"Feature","properties":{"osm_id":"5923529021","station_name":"高崎","element_type":"node","station_id":"5923529021"},"geometry":{"type":"Point","coordinates":[118.111702,24.540598]}},{"type":"Feature","properties":{"osm_id":"5923529032","station_name":"殿前","element_type":"node","station_id":"5923529032"},"geometry":{"type":"Point","coordinates":[118.11153,24.528511]}},{"type":"Feature","properties":{"osm_id":"5923529043","station_name":"火炬園","element_type":"node","station_id":"5923529043"},"geometry":{"type":"Point","coordinates":[118.113881,24.514909]}},{"type":"Feature","properties":{"osm_id":"5923529048","station_name":"塘邊","element_type":"node","station_id":"5923529048"},"geometry":{"type":"Point","coordinates":[118.117939,24.50866]}},{"type":"Feature","properties":{"osm_id":"5923529053","station_name":"烏石浦","element_type":"node","station_id":"5923529053"},"geometry":{"type":"Point","coordinates":[118.12145,24.501511]}},{"type":"Feature","properties":{"osm_id":"5923529061","station_name":"蓮花路口","element_type":"node","station_id":"5923529061"},"geometry":{"type":"Point","coordinates":[118.118141,24.486619]}},{"type":"Feature","properties":{"osm_id":"6487452792","station_name":"蓮坂","element_type":"node","station_id":"6487452792"},"geometry":{"type":"Point","coordinates":[118.112765,24.478701]}},{"type":"Feature","properties":{"osm_id":"5923529069","station_name":"湖濱東路","element_type":"node","station_id":"5923529069"},"geometry":{"type":"Point","coordinates":[118.106169,24.477323]}},{"type":"Feature","properties":{"osm_id":"5923529078","station_name":"文灶","element_type":"node","station_id":"5923529078"},"geometry":{"type":"Point","coordinates":[118.098491,24.470107]}},{"type":"Feature","properties":{"osm_id":"5923529084","station_name":"將軍祠","element_type":"node","station_id":"5923529084"},"geometry":{"type":"Point","coordinates":[118.095246,24.463759]}},{"type":"Feature","properties":{"osm_id":"8913400710","station_name":"中山公園","element_type":"node","station_id":"8913400710"},"geometry":{"type":"Point","coordinates":[118.085189,24.458603]}},{"type":"Feature","properties":{"osm_id":"5923529195","station_name":"鎮海路","element_type":"node","station_id":"5923529195"},"geometry":{"type":"Point","coordinates":[118.078118,24.45345]}},{"type":"Feature","properties":{"osm_id":"8870472882","station_name":"蔡厝","element_type":"node","station_id":"8870472882"},"geometry":{"type":"Point","coordinates":[118.27453,24.575598]}},{"type":"Feature","properties":{"osm_id":"8914223662","station_name":"後村","element_type":"node","station_id":"8914223662"},"geometry":{"type":"Point","coordinates":[118.267207,24.582731]}},{"type":"Feature","properties":{"osm_id":"8914223665","station_name":"鼓鑼","element_type":"node","station_id":"8914223665"},"geometry":{"type":"Point","coordinates":[118.239581,24.581382]}},{"type":"Feature","properties":{"osm_id":"8914223659","station_name":"林前","element_type":"node","station_id":"8914223659"},"geometry":{"type":"Point","coordinates":[118.227122,24.578826]}},{"type":"Feature","properties":{"osm_id":"8914223657","station_name":"湖裡創新園","element_type":"node","station_id":"8914223657"},"geometry":{"type":"Point","coordinates":[118.151309,24.525627]}},{"type":"Feature","properties":{"osm_id":"8914223654","station_name":"坂尚","element_type":"node","station_id":"8914223654"},"geometry":{"type":"Point","coordinates":[118.141953,24.52203]}},{"type":"Feature","properties":{"osm_id":"8914223653","station_name":"安兜","element_type":"node","station_id":"8914223653"},"geometry":{"type":"Point","coordinates":[118.133599,24.520599]}},{"type":"Feature","properties":{"osm_id":"6449658395","station_name":"小東山","element_type":"node","station_id":"6449658395"},"geometry":{"type":"Point","coordinates":[118.121019,24.516899]}},{"type":"Feature","properties":{"osm_id":"8914223649","station_name":"華榮路","element_type":"node","station_id":"8914223649"},"geometry":{"type":"Point","coordinates":[118.104634,24.514289]}},{"type":"Feature","properties":{"osm_id":"8323949010","station_name":"湖裡公園","element_type":"node","station_id":"8323949010"},"geometry":{"type":"Point","coordinates":[118.100448,24.50937]}},{"type":"Feature","properties":{"osm_id":"8914223647","station_name":"人才中心","element_type":"node","station_id":"8914223647"},"geometry":{"type":"Point","coordinates":[118.098457,24.491538]}},{"type":"Feature","properties":{"osm_id":"8870472890","station_name":"廈門火車站","element_type":"node","station_id":"8870472890"},"geometry":{"type":"Point","coordinates":[118.109318,24.472113]}},{"type":"Feature","properties":{"route_company":"","route_id":"687961019","element_type":"way","color":"#f58231","route_name":"廈門地鐵4號線","osm_id":"687961019","railway":"subway","status":"construction"},"geometry":{"type":"LineString","coordinates":[[118.359812,24.544869],[118.337633,24.532523],[118.333184,24.531843],[118.327859,24.534082],[118.320209,24.540473],[118.315036,24.546806],[118.284545,24.568545],[118.281143,24.569031],[118.272825,24.567839],[118.261573,24.564669],[118.235697,24.564623],[118.218596,24.577099],[118.216526,24.580466],[118.212653,24.599881],[118.213859,24.628018],[118.211718,24.63236],[118.20787,24.634079],[118.195016,24.634385],[118.158971,24.643116],[118.155685,24.644866],[118.148037,24.653116],[118.140244,24.656512],[118.129206,24.655954],[118.114056,24.652768],[118.105575,24.654092],[118.091266,24.651339],[118.066496,24.639352],[118.028966,24.618869]]}},{"type":"Feature","properties":{"route_company":"","route_id":"687961021","element_type":"way","color":"#911eb4","route_name":"廈門地鐵6號線","osm_id":"687961021","railway":"subway","status":"construction"},"geometry":{"type":"LineString","coordinates":[[117.900265,24.487603],[117.893272,24.489001],[117.891469,24.490319],[117.890395,24.499592],[117.890873,24.50696],[117.887166,24.512836],[117.886917,24.51534],[117.889176,24.517679],[117.90798,24.525853],[117.913605,24.527301],[117.918363,24.53262],[117.927422,24.532213],[117.930728,24.533101],[117.936783,24.535619],[117.961136,24.549338],[117.967202,24.550244],[117.988871,24.548928],[117.995748,24.554818],[118.003304,24.564522],[118.009609,24.567831],[118.033806,24.567999],[118.037293,24.570817],[118.042052,24.580953],[118.04984,24.593324],[118.070847,24.605768],[118.073419,24.605357],[118.098564,24.592131],[118.108572,24.585863],[118.111547,24.586674],[118.12021,24.595116]]}},{"type":"Feature","properties":{"route_company":"","route_id":"687961022","element_type":"way","color":"#1ca8c9","route_name":"廈門地鐵9號線","osm_id":"687961022","railway":"subway","status":"construction"},"geometry":{"type":"LineString","coordinates":[[118.159472,24.754264],[118.159445,24.751782],[118.157628,24.749717],[118.159259,24.745801],[118.158435,24.742194],[118.153892,24.739713],[118.143588,24.738636],[118.138761,24.735492],[118.135272,24.730762],[118.130726,24.719314],[118.132849,24.711253],[118.145181,24.709269],[118.147349,24.69573],[118.151337,24.692566],[118.154186,24.682912],[118.161513,24.683313],[118.16769,24.663158],[118.148712,24.657728],[118.140998,24.651469],[118.138655,24.634056],[118.135149,24.626896],[118.127169,24.620248],[118.124728,24.611754],[118.120072,24.607848],[118.109574,24.594817],[118.108294,24.589324],[118.104071,24.583688]]}}]}