{"type":"FeatureCollection","generator":"metroOsmFetch (OpenStreetMap / Overpass, ODbL)","features":[{"type":"Feature","properties":{"route_company":"","route_id":"3","element_type":"way","color":"#008bd5","route_name":"徐州地鐵3號線：振興大道→銀山","osm_id":"6705867","railway":"subway","status":"open"},"geometry":{"type":"LineString","coordinates":[[117.274234,34.301235],[117.265132,34.301271],[117.243227,34.300599],[117.233685,34.294657],[117.223335,34.289999],[117.210367,34.284369],[117.206054,34.278926],[117.197552,34.268186],[117.199271,34.259143],[117.200054,34.251878],[117.195312,34.236299],[117.189943,34.226797],[117.188045,34.214496],[117.188246,34.204104],[117.184389,34.195444],[117.181474,34.186724],[117.168921,34.180001],[117.165932,34.173301],[117.157119,34.165173],[117.156046,34.159047],[117.154623,34.150536],[117.14614,34.142022]]}},{"type":"Feature","properties":{"route_company":"","route_id":"2","element_type":"way","color":"#ef8200","route_name":"徐州地鐵2號線：客運北站→新城區東","osm_id":"6705866","railway":"subway","status":"open"},"geometry":{"type":"LineString","coordinates":[[117.182511,34.332951],[117.186235,34.320185],[117.186273,34.30577],[117.185212,34.296771],[117.181712,34.286318],[117.179588,34.275719],[117.181677,34.265462],[117.185497,34.258839],[117.187247,34.25119],[117.187816,34.24371],[117.195312,34.236299],[117.20107,34.228485],[117.210677,34.222321],[117.220673,34.214406],[117.237631,34.212832],[117.259103,34.211564],[117.274728,34.208327],[117.286596,34.208759],[117.296611,34.208147],[117.310096,34.208435]]}},{"type":"Feature","properties":{"route_company":"徐州地鐵","route_id":"1","element_type":"way","color":"#a23337","route_name":"徐州地鐵1號線：路窩→徐州東站","osm_id":"6683150","railway":"subway","status":"open"},"geometry":{"type":"LineString","coordinates":[[117.095222,34.242663],[117.114957,34.25001],[117.136819,34.256624],[117.144804,34.259934],[117.15262,34.263118],[117.16213,34.264638],[117.173056,34.264927],[117.181677,34.265462],[117.190745,34.266644],[117.197552,34.268186],[117.20485,34.267702],[117.221192,34.263836],[117.228528,34.253392],[117.240349,34.253128],[117.254021,34.254213],[117.263713,34.255656],[117.284581,34.263666],[117.300582,34.268556]]}},{"type":"Feature","properties":{"route_company":"徐州地鐵","route_id":"6","element_type":"way","color":"#541f7f","route_name":"徐州地鐵6號線","osm_id":"12108850","railway":"subway","status":"open"},"geometry":{"type":"LineString","coordinates":[[117.300582,34.268556],[117.307296,34.259504],[117.299654,34.240256],[117.290722,34.229909],[117.282971,34.228714],[117.274652,34.221658],[117.274728,34.208327],[117.274701,34.191267],[117.271786,34.179825],[117.255732,34.179197],[117.243363,34.181859],[117.233625,34.184069],[117.207531,34.185438],[117.197905,34.186272],[117.181474,34.186724],[117.170559,34.186109]]}},{"type":"Feature","properties":{"osm_id":"13352643266","station_name":"振興大道","element_type":"node","station_id":"13352643266"},"geometry":{"type":"Point","coordinates":[117.274234,34.301235]}},{"type":"Feature","properties":{"osm_id":"13352643267","station_name":"蟠桃","element_type":"node","station_id":"13352643267"},"geometry":{"type":"Point","coordinates":[117.265132,34.301271]}},{"type":"Feature","properties":{"osm_id":"13352643270","station_name":"經貿學校","element_type":"node","station_id":"13352643270"},"geometry":{"type":"Point","coordinates":[117.243227,34.300599]}},{"type":"Feature","properties":{"osm_id":"13352643283","station_name":"金山橋","element_type":"node","station_id":"13352643283"},"geometry":{"type":"Point","coordinates":[117.233685,34.294657]}},{"type":"Feature","properties":{"osm_id":"13352643287","station_name":"楊莊","element_type":"node","station_id":"13352643287"},"geometry":{"type":"Point","coordinates":[117.223335,34.289999]}},{"type":"Feature","properties":{"osm_id":"13352642537","station_name":"下澱","element_type":"node","station_id":"13352642537"},"geometry":{"type":"Point","coordinates":[117.210367,34.284369]}},{"type":"Feature","properties":{"osm_id":"13352642406","station_name":"白雲山","element_type":"node","station_id":"13352642406"},"geometry":{"type":"Point","coordinates":[117.206054,34.278926]}},{"type":"Feature","properties":{"osm_id":"13352642429","station_name":"徐州火車站","element_type":"node","station_id":"13352642429"},"geometry":{"type":"Point","coordinates":[117.197552,34.268186]}},{"type":"Feature","properties":{"osm_id":"13352642431","station_name":"天橋","element_type":"node","station_id":"13352642431"},"geometry":{"type":"Point","coordinates":[117.199271,34.259143]}},{"type":"Feature","properties":{"osm_id":"13352642432","station_name":"和平大橋","element_type":"node","station_id":"13352642432"},"geometry":{"type":"Point","coordinates":[117.200054,34.251878]}},{"type":"Feature","properties":{"osm_id":"13352642461","station_name":"淮塔","element_type":"node","station_id":"13352642461"},"geometry":{"type":"Point","coordinates":[117.195312,34.236299]}},{"type":"Feature","properties":{"osm_id":"13352642473","station_name":"礦大文昌校區","element_type":"node","station_id":"13352642473"},"geometry":{"type":"Point","coordinates":[117.189943,34.226797]}},{"type":"Feature","properties":{"osm_id":"13352642481","station_name":"南三環路","element_type":"node","station_id":"13352642481"},"geometry":{"type":"Point","coordinates":[117.188045,34.214496]}},{"type":"Feature","properties":{"osm_id":"13352642488","station_name":"翟山","element_type":"node","station_id":"13352642488"},"geometry":{"type":"Point","coordinates":[117.188246,34.204104]}},{"type":"Feature","properties":{"osm_id":"13352642492","station_name":"師範大學","element_type":"node","station_id":"13352642492"},"geometry":{"type":"Point","coordinates":[117.184389,34.195444]}},{"type":"Feature","properties":{"osm_id":"13352642494","station_name":"玉泉河","element_type":"node","station_id":"13352642494"},"geometry":{"type":"Point","coordinates":[117.181474,34.186724]}},{"type":"Feature","properties":{"osm_id":"13352642514","station_name":"無名山公園","element_type":"node","station_id":"13352642514"},"geometry":{"type":"Point","coordinates":[117.168921,34.180001]}},{"type":"Feature","properties":{"osm_id":"13352642516","station_name":"浦江路","element_type":"node","station_id":"13352642516"},"geometry":{"type":"Point","coordinates":[117.165932,34.173301]}},{"type":"Feature","properties":{"osm_id":"13352642533","station_name":"焦山","element_type":"node","station_id":"13352642533"},"geometry":{"type":"Point","coordinates":[117.157119,34.165173]}},{"type":"Feature","properties":{"osm_id":"13352642535","station_name":"錢江路","element_type":"node","station_id":"13352642535"},"geometry":{"type":"Point","coordinates":[117.156046,34.159047]}},{"type":"Feature","properties":{"osm_id":"13352642540","station_name":"高新區南","element_type":"node","station_id":"13352642540"},"geometry":{"type":"Point","coordinates":[117.154623,34.150536]}},{"type":"Feature","properties":{"osm_id":"8269109615","station_name":"銀山","element_type":"node","station_id":"8269109615"},"geometry":{"type":"Point","coordinates":[117.14614,34.142022]}},{"type":"Feature","properties":{"osm_id":"13352642068","station_name":"客運北站","element_type":"node","station_id":"13352642068"},"geometry":{"type":"Point","coordinates":[117.182511,34.332951]}},{"type":"Feature","properties":{"osm_id":"13352641921","station_name":"李沃","element_type":"node","station_id":"13352641921"},"geometry":{"type":"Point","coordinates":[117.186235,34.320185]}},{"type":"Feature","properties":{"osm_id":"13352641933","station_name":"九里山","element_type":"node","station_id":"13352641933"},"geometry":{"type":"Point","coordinates":[117.186273,34.30577]}},{"type":"Feature","properties":{"osm_id":"13352641937","station_name":"奔騰大道","element_type":"node","station_id":"13352641937"},"geometry":{"type":"Point","coordinates":[117.185212,34.296771]}},{"type":"Feature","properties":{"osm_id":"13352641943","station_name":"九龍湖","element_type":"node","station_id":"13352641943"},"geometry":{"type":"Point","coordinates":[117.181712,34.286318]}},{"type":"Feature","properties":{"osm_id":"13352641952","station_name":"慶雲橋","element_type":"node","station_id":"13352641952"},"geometry":{"type":"Point","coordinates":[117.179588,34.275719]}},{"type":"Feature","properties":{"osm_id":"13352641960","station_name":"彭城廣場","element_type":"node","station_id":"13352641960"},"geometry":{"type":"Point","coordinates":[117.181677,34.265462]}},{"type":"Feature","properties":{"osm_id":"13352641975","station_name":"戶部山","element_type":"node","station_id":"13352641975"},"geometry":{"type":"Point","coordinates":[117.185497,34.258839]}},{"type":"Feature","properties":{"osm_id":"13352641981","station_name":"師大雲龍校區","element_type":"node","station_id":"13352641981"},"geometry":{"type":"Point","coordinates":[117.187247,34.25119]}},{"type":"Feature","properties":{"osm_id":"13352641983","station_name":"中心醫院","element_type":"node","station_id":"13352641983"},"geometry":{"type":"Point","coordinates":[117.187816,34.24371]}},{"type":"Feature","properties":{"osm_id":"13352642023","station_name":"科技城","element_type":"node","station_id":"13352642023"},"geometry":{"type":"Point","coordinates":[117.20107,34.228485]}},{"type":"Feature","properties":{"osm_id":"13352642035","station_name":"七里溝","element_type":"node","station_id":"13352642035"},"geometry":{"type":"Point","coordinates":[117.210677,34.222321]}},{"type":"Feature","properties":{"osm_id":"13352642043","station_name":"百果園","element_type":"node","station_id":"13352642043"},"geometry":{"type":"Point","coordinates":[117.220673,34.214406]}},{"type":"Feature","properties":{"osm_id":"13352642046","station_name":"拖龍山","element_type":"node","station_id":"13352642046"},"geometry":{"type":"Point","coordinates":[117.237631,34.212832]}},{"type":"Feature","properties":{"osm_id":"13352642051","station_name":"大龍湖","element_type":"node","station_id":"13352642051"},"geometry":{"type":"Point","coordinates":[117.259103,34.211564]}},{"type":"Feature","properties":{"osm_id":"13352642056","station_name":"市行政中心","element_type":"node","station_id":"13352642056"},"geometry":{"type":"Point","coordinates":[117.274728,34.208327]}},{"type":"Feature","properties":{"osm_id":"13352642058","station_name":"漢源大道","element_type":"node","station_id":"13352642058"},"geometry":{"type":"Point","coordinates":[117.286596,34.208759]}},{"type":"Feature","properties":{"osm_id":"13352642062","station_name":"新元大道","element_type":"node","station_id":"13352642062"},"geometry":{"type":"Point","coordinates":[117.296611,34.208147]}},{"type":"Feature","properties":{"osm_id":"13352642069","station_name":"新城區東","element_type":"node","station_id":"13352642069"},"geometry":{"type":"Point","coordinates":[117.310096,34.208435]}},{"type":"Feature","properties":{"osm_id":"13352643234","station_name":"路窩","element_type":"node","station_id":"13352643234"},"geometry":{"type":"Point","coordinates":[117.095222,34.242663]}},{"type":"Feature","properties":{"osm_id":"13352642907","station_name":"杏山子","element_type":"node","station_id":"13352642907"},"geometry":{"type":"Point","coordinates":[117.114957,34.25001]}},{"type":"Feature","properties":{"osm_id":"13352642922","station_name":"韓山","element_type":"node","station_id":"13352642922"},"geometry":{"type":"Point","coordinates":[117.136819,34.256624]}},{"type":"Feature","properties":{"osm_id":"13352642926","station_name":"工農路","element_type":"node","station_id":"13352642926"},"geometry":{"type":"Point","coordinates":[117.144804,34.259934]}},{"type":"Feature","properties":{"osm_id":"13352642933","station_name":"人民廣場","element_type":"node","station_id":"13352642933"},"geometry":{"type":"Point","coordinates":[117.15262,34.263118]}},{"type":"Feature","properties":{"osm_id":"13352642939","station_name":"蘇堤路","element_type":"node","station_id":"13352642939"},"geometry":{"type":"Point","coordinates":[117.16213,34.264638]}},{"type":"Feature","properties":{"osm_id":"13352642941","station_name":"徐醫附院","element_type":"node","station_id":"13352642941"},"geometry":{"type":"Point","coordinates":[117.173056,34.264927]}},{"type":"Feature","properties":{"osm_id":"13352642953","station_name":"民主北路","element_type":"node","station_id":"13352642953"},"geometry":{"type":"Point","coordinates":[117.190745,34.266644]}},{"type":"Feature","properties":{"osm_id":"13352642966","station_name":"子房山","element_type":"node","station_id":"13352642966"},"geometry":{"type":"Point","coordinates":[117.20485,34.267702]}},{"type":"Feature","properties":{"osm_id":"13352642982","station_name":"銅山路","element_type":"node","station_id":"13352642982"},"geometry":{"type":"Point","coordinates":[117.221192,34.263836]}},{"type":"Feature","properties":{"osm_id":"13352643003","station_name":"黃山壠","element_type":"node","station_id":"13352643003"},"geometry":{"type":"Point","coordinates":[117.228528,34.253392]}},{"type":"Feature","properties":{"osm_id":"13352643009","station_name":"慶豐路","element_type":"node","station_id":"13352643009"},"geometry":{"type":"Point","coordinates":[117.240349,34.253128]}},{"type":"Feature","properties":{"osm_id":"13352643013","station_name":"醫科大學","element_type":"node","station_id":"13352643013"},"geometry":{"type":"Point","coordinates":[117.254021,34.254213]}},{"type":"Feature","properties":{"osm_id":"13352643023","station_name":"喬家湖","element_type":"node","station_id":"13352643023"},"geometry":{"type":"Point","coordinates":[117.263713,34.255656]}},{"type":"Feature","properties":{"osm_id":"13352643042","station_name":"金龍湖","element_type":"node","station_id":"13352643042"},"geometry":{"type":"Point","coordinates":[117.284581,34.263666]}},{"type":"Feature","properties":{"osm_id":"13352643051","station_name":"徐州東站","element_type":"node","station_id":"13352643051"},"geometry":{"type":"Point","coordinates":[117.300582,34.268556]}},{"type":"Feature","properties":{"osm_id":"13352642591","station_name":"大湖","element_type":"node","station_id":"13352642591"},"geometry":{"type":"Point","coordinates":[117.307296,34.259504]}},{"type":"Feature","properties":{"osm_id":"13352642604","station_name":"趙武","element_type":"node","station_id":"13352642604"},"geometry":{"type":"Point","coordinates":[117.299654,34.240256]}},{"type":"Feature","properties":{"osm_id":"13352642617","station_name":"博覽中心","element_type":"node","station_id":"13352642617"},"geometry":{"type":"Point","coordinates":[117.290722,34.229909]}},{"type":"Feature","properties":{"osm_id":"13352642621","station_name":"奧體中心","element_type":"node","station_id":"13352642621"},"geometry":{"type":"Point","coordinates":[117.282971,34.228714]}},{"type":"Feature","properties":{"osm_id":"13352642635","station_name":"一中南","element_type":"node","station_id":"13352642635"},"geometry":{"type":"Point","coordinates":[117.274652,34.221658]}},{"type":"Feature","properties":{"osm_id":"13352642647","station_name":"麗水路","element_type":"node","station_id":"13352642647"},"geometry":{"type":"Point","coordinates":[117.274701,34.191267]}},{"type":"Feature","properties":{"osm_id":"13352642655","station_name":"迎賓大道","element_type":"node","station_id":"13352642655"},"geometry":{"type":"Point","coordinates":[117.271786,34.179825]}},{"type":"Feature","properties":{"osm_id":"13352642666","station_name":"市中醫院","element_type":"node","station_id":"13352642666"},"geometry":{"type":"Point","coordinates":[117.255732,34.179197]}},{"type":"Feature","properties":{"osm_id":"13352642672","station_name":"塘坊","element_type":"node","station_id":"13352642672"},"geometry":{"type":"Point","coordinates":[117.243363,34.181859]}},{"type":"Feature","properties":{"osm_id":"13352642678","station_name":"檢測園","element_type":"node","station_id":"13352642678"},"geometry":{"type":"Point","coordinates":[117.233625,34.184069]}},{"type":"Feature","properties":{"osm_id":"13352642693","station_name":"驛城","element_type":"node","station_id":"13352642693"},"geometry":{"type":"Point","coordinates":[117.207531,34.185438]}},{"type":"Feature","properties":{"osm_id":"13352642699","station_name":"高家營","element_type":"node","station_id":"13352642699"},"geometry":{"type":"Point","coordinates":[117.197905,34.186272]}},{"type":"Feature","properties":{"osm_id":"13352642703","station_name":"銅山中醫院","element_type":"node","station_id":"13352642703"},"geometry":{"type":"Point","coordinates":[117.170559,34.186109]}}]}