{"type":"FeatureCollection","generator":"metroOsmFetch (OpenStreetMap / Overpass, ODbL)","features":[{"type":"Feature","properties":{"route_company":"","route_id":"3","element_type":"way","color":"#008bd5","route_name":"徐州地鐵3號線：振興大道→銀山","osm_id":"6705867","railway":"subway","status":"open"},"geometry":{"type":"LineString","coordinates":[[117.146138,34.141997],[117.154658,34.150532],[117.156098,34.159041],[117.157216,34.165162],[117.166022,34.173294],[117.169002,34.179973],[117.181516,34.186678],[117.184456,34.195414],[117.188343,34.204093],[117.188139,34.214472],[117.190041,34.226795],[117.195365,34.236271],[117.200152,34.251886],[117.199368,34.259151],[117.197609,34.268226],[117.206151,34.278912],[117.210407,34.284305],[117.223366,34.289952],[117.233715,34.29461],[117.243235,34.300546],[117.265132,34.301217],[117.274234,34.301182]]}},{"type":"Feature","properties":{"route_company":"","route_id":"2","element_type":"way","color":"#ef8200","route_name":"徐州地鐵2號線：客運北站→新城區東","osm_id":"6705866","railway":"subway","status":"open"},"geometry":{"type":"LineString","coordinates":[[117.310069,34.208495],[117.296613,34.208217],[117.286597,34.208829],[117.274773,34.208361],[117.259124,34.21162],[117.237636,34.212902],[117.220684,34.214474],[117.21076,34.222331],[117.201075,34.228555],[117.195365,34.236271],[117.1879,34.243714],[117.187331,34.251194],[117.185577,34.258862],[117.181713,34.265524],[117.179673,34.275721],[117.181793,34.286299],[117.185296,34.296764],[117.186357,34.305767],[117.186319,34.320191],[117.182594,34.332963]]}},{"type":"Feature","properties":{"route_company":"徐州地鐵","route_id":"1","element_type":"way","color":"#a23337","route_name":"徐州地鐵1號線：路窩→徐州東站","osm_id":"6683150","railway":"subway","status":"open"},"geometry":{"type":"LineString","coordinates":[[117.095212,34.242679],[117.114935,34.250079],[117.136784,34.256688],[117.144774,34.259999],[117.15257,34.263174],[117.162129,34.264708],[117.173056,34.265],[117.181713,34.265524],[117.190691,34.266698],[117.197609,34.268226],[117.204849,34.267771],[117.221275,34.263848],[117.228534,34.253462],[117.240342,34.253198],[117.254012,34.254282],[117.263712,34.255734],[117.284561,34.263734],[117.300613,34.268601]]}},{"type":"Feature","properties":{"route_company":"徐州地鐵","route_id":"6","element_type":"way","color":"#541f7f","route_name":"徐州地鐵6號線","osm_id":"12108850","railway":"subway","status":"open"},"geometry":{"type":"LineString","coordinates":[[117.300613,34.268601],[117.307382,34.259523],[117.299681,34.240186],[117.290735,34.229836],[117.282987,34.228641],[117.274742,34.221657],[117.274773,34.208361],[117.274791,34.191268],[117.271869,34.179804],[117.255696,34.179129],[117.243363,34.181859],[117.233586,34.184015],[117.207507,34.185372],[117.197904,34.186212],[117.181516,34.186678],[117.170561,34.186035]]}},{"type":"Feature","properties":{"osm_id":"8269109615","station_name":"銀山","element_type":"node","station_id":"8269109615"},"geometry":{"type":"Point","coordinates":[117.146138,34.141997]}},{"type":"Feature","properties":{"osm_id":"13352642540","station_name":"高新區南","element_type":"node","station_id":"13352642540"},"geometry":{"type":"Point","coordinates":[117.154658,34.150532]}},{"type":"Feature","properties":{"osm_id":"13352642535","station_name":"錢江路","element_type":"node","station_id":"13352642535"},"geometry":{"type":"Point","coordinates":[117.156098,34.159041]}},{"type":"Feature","properties":{"osm_id":"13352642533","station_name":"焦山","element_type":"node","station_id":"13352642533"},"geometry":{"type":"Point","coordinates":[117.157216,34.165162]}},{"type":"Feature","properties":{"osm_id":"13352642516","station_name":"浦江路","element_type":"node","station_id":"13352642516"},"geometry":{"type":"Point","coordinates":[117.166022,34.173294]}},{"type":"Feature","properties":{"osm_id":"13352642514","station_name":"無名山公園","element_type":"node","station_id":"13352642514"},"geometry":{"type":"Point","coordinates":[117.169002,34.179973]}},{"type":"Feature","properties":{"osm_id":"13352642494","station_name":"玉泉河","element_type":"node","station_id":"13352642494"},"geometry":{"type":"Point","coordinates":[117.181516,34.186678]}},{"type":"Feature","properties":{"osm_id":"13352642492","station_name":"師範大學","element_type":"node","station_id":"13352642492"},"geometry":{"type":"Point","coordinates":[117.184456,34.195414]}},{"type":"Feature","properties":{"osm_id":"13352642488","station_name":"翟山","element_type":"node","station_id":"13352642488"},"geometry":{"type":"Point","coordinates":[117.188343,34.204093]}},{"type":"Feature","properties":{"osm_id":"13352642481","station_name":"南三環路","element_type":"node","station_id":"13352642481"},"geometry":{"type":"Point","coordinates":[117.188139,34.214472]}},{"type":"Feature","properties":{"osm_id":"13352642473","station_name":"礦大文昌校區","element_type":"node","station_id":"13352642473"},"geometry":{"type":"Point","coordinates":[117.190041,34.226795]}},{"type":"Feature","properties":{"osm_id":"13352642461","station_name":"淮塔","element_type":"node","station_id":"13352642461"},"geometry":{"type":"Point","coordinates":[117.195365,34.236271]}},{"type":"Feature","properties":{"osm_id":"13352642432","station_name":"和平大橋","element_type":"node","station_id":"13352642432"},"geometry":{"type":"Point","coordinates":[117.200152,34.251886]}},{"type":"Feature","properties":{"osm_id":"13352642431","station_name":"天橋","element_type":"node","station_id":"13352642431"},"geometry":{"type":"Point","coordinates":[117.199368,34.259151]}},{"type":"Feature","properties":{"osm_id":"13352642429","station_name":"徐州火車站","element_type":"node","station_id":"13352642429"},"geometry":{"type":"Point","coordinates":[117.197609,34.268226]}},{"type":"Feature","properties":{"osm_id":"13352642406","station_name":"白雲山","element_type":"node","station_id":"13352642406"},"geometry":{"type":"Point","coordinates":[117.206151,34.278912]}},{"type":"Feature","properties":{"osm_id":"13352642537","station_name":"下澱","element_type":"node","station_id":"13352642537"},"geometry":{"type":"Point","coordinates":[117.210407,34.284305]}},{"type":"Feature","properties":{"osm_id":"13352643287","station_name":"楊莊","element_type":"node","station_id":"13352643287"},"geometry":{"type":"Point","coordinates":[117.223366,34.289952]}},{"type":"Feature","properties":{"osm_id":"13352643283","station_name":"金山橋","element_type":"node","station_id":"13352643283"},"geometry":{"type":"Point","coordinates":[117.233715,34.29461]}},{"type":"Feature","properties":{"osm_id":"13352643270","station_name":"經貿學校","element_type":"node","station_id":"13352643270"},"geometry":{"type":"Point","coordinates":[117.243235,34.300546]}},{"type":"Feature","properties":{"osm_id":"13352643267","station_name":"蟠桃","element_type":"node","station_id":"13352643267"},"geometry":{"type":"Point","coordinates":[117.265132,34.301217]}},{"type":"Feature","properties":{"osm_id":"13352643266","station_name":"振興大道","element_type":"node","station_id":"13352643266"},"geometry":{"type":"Point","coordinates":[117.274234,34.301182]}},{"type":"Feature","properties":{"osm_id":"13352642069","station_name":"新城區東","element_type":"node","station_id":"13352642069"},"geometry":{"type":"Point","coordinates":[117.310069,34.208495]}},{"type":"Feature","properties":{"osm_id":"13352642062","station_name":"新元大道","element_type":"node","station_id":"13352642062"},"geometry":{"type":"Point","coordinates":[117.296613,34.208217]}},{"type":"Feature","properties":{"osm_id":"13352642058","station_name":"漢源大道","element_type":"node","station_id":"13352642058"},"geometry":{"type":"Point","coordinates":[117.286597,34.208829]}},{"type":"Feature","properties":{"osm_id":"13352642056","station_name":"市行政中心","element_type":"node","station_id":"13352642056"},"geometry":{"type":"Point","coordinates":[117.274773,34.208361]}},{"type":"Feature","properties":{"osm_id":"13352642051","station_name":"大龍湖","element_type":"node","station_id":"13352642051"},"geometry":{"type":"Point","coordinates":[117.259124,34.21162]}},{"type":"Feature","properties":{"osm_id":"13352642046","station_name":"拖龍山","element_type":"node","station_id":"13352642046"},"geometry":{"type":"Point","coordinates":[117.237636,34.212902]}},{"type":"Feature","properties":{"osm_id":"13352642043","station_name":"百果園","element_type":"node","station_id":"13352642043"},"geometry":{"type":"Point","coordinates":[117.220684,34.214474]}},{"type":"Feature","properties":{"osm_id":"13352642035","station_name":"七里溝","element_type":"node","station_id":"13352642035"},"geometry":{"type":"Point","coordinates":[117.21076,34.222331]}},{"type":"Feature","properties":{"osm_id":"13352642023","station_name":"科技城","element_type":"node","station_id":"13352642023"},"geometry":{"type":"Point","coordinates":[117.201075,34.228555]}},{"type":"Feature","properties":{"osm_id":"13352641983","station_name":"中心醫院","element_type":"node","station_id":"13352641983"},"geometry":{"type":"Point","coordinates":[117.1879,34.243714]}},{"type":"Feature","properties":{"osm_id":"13352641981","station_name":"師大雲龍校區","element_type":"node","station_id":"13352641981"},"geometry":{"type":"Point","coordinates":[117.187331,34.251194]}},{"type":"Feature","properties":{"osm_id":"13352641975","station_name":"戶部山","element_type":"node","station_id":"13352641975"},"geometry":{"type":"Point","coordinates":[117.185577,34.258862]}},{"type":"Feature","properties":{"osm_id":"13352641960","station_name":"彭城廣場","element_type":"node","station_id":"13352641960"},"geometry":{"type":"Point","coordinates":[117.181713,34.265524]}},{"type":"Feature","properties":{"osm_id":"13352641952","station_name":"慶雲橋","element_type":"node","station_id":"13352641952"},"geometry":{"type":"Point","coordinates":[117.179673,34.275721]}},{"type":"Feature","properties":{"osm_id":"13352641943","station_name":"九龍湖","element_type":"node","station_id":"13352641943"},"geometry":{"type":"Point","coordinates":[117.181793,34.286299]}},{"type":"Feature","properties":{"osm_id":"13352641937","station_name":"奔騰大道","element_type":"node","station_id":"13352641937"},"geometry":{"type":"Point","coordinates":[117.185296,34.296764]}},{"type":"Feature","properties":{"osm_id":"13352641933","station_name":"九里山","element_type":"node","station_id":"13352641933"},"geometry":{"type":"Point","coordinates":[117.186357,34.305767]}},{"type":"Feature","properties":{"osm_id":"13352641921","station_name":"李沃","element_type":"node","station_id":"13352641921"},"geometry":{"type":"Point","coordinates":[117.186319,34.320191]}},{"type":"Feature","properties":{"osm_id":"13352642068","station_name":"客運北站","element_type":"node","station_id":"13352642068"},"geometry":{"type":"Point","coordinates":[117.182594,34.332963]}},{"type":"Feature","properties":{"osm_id":"13352643234","station_name":"路窩","element_type":"node","station_id":"13352643234"},"geometry":{"type":"Point","coordinates":[117.095212,34.242679]}},{"type":"Feature","properties":{"osm_id":"13352642907","station_name":"杏山子","element_type":"node","station_id":"13352642907"},"geometry":{"type":"Point","coordinates":[117.114935,34.250079]}},{"type":"Feature","properties":{"osm_id":"13352642922","station_name":"韓山","element_type":"node","station_id":"13352642922"},"geometry":{"type":"Point","coordinates":[117.136784,34.256688]}},{"type":"Feature","properties":{"osm_id":"13352642926","station_name":"工農路","element_type":"node","station_id":"13352642926"},"geometry":{"type":"Point","coordinates":[117.144774,34.259999]}},{"type":"Feature","properties":{"osm_id":"13352642933","station_name":"人民廣場","element_type":"node","station_id":"13352642933"},"geometry":{"type":"Point","coordinates":[117.15257,34.263174]}},{"type":"Feature","properties":{"osm_id":"13352642939","station_name":"蘇堤路","element_type":"node","station_id":"13352642939"},"geometry":{"type":"Point","coordinates":[117.162129,34.264708]}},{"type":"Feature","properties":{"osm_id":"13352642941","station_name":"徐醫附院","element_type":"node","station_id":"13352642941"},"geometry":{"type":"Point","coordinates":[117.173056,34.265]}},{"type":"Feature","properties":{"osm_id":"13352642953","station_name":"民主北路","element_type":"node","station_id":"13352642953"},"geometry":{"type":"Point","coordinates":[117.190691,34.266698]}},{"type":"Feature","properties":{"osm_id":"13352642966","station_name":"子房山","element_type":"node","station_id":"13352642966"},"geometry":{"type":"Point","coordinates":[117.204849,34.267771]}},{"type":"Feature","properties":{"osm_id":"13352642982","station_name":"銅山路","element_type":"node","station_id":"13352642982"},"geometry":{"type":"Point","coordinates":[117.221275,34.263848]}},{"type":"Feature","properties":{"osm_id":"13352643003","station_name":"黃山壠","element_type":"node","station_id":"13352643003"},"geometry":{"type":"Point","coordinates":[117.228534,34.253462]}},{"type":"Feature","properties":{"osm_id":"13352643009","station_name":"慶豐路","element_type":"node","station_id":"13352643009"},"geometry":{"type":"Point","coordinates":[117.240342,34.253198]}},{"type":"Feature","properties":{"osm_id":"13352643013","station_name":"醫科大學","element_type":"node","station_id":"13352643013"},"geometry":{"type":"Point","coordinates":[117.254012,34.254282]}},{"type":"Feature","properties":{"osm_id":"13352643023","station_name":"喬家湖","element_type":"node","station_id":"13352643023"},"geometry":{"type":"Point","coordinates":[117.263712,34.255734]}},{"type":"Feature","properties":{"osm_id":"13352643042","station_name":"金龍湖","element_type":"node","station_id":"13352643042"},"geometry":{"type":"Point","coordinates":[117.284561,34.263734]}},{"type":"Feature","properties":{"osm_id":"13352643051","station_name":"徐州東站","element_type":"node","station_id":"13352643051"},"geometry":{"type":"Point","coordinates":[117.300613,34.268601]}},{"type":"Feature","properties":{"osm_id":"13352642591","station_name":"大湖","element_type":"node","station_id":"13352642591"},"geometry":{"type":"Point","coordinates":[117.307382,34.259523]}},{"type":"Feature","properties":{"osm_id":"13352642604","station_name":"趙武","element_type":"node","station_id":"13352642604"},"geometry":{"type":"Point","coordinates":[117.299681,34.240186]}},{"type":"Feature","properties":{"osm_id":"13352642617","station_name":"博覽中心","element_type":"node","station_id":"13352642617"},"geometry":{"type":"Point","coordinates":[117.290735,34.229836]}},{"type":"Feature","properties":{"osm_id":"13352642621","station_name":"奧體中心","element_type":"node","station_id":"13352642621"},"geometry":{"type":"Point","coordinates":[117.282987,34.228641]}},{"type":"Feature","properties":{"osm_id":"13352642635","station_name":"一中南","element_type":"node","station_id":"13352642635"},"geometry":{"type":"Point","coordinates":[117.274742,34.221657]}},{"type":"Feature","properties":{"osm_id":"13352642647","station_name":"麗水路","element_type":"node","station_id":"13352642647"},"geometry":{"type":"Point","coordinates":[117.274791,34.191268]}},{"type":"Feature","properties":{"osm_id":"13352642655","station_name":"迎賓大道","element_type":"node","station_id":"13352642655"},"geometry":{"type":"Point","coordinates":[117.271869,34.179804]}},{"type":"Feature","properties":{"osm_id":"13352642666","station_name":"市中醫院","element_type":"node","station_id":"13352642666"},"geometry":{"type":"Point","coordinates":[117.255696,34.179129]}},{"type":"Feature","properties":{"osm_id":"13352642672","station_name":"塘坊","element_type":"node","station_id":"13352642672"},"geometry":{"type":"Point","coordinates":[117.243363,34.181859]}},{"type":"Feature","properties":{"osm_id":"13352642678","station_name":"檢測園","element_type":"node","station_id":"13352642678"},"geometry":{"type":"Point","coordinates":[117.233586,34.184015]}},{"type":"Feature","properties":{"osm_id":"13352642693","station_name":"驛城","element_type":"node","station_id":"13352642693"},"geometry":{"type":"Point","coordinates":[117.207507,34.185372]}},{"type":"Feature","properties":{"osm_id":"13352642699","station_name":"高家營","element_type":"node","station_id":"13352642699"},"geometry":{"type":"Point","coordinates":[117.197904,34.186212]}},{"type":"Feature","properties":{"osm_id":"13352642703","station_name":"銅山中醫院","element_type":"node","station_id":"13352642703"},"geometry":{"type":"Point","coordinates":[117.170561,34.186035]}}]}