{"type":"FeatureCollection","generator":"metroOsmFetch (OpenStreetMap / Overpass, ODbL)","features":[{"type":"Feature","properties":{"route_company":"Rapid Rail","route_id":"KJ","element_type":"way","color":"#e0115f","route_name":"Laluan Kelana Jaya (Gombak → Putra Heights)","osm_id":"1895592","railway":"light_rail","status":"open"},"geometry":{"type":"LineString","coordinates":[[101.575578,2.996039],[101.572122,3.009701],[101.572046,3.023073],[101.581782,3.029734],[101.58811,3.035035],[101.590196,3.04784],[101.591999,3.054836],[101.586165,3.067125],[101.586162,3.075695],[101.587306,3.084889],[101.590437,3.095935],[101.586657,3.108415],[101.591333,3.111956],[101.604494,3.112454],[101.612718,3.110698],[101.623174,3.104698],[101.63776,3.104359],[101.645299,3.104064],[101.661708,3.114551],[101.668512,3.115471],[101.672932,3.118754],[101.679085,3.127547],[101.68721,3.133398],[101.695835,3.142459],[101.696586,3.149625],[101.701918,3.156875],[101.706793,3.161324],[101.71336,3.159237],[101.718575,3.160905],[101.724389,3.164467],[101.731875,3.165054],[101.735297,3.167318],[101.735893,3.175752],[101.737297,3.19914],[101.731885,3.205773],[101.721887,3.219544],[101.724361,3.231222]]}},{"type":"Feature","properties":{"route_company":"Rapid Rail","route_id":"12","element_type":"way","color":"#ffcc00","route_name":"Laluan Putrajaya (Putrajaya Sentral → Kwasa Damansara)","osm_id":"11313577","railway":"subway","status":"open"},"geometry":{"type":"LineString","coordinates":[[101.572397,3.176369],[101.578406,3.197161],[101.581747,3.206304],[101.592905,3.19976],[101.608408,3.19823],[101.62114,3.198565],[101.628605,3.207628],[101.640389,3.214526],[101.648173,3.211681],[101.655921,3.209547],[101.665585,3.207187],[101.675276,3.205838],[101.67964,3.195331],[101.681106,3.189415],[101.685202,3.178763],[101.695707,3.173756],[101.701732,3.174024],[101.710931,3.167867],[101.718575,3.160905],[101.718222,3.156804],[101.718423,3.150639],[101.719953,3.142884],[101.71593,3.127945],[101.694102,3.08959],[101.699544,3.077724],[101.708217,3.063889],[101.704935,3.041711],[101.707509,3.028476],[101.708944,3.021537],[101.705392,3.008508],[101.672593,2.989351],[101.660579,2.983111],[101.654866,2.96525],[101.657498,2.949225],[101.665664,2.938894],[101.671466,2.931388]]}},{"type":"Feature","properties":{"route_company":"Rapid Rail","route_id":"SP","element_type":"way","color":"#721422","route_name":"Laluan Sri Petaling (Sentul Timur → Putra Heights)","osm_id":"3374384","railway":"light_rail","status":"open"},"geometry":{"type":"LineString","coordinates":[[101.575578,2.996039],[101.596796,2.999885],[101.605277,3.007828],[101.612916,3.016941],[101.613529,3.022722],[101.616086,3.033249],[101.621037,3.048059],[101.644254,3.050464],[101.656528,3.054667],[101.662602,3.061932],[101.670638,3.062089],[101.687088,3.061522],[101.692207,3.058137],[101.708217,3.063889],[101.711274,3.076113],[101.712422,3.089631],[101.706306,3.102079],[101.714313,3.112752],[101.71593,3.127945],[101.712033,3.134935],[101.706109,3.140131],[101.70178,3.144545],[101.696586,3.149625],[101.694432,3.155552],[101.694112,3.161188],[101.69358,3.166562],[101.695707,3.173756],[101.695486,3.178577],[101.695303,3.185829]]}},{"type":"Feature","properties":{"route_company":"Rapid Rail","route_id":"9","element_type":"way","color":"#008000","route_name":"加影線（正向）","osm_id":"5690837","railway":"subway","status":"open"},"geometry":{"type":"LineString","coordinates":[[101.572397,3.176369],[101.564843,3.169871],[101.578693,3.150203],[101.593656,3.149652],[101.608736,3.155199],[101.618763,3.146705],[101.630788,3.13607],[101.642919,3.129236],[101.662339,3.143285],[101.66533,3.150953],[101.687368,3.137121],[101.695835,3.142459],[101.702239,3.142118],[101.711239,3.146289],[101.719953,3.142884],[101.723085,3.132366],[101.727068,3.123957],[101.72932,3.112644],[101.732271,3.104356],[101.740316,3.091386],[101.74514,3.079191],[101.763497,3.071602],[101.772978,3.062174],[101.775016,3.048375],[101.773368,3.041335],[101.771106,3.02644],[101.784103,3.000813],[101.786234,2.9941],[101.790321,2.983144]]}},{"type":"Feature","properties":{"route_company":"Rapid Rail","route_id":"AG","element_type":"way","color":"#fe8e10","route_name":"Laluan Ampang (Sentul Timur → Ampang)","osm_id":"4466552","railway":"light_rail","status":"open"},"geometry":{"type":"LineString","coordinates":[[101.760168,3.15051],[101.756603,3.140638],[101.753054,3.138481],[101.74668,3.134767],[101.738993,3.130251],[101.727068,3.123957],[101.717859,3.120951],[101.71593,3.127945],[101.712033,3.134935],[101.706109,3.140131],[101.70178,3.144545],[101.696586,3.149625],[101.694432,3.155552],[101.694112,3.161188],[101.69358,3.166562],[101.695707,3.173756],[101.695486,3.178577],[101.695303,3.185829]]}},{"type":"Feature","properties":{"route_company":"Rapid KL","route_id":"MR","element_type":"way","color":"#7dba00","route_name":"Laluan Monorel KL (KL Sentral → Titiwangsa)","osm_id":"2546881","railway":"monorail","status":"open"},"geometry":{"type":"LineString","coordinates":[[101.68721,3.133398],[101.690875,3.131447],[101.699189,3.138935],[101.706109,3.140131],[101.709449,3.142796],[101.711239,3.146289],[101.710432,3.150834],[101.704842,3.156145],[101.6989,3.159267],[101.698402,3.167393],[101.695707,3.173756]]}},{"type":"Feature","properties":{"osm_id":"7077855554","station_name":"布特拉高原","element_type":"node","station_id":"KJ37"},"geometry":{"type":"Point","coordinates":[101.575578,2.996039]}},{"type":"Feature","properties":{"osm_id":"9867488363","station_name":"梳邦阿南","element_type":"node","station_id":"KJ36"},"geometry":{"type":"Point","coordinates":[101.572122,3.009701]}},{"type":"Feature","properties":{"osm_id":"9867488362","station_name":"美佳園","element_type":"node","station_id":"KJ35"},"geometry":{"type":"Point","coordinates":[101.572046,3.023073]}},{"type":"Feature","properties":{"osm_id":"5397605057","station_name":"USJ21區","element_type":"node","station_id":"KJ34"},"geometry":{"type":"Point","coordinates":[101.581782,3.029734]}},{"type":"Feature","properties":{"osm_id":"5397605055","station_name":"宏願","element_type":"node","station_id":"KJ33"},"geometry":{"type":"Point","coordinates":[101.58811,3.035035]}},{"type":"Feature","properties":{"osm_id":"5304094204","station_name":"大班","element_type":"node","station_id":"KJ32"},"geometry":{"type":"Point","coordinates":[101.590196,3.04784]}},{"type":"Feature","properties":{"osm_id":"5397596021","station_name":"USJ7區","element_type":"node","station_id":"KJ31"},"geometry":{"type":"Point","coordinates":[101.591999,3.054836]}},{"type":"Feature","properties":{"osm_id":"4868073453","station_name":"SS18區","element_type":"node","station_id":"KJ30"},"geometry":{"type":"Point","coordinates":[101.586165,3.067125]}},{"type":"Feature","properties":{"osm_id":"9867488349","station_name":"SS15區","element_type":"node","station_id":"KJ29"},"geometry":{"type":"Point","coordinates":[101.586162,3.075695]}},{"type":"Feature","properties":{"osm_id":"5486069170","station_name":"梳邦再也（輕快鐵）","element_type":"node","station_id":"KJ28"},"geometry":{"type":"Point","coordinates":[101.587306,3.084889]}},{"type":"Feature","properties":{"osm_id":"9867488350","station_name":"格林瑪麗","element_type":"node","station_id":"KJ27"},"geometry":{"type":"Point","coordinates":[101.590437,3.095935]}},{"type":"Feature","properties":{"osm_id":"5397595511","station_name":"阿拉白沙羅","element_type":"node","station_id":"KJ26"},"geometry":{"type":"Point","coordinates":[101.586657,3.108415]}},{"type":"Feature","properties":{"osm_id":"5397595509","station_name":"梳邦谷","element_type":"node","station_id":"KJ25"},"geometry":{"type":"Point","coordinates":[101.591333,3.111956]}},{"type":"Feature","properties":{"osm_id":"9867488351","station_name":"格拉那再也","element_type":"node","station_id":"KJ24"},"geometry":{"type":"Point","coordinates":[101.604494,3.112454]}},{"type":"Feature","properties":{"osm_id":"1537849706","station_name":"幸福花園","element_type":"node","station_id":"KJ23"},"geometry":{"type":"Point","coordinates":[101.612718,3.110698]}},{"type":"Feature","properties":{"osm_id":"1537848372","station_name":"Taman Paramount","element_type":"node","station_id":"KJ22"},"geometry":{"type":"Point","coordinates":[101.623174,3.104698]}},{"type":"Feature","properties":{"osm_id":"9867488352","station_name":"亞洲再也","element_type":"node","station_id":"KJ21"},"geometry":{"type":"Point","coordinates":[101.63776,3.104359]}},{"type":"Feature","properties":{"osm_id":"1523290736","station_name":"Taman Jaya","element_type":"node","station_id":"KJ20"},"geometry":{"type":"Point","coordinates":[101.645299,3.104064]}},{"type":"Feature","properties":{"osm_id":"7148101757","station_name":"大學","element_type":"node","station_id":"KJ19"},"geometry":{"type":"Point","coordinates":[101.661708,3.114551]}},{"type":"Feature","properties":{"osm_id":"9857685871","station_name":"格靈芝","element_type":"node","station_id":"KJ18"},"geometry":{"type":"Point","coordinates":[101.668512,3.115471]}},{"type":"Feature","properties":{"osm_id":"7369242373","station_name":"阿都拉胡坤","element_type":"node","station_id":"KJ17"},"geometry":{"type":"Point","coordinates":[101.672932,3.118754]}},{"type":"Feature","properties":{"osm_id":"9857685906","station_name":"孟沙","element_type":"node","station_id":"KJ16"},"geometry":{"type":"Point","coordinates":[101.679085,3.127547]}},{"type":"Feature","properties":{"osm_id":"9857685923","station_name":"吉隆坡中央（格拉那再也線）","element_type":"node","station_id":"KJ15"},"geometry":{"type":"Point","coordinates":[101.68721,3.133398]}},{"type":"Feature","properties":{"osm_id":"5391744192","station_name":"中央藝術坊","element_type":"node","station_id":"KJ14"},"geometry":{"type":"Point","coordinates":[101.695835,3.142459]}},{"type":"Feature","properties":{"osm_id":"9857685952","station_name":"占美清真寺","element_type":"node","station_id":"KJ13"},"geometry":{"type":"Point","coordinates":[101.696586,3.149625]}},{"type":"Feature","properties":{"osm_id":"9857685964","station_name":"金馬律","element_type":"node","station_id":"KJ12"},"geometry":{"type":"Point","coordinates":[101.701918,3.156875]}},{"type":"Feature","properties":{"osm_id":"9857685973","station_name":"甘榜峇魯","element_type":"node","station_id":"KJ11"},"geometry":{"type":"Point","coordinates":[101.706793,3.161324]}},{"type":"Feature","properties":{"osm_id":"9857685983","station_name":"城中城","element_type":"node","station_id":"KJ10"},"geometry":{"type":"Point","coordinates":[101.71336,3.159237]}},{"type":"Feature","properties":{"osm_id":"9857685991","station_name":"安邦購物中心","element_type":"node","station_id":"KJ9"},"geometry":{"type":"Point","coordinates":[101.718575,3.160905]}},{"type":"Feature","properties":{"osm_id":"5603337888","station_name":"達邁","element_type":"node","station_id":"KJ8"},"geometry":{"type":"Point","coordinates":[101.724389,3.164467]}},{"type":"Feature","properties":{"osm_id":"9857686011","station_name":"拿督克拉末","element_type":"node","station_id":"KJ7"},"geometry":{"type":"Point","coordinates":[101.731875,3.165054]}},{"type":"Feature","properties":{"osm_id":"9857686023","station_name":"遮拉迪","element_type":"node","station_id":"KJ6"},"geometry":{"type":"Point","coordinates":[101.735297,3.167318]}},{"type":"Feature","properties":{"osm_id":"778106533","station_name":"斯迪亞旺沙","element_type":"node","station_id":"KJ5"},"geometry":{"type":"Point","coordinates":[101.735893,3.175752]}},{"type":"Feature","properties":{"osm_id":"9857686054","station_name":"南北花園","element_type":"node","station_id":"KJ4"},"geometry":{"type":"Point","coordinates":[101.737297,3.19914]}},{"type":"Feature","properties":{"osm_id":"243238173","station_name":"旺沙瑪珠","element_type":"node","station_id":"KJ3"},"geometry":{"type":"Point","coordinates":[101.731885,3.205773]}},{"type":"Feature","properties":{"osm_id":"8764046764","station_name":"美拉蒂花園","element_type":"node","station_id":"KJ2"},"geometry":{"type":"Point","coordinates":[101.721887,3.219544]}},{"type":"Feature","properties":{"osm_id":"243237659","station_name":"鵝嘜","element_type":"node","station_id":"KJ1"},"geometry":{"type":"Point","coordinates":[101.724361,3.231222]}},{"type":"Feature","properties":{"osm_id":"7723703874","station_name":"桂莎白沙羅","element_type":"node","station_id":"PY01"},"geometry":{"type":"Point","coordinates":[101.572397,3.176369]}},{"type":"Feature","properties":{"osm_id":"7722393676","station_name":"Kampung Selamat","element_type":"node","station_id":"PY03"},"geometry":{"type":"Point","coordinates":[101.578406,3.197161]}},{"type":"Feature","properties":{"osm_id":"5659819843","station_name":"雙溪毛糯（捷運）","element_type":"node","station_id":"PY04"},"geometry":{"type":"Point","coordinates":[101.581747,3.206304]}},{"type":"Feature","properties":{"osm_id":"9849592619","station_name":"白沙羅達邁","element_type":"node","station_id":"PY05"},"geometry":{"type":"Point","coordinates":[101.592905,3.19976]}},{"type":"Feature","properties":{"osm_id":"7723739292","station_name":"斯里白沙羅西","element_type":"node","station_id":"PY06"},"geometry":{"type":"Point","coordinates":[101.608408,3.19823]}},{"type":"Feature","properties":{"osm_id":"7723739344","station_name":"斯里白沙羅中心","element_type":"node","station_id":"PY07"},"geometry":{"type":"Point","coordinates":[101.62114,3.198565]}},{"type":"Feature","properties":{"osm_id":"9849953872","station_name":"斯里白沙羅東","element_type":"node","station_id":"PY08"},"geometry":{"type":"Point","coordinates":[101.628605,3.207628]}},{"type":"Feature","properties":{"osm_id":"9849953874","station_name":"美娜園","element_type":"node","station_id":"PY09"},"geometry":{"type":"Point","coordinates":[101.640389,3.214526]}},{"type":"Feature","properties":{"osm_id":"9833371330","station_name":"甲洞衛星市","element_type":"node","station_id":"PY10"},"geometry":{"type":"Point","coordinates":[101.648173,3.211681]}},{"type":"Feature","properties":{"osm_id":"9833287692","station_name":"增江","element_type":"node","station_id":"PY11"},"geometry":{"type":"Point","coordinates":[101.655921,3.209547]}},{"type":"Feature","properties":{"osm_id":"9833287690","station_name":"斯里德里瑪","element_type":"node","station_id":"PY12"},"geometry":{"type":"Point","coordinates":[101.665585,3.207187]}},{"type":"Feature","properties":{"osm_id":"9755011840","station_name":"甘榜峇都（捷運）","element_type":"node","station_id":"PY13"},"geometry":{"type":"Point","coordinates":[101.675276,3.205838]}},{"type":"Feature","properties":{"osm_id":"9755011836","station_name":"肯都門","element_type":"node","station_id":"PY14"},"geometry":{"type":"Point","coordinates":[101.67964,3.195331]}},{"type":"Feature","properties":{"osm_id":"9755011838","station_name":"怡保路","element_type":"node","station_id":"PY15"},"geometry":{"type":"Point","coordinates":[101.681106,3.189415]}},{"type":"Feature","properties":{"osm_id":"10211729839","station_name":"冼都西","element_type":"node","station_id":"PY16"},"geometry":{"type":"Point","coordinates":[101.685202,3.178763]}},{"type":"Feature","properties":{"osm_id":"10211729841","station_name":"蒂蒂旺沙","element_type":"node","station_id":"PY17"},"geometry":{"type":"Point","coordinates":[101.695707,3.173756]}},{"type":"Feature","properties":{"osm_id":"10211729843","station_name":"吉隆坡醫院","element_type":"node","station_id":"PY18"},"geometry":{"type":"Point","coordinates":[101.701732,3.174024]}},{"type":"Feature","properties":{"osm_id":"10211729845","station_name":"拉惹烏達","element_type":"node","station_id":"PY19"},"geometry":{"type":"Point","coordinates":[101.710931,3.167867]}},{"type":"Feature","properties":{"osm_id":"7724226582","station_name":"城中城道","element_type":"node","station_id":"PY21"},"geometry":{"type":"Point","coordinates":[101.718222,3.156804]}},{"type":"Feature","properties":{"osm_id":"10211729850","station_name":"康萊","element_type":"node","station_id":"PY22"},"geometry":{"type":"Point","coordinates":[101.718423,3.150639]}},{"type":"Feature","properties":{"osm_id":"10132470682","station_name":"敦拉薩國際貿易中心","element_type":"node","station_id":"PY23"},"geometry":{"type":"Point","coordinates":[101.719953,3.142884]}},{"type":"Feature","properties":{"osm_id":"10211729852","station_name":"陳秀連","element_type":"node","station_id":"PY24"},"geometry":{"type":"Point","coordinates":[101.71593,3.127945]}},{"type":"Feature","properties":{"osm_id":"10211729854","station_name":"古仔","element_type":"node","station_id":"PY27"},"geometry":{"type":"Point","coordinates":[101.694102,3.08959]}},{"type":"Feature","properties":{"osm_id":"10211729856","station_name":"金龍園","element_type":"node","station_id":"PY28"},"geometry":{"type":"Point","coordinates":[101.699544,3.077724]}},{"type":"Feature","properties":{"osm_id":"10211729858","station_name":"新街場","element_type":"node","station_id":"PY29"},"geometry":{"type":"Point","coordinates":[101.708217,3.063889]}},{"type":"Feature","properties":{"osm_id":"10211729860","station_name":"沙登拉也北","element_type":"node","station_id":"PY31"},"geometry":{"type":"Point","coordinates":[101.704935,3.041711]}},{"type":"Feature","properties":{"osm_id":"7725136738","station_name":"沙登拉也南","element_type":"node","station_id":"PY32"},"geometry":{"type":"Point","coordinates":[101.707509,3.028476]}},{"type":"Feature","properties":{"osm_id":"10211729870","station_name":"沙登再也","element_type":"node","station_id":"PY33"},"geometry":{"type":"Point","coordinates":[101.708944,3.021537]}},{"type":"Feature","properties":{"osm_id":"10211729872","station_name":"博特拉大學","element_type":"node","station_id":"PY34"},"geometry":{"type":"Point","coordinates":[101.705392,3.008508]}},{"type":"Feature","properties":{"osm_id":"10211729874","station_name":"怡觀園","element_type":"node","station_id":"PY36"},"geometry":{"type":"Point","coordinates":[101.672593,2.989351]}},{"type":"Feature","properties":{"osm_id":"10211729876","station_name":"布特拉柏邁路","element_type":"node","station_id":"PY37"},"geometry":{"type":"Point","coordinates":[101.660579,2.983111]}},{"type":"Feature","properties":{"osm_id":"10211729878","station_name":"16嶺","element_type":"node","station_id":"PY38"},"geometry":{"type":"Point","coordinates":[101.654866,2.96525]}},{"type":"Feature","properties":{"osm_id":"10211729880","station_name":"賽城北","element_type":"node","station_id":"PY39"},"geometry":{"type":"Point","coordinates":[101.657498,2.949225]}},{"type":"Feature","properties":{"osm_id":"7932664086","station_name":"賽城市中心","element_type":"node","station_id":"PY40"},"geometry":{"type":"Point","coordinates":[101.665664,2.938894]}},{"type":"Feature","properties":{"osm_id":"10211729882","station_name":"布城中央車站","element_type":"node","station_id":"PY41"},"geometry":{"type":"Point","coordinates":[101.671466,2.931388]}},{"type":"Feature","properties":{"osm_id":"8944223620","station_name":"蒲種柏麗瑪","element_type":"node","station_id":"SP29"},"geometry":{"type":"Point","coordinates":[101.596796,2.999885]}},{"type":"Feature","properties":{"osm_id":"7077855537","station_name":"蒲種柏蘭嶺","element_type":"node","station_id":"SP28"},"geometry":{"type":"Point","coordinates":[101.605277,3.007828]}},{"type":"Feature","properties":{"osm_id":"8944223678","station_name":"公主城","element_type":"node","station_id":"SP27"},"geometry":{"type":"Point","coordinates":[101.612916,3.016941]}},{"type":"Feature","properties":{"osm_id":"8944223705","station_name":"蒲種工業區","element_type":"node","station_id":"SP26"},"geometry":{"type":"Point","coordinates":[101.613529,3.022722]}},{"type":"Feature","properties":{"osm_id":"8944394756","station_name":"蒲種市中心","element_type":"node","station_id":"SP25"},"geometry":{"type":"Point","coordinates":[101.616086,3.033249]}},{"type":"Feature","properties":{"osm_id":"8944394786","station_name":"IOI蒲種再也","element_type":"node","station_id":"SP24"},"geometry":{"type":"Point","coordinates":[101.621037,3.048059]}},{"type":"Feature","properties":{"osm_id":"7077803194","station_name":"金鑾第五區","element_type":"node","station_id":"SP22"},"geometry":{"type":"Point","coordinates":[101.644254,3.050464]}},{"type":"Feature","properties":{"osm_id":"9867662584","station_name":"阿南蘇特拉","element_type":"node","station_id":"SP21"},"geometry":{"type":"Point","coordinates":[101.656528,3.054667]}},{"type":"Feature","properties":{"osm_id":"8945536463","station_name":"親善","element_type":"node","station_id":"SP20"},"geometry":{"type":"Point","coordinates":[101.662602,3.061932]}},{"type":"Feature","properties":{"osm_id":"8945524214","station_name":"Awan Besar","element_type":"node","station_id":"SP19"},"geometry":{"type":"Point","coordinates":[101.670638,3.062089]}},{"type":"Feature","properties":{"osm_id":"8950363112","station_name":"大城堡","element_type":"node","station_id":"SP18"},"geometry":{"type":"Point","coordinates":[101.687088,3.061522]}},{"type":"Feature","properties":{"osm_id":"9867662585","station_name":"武吉加里爾","element_type":"node","station_id":"SP17"},"geometry":{"type":"Point","coordinates":[101.692207,3.058137]}},{"type":"Feature","properties":{"osm_id":"4036400190","station_name":"南湖鎮","element_type":"node","station_id":"SP15"},"geometry":{"type":"Point","coordinates":[101.711274,3.076113]}},{"type":"Feature","properties":{"osm_id":"4036400191","station_name":"敦拉薩鎮","element_type":"node","station_id":"SP14"},"geometry":{"type":"Point","coordinates":[101.712422,3.089631]}},{"type":"Feature","properties":{"osm_id":"4036400193","station_name":"沙叻秀","element_type":"node","station_id":"SP13"},"geometry":{"type":"Point","coordinates":[101.706306,3.102079]}},{"type":"Feature","properties":{"osm_id":"4036400201","station_name":"蕉賴","element_type":"node","station_id":"SP12"},"geometry":{"type":"Point","coordinates":[101.714313,3.112752]}},{"type":"Feature","properties":{"osm_id":"2575356400","station_name":"半山芭","element_type":"node","station_id":"AG10;SP10"},"geometry":{"type":"Point","coordinates":[101.712033,3.134935]}},{"type":"Feature","properties":{"osm_id":"28930701","station_name":"漢都亞","element_type":"node","station_id":"AG9;SP9"},"geometry":{"type":"Point","coordinates":[101.706109,3.140131]}},{"type":"Feature","properties":{"osm_id":"5391735621","station_name":"人民廣場","element_type":"node","station_id":"AG8;SP8"},"geometry":{"type":"Point","coordinates":[101.70178,3.144545]}},{"type":"Feature","properties":{"osm_id":"243234879","station_name":"市政局","element_type":"node","station_id":"AG6;SP6"},"geometry":{"type":"Point","coordinates":[101.694432,3.155552]}},{"type":"Feature","properties":{"osm_id":"243234896","station_name":"蘇丹依斯邁","element_type":"node","station_id":"AG5;SP5"},"geometry":{"type":"Point","coordinates":[101.694112,3.161188]}},{"type":"Feature","properties":{"osm_id":"5391827787","station_name":"布特拉世界貿易中心","element_type":"node","station_id":"AG4;SP4"},"geometry":{"type":"Point","coordinates":[101.69358,3.166562]}},{"type":"Feature","properties":{"osm_id":"5391827789","station_name":"冼都","element_type":"node","station_id":"AG2;SP2"},"geometry":{"type":"Point","coordinates":[101.695486,3.178577]}},{"type":"Feature","properties":{"osm_id":"5391827790","station_name":"冼都東","element_type":"node","station_id":"AG1;SP1"},"geometry":{"type":"Point","coordinates":[101.695303,3.185829]}},{"type":"Feature","properties":{"osm_id":"7723703872","station_name":"桂莎中央","element_type":"node","station_id":"KG05"},"geometry":{"type":"Point","coordinates":[101.564843,3.169871]}},{"type":"Feature","properties":{"osm_id":"7727312789","station_name":"哥打白沙羅","element_type":"node","station_id":"KG06"},"geometry":{"type":"Point","coordinates":[101.578693,3.150203]}},{"type":"Feature","properties":{"osm_id":"7727312788","station_name":"蘇麗雅","element_type":"node","station_id":"KG07"},"geometry":{"type":"Point","coordinates":[101.593656,3.149652]}},{"type":"Feature","properties":{"osm_id":"7727312842","station_name":"Mutiara Damansara","element_type":"node","station_id":"KG08"},"geometry":{"type":"Point","coordinates":[101.608736,3.155199]}},{"type":"Feature","properties":{"osm_id":"7727312862","station_name":"萬達鎮","element_type":"node","station_id":"KG09"},"geometry":{"type":"Point","coordinates":[101.618763,3.146705]}},{"type":"Feature","properties":{"osm_id":"7727312912","station_name":"敦依斯邁花園","element_type":"node","station_id":"KG10"},"geometry":{"type":"Point","coordinates":[101.630788,3.13607]}},{"type":"Feature","properties":{"osm_id":"4560707931","station_name":"菲利歐白沙羅","element_type":"node","station_id":"KG12"},"geometry":{"type":"Point","coordinates":[101.642919,3.129236]}},{"type":"Feature","properties":{"osm_id":"4560707932","station_name":"白沙羅市中心","element_type":"node","station_id":"KG13"},"geometry":{"type":"Point","coordinates":[101.662339,3.143285]}},{"type":"Feature","properties":{"osm_id":"4555795928","station_name":"士曼丹","element_type":"node","station_id":"KG14"},"geometry":{"type":"Point","coordinates":[101.66533,3.150953]}},{"type":"Feature","properties":{"osm_id":"4658799653","station_name":"國家博物館","element_type":"node","station_id":"KG15"},"geometry":{"type":"Point","coordinates":[101.687368,3.137121]}},{"type":"Feature","properties":{"osm_id":"4650900225","station_name":"默迪卡","element_type":"node","station_id":"KG17"},"geometry":{"type":"Point","coordinates":[101.702239,3.142118]}},{"type":"Feature","properties":{"osm_id":"7737907035","station_name":"武吉免登（捷運）","element_type":"node","station_id":"KG18A"},"geometry":{"type":"Point","coordinates":[101.711239,3.146289]}},{"type":"Feature","properties":{"osm_id":"7737907037","station_name":"葛京","element_type":"node","station_id":"KG21"},"geometry":{"type":"Point","coordinates":[101.723085,3.132366]}},{"type":"Feature","properties":{"osm_id":"7737907040","station_name":"馬魯裡","element_type":"node","station_id":"KG22"},"geometry":{"type":"Point","coordinates":[101.727068,3.123957]}},{"type":"Feature","properties":{"osm_id":"7737907093","station_name":"第一花園","element_type":"node","station_id":"KG23"},"geometry":{"type":"Point","coordinates":[101.72932,3.112644]}},{"type":"Feature","properties":{"osm_id":"3857515109","station_name":"美達花園","element_type":"node","station_id":"SBK24"},"geometry":{"type":"Point","coordinates":[101.732271,3.104356]}},{"type":"Feature","properties":{"osm_id":"5469085479","station_name":"珍珠花園","element_type":"node","station_id":"KG25"},"geometry":{"type":"Point","coordinates":[101.740316,3.091386]}},{"type":"Feature","properties":{"osm_id":"5469085480","station_name":"康樂花園","element_type":"node","station_id":"KG26"},"geometry":{"type":"Point","coordinates":[101.74514,3.079191]}},{"type":"Feature","properties":{"osm_id":"5469085481","station_name":"山力花園","element_type":"node","station_id":"SBK27"},"geometry":{"type":"Point","coordinates":[101.763497,3.071602]}},{"type":"Feature","properties":{"osm_id":"5469085482","station_name":"斯里拉也","element_type":"node","station_id":"SBK28"},"geometry":{"type":"Point","coordinates":[101.772978,3.062174]}},{"type":"Feature","properties":{"osm_id":"5469085496","station_name":"敦胡先翁鎮","element_type":"node","station_id":"SBK29"},"geometry":{"type":"Point","coordinates":[101.775016,3.048375]}},{"type":"Feature","properties":{"osm_id":"5469085497","station_name":"蕉賴十一哩","element_type":"node","station_id":"SBK30"},"geometry":{"type":"Point","coordinates":[101.773368,3.041335]}},{"type":"Feature","properties":{"osm_id":"5397463176","station_name":"武吉杜蓊","element_type":"node","station_id":"SBK31"},"geometry":{"type":"Point","coordinates":[101.771106,3.02644]}},{"type":"Feature","properties":{"osm_id":"7738029302","station_name":"雙溪遮內","element_type":"node","station_id":"SBK33"},"geometry":{"type":"Point","coordinates":[101.784103,3.000813]}},{"type":"Feature","properties":{"osm_id":"7738029347","station_name":"加影體育場","element_type":"node","station_id":"SBK34"},"geometry":{"type":"Point","coordinates":[101.786234,2.9941]}},{"type":"Feature","properties":{"osm_id":"5249698028","station_name":"加影（捷運）","element_type":"node","station_id":"KG35"},"geometry":{"type":"Point","coordinates":[101.790321,2.983144]}},{"type":"Feature","properties":{"osm_id":"9704514070","station_name":"安邦","element_type":"node","station_id":"AG18"},"geometry":{"type":"Point","coordinates":[101.760168,3.15051]}},{"type":"Feature","properties":{"osm_id":"5395329330","station_name":"麗陽","element_type":"node","station_id":"AG17"},"geometry":{"type":"Point","coordinates":[101.756603,3.140638]}},{"type":"Feature","properties":{"osm_id":"5395329329","station_name":"千百家","element_type":"node","station_id":"AG16"},"geometry":{"type":"Point","coordinates":[101.753054,3.138481]}},{"type":"Feature","properties":{"osm_id":"3001786779","station_name":"班登英達","element_type":"node","station_id":"AG15"},"geometry":{"type":"Point","coordinates":[101.74668,3.134767]}},{"type":"Feature","properties":{"osm_id":"3001786749","station_name":"班登再也","element_type":"node","station_id":"AG14"},"geometry":{"type":"Point","coordinates":[101.738993,3.130251]}},{"type":"Feature","properties":{"osm_id":"5392245921","station_name":"美和家","element_type":"node","station_id":"AG12"},"geometry":{"type":"Point","coordinates":[101.717859,3.120951]}},{"type":"Feature","properties":{"osm_id":"1993254082","station_name":"敦善班丹","element_type":"node","station_id":"MR2"},"geometry":{"type":"Point","coordinates":[101.690875,3.131447]}},{"type":"Feature","properties":{"osm_id":"264907051","station_name":"馬哈拉惹里拉","element_type":"node","station_id":"MR3"},"geometry":{"type":"Point","coordinates":[101.699189,3.138935]}},{"type":"Feature","properties":{"osm_id":"264907059","station_name":"燕美","element_type":"node","station_id":"MR5"},"geometry":{"type":"Point","coordinates":[101.709449,3.142796]}},{"type":"Feature","properties":{"osm_id":"5506071117","station_name":"拉惹朱蘭","element_type":"node","station_id":"MR7"},"geometry":{"type":"Point","coordinates":[101.710432,3.150834]}},{"type":"Feature","properties":{"osm_id":"5506071116","station_name":"咖啡山","element_type":"node","station_id":"MR8"},"geometry":{"type":"Point","coordinates":[101.704842,3.156145]}},{"type":"Feature","properties":{"osm_id":"5505950907","station_name":"美丹端姑","element_type":"node","station_id":"MR9"},"geometry":{"type":"Point","coordinates":[101.6989,3.159267]}},{"type":"Feature","properties":{"osm_id":"3478428865","station_name":"秋傑","element_type":"node","station_id":"MR10"},"geometry":{"type":"Point","coordinates":[101.698402,3.167393]}}]}