{"type":"FeatureCollection","generator":"metroOsmFetch (OpenStreetMap / Overpass, ODbL)","features":[{"type":"Feature","properties":{"route_company":"Rapid Rail","route_id":"KJ","element_type":"way","color":"#e0115f","route_name":"Laluan Kelana Jaya (Gombak → Putra Heights)","osm_id":"1895592","railway":"light_rail","status":"open"},"geometry":{"type":"LineString","coordinates":[[101.724361,3.231222],[101.721897,3.219552],[101.731918,3.205832],[101.73731,3.199145],[101.735947,3.175735],[101.735325,3.167317],[101.731874,3.165034],[101.724367,3.164407],[101.718575,3.160873],[101.713361,3.159163],[101.706799,3.16127],[101.701965,3.156852],[101.696603,3.149614],[101.695867,3.142503],[101.687216,3.13339],[101.679096,3.127536],[101.672946,3.118749],[101.668511,3.115454],[101.661712,3.114486],[101.645296,3.104043],[101.637763,3.104301],[101.623164,3.104684],[101.612712,3.110679],[101.604481,3.112394],[101.591321,3.111935],[101.586715,3.108388],[101.590494,3.095957],[101.587295,3.084834],[101.586218,3.075692],[101.58623,3.067125],[101.592056,3.054836],[101.590211,3.04782],[101.588138,3.035035],[101.581795,3.029713],[101.572102,3.023071],[101.57219,3.009704],[101.575579,2.996039]]}},{"type":"Feature","properties":{"route_company":"Rapid Rail","route_id":"12","element_type":"way","color":"#ffcc00","route_name":"Laluan Putrajaya (Putrajaya Sentral → Kwasa Damansara)","osm_id":"11313577","railway":"subway","status":"open"},"geometry":{"type":"LineString","coordinates":[[101.671383,2.931401],[101.665598,2.938853],[101.657428,2.949209],[101.654797,2.965251],[101.660546,2.983175],[101.672542,2.989405],[101.705392,3.008577],[101.708882,3.021537],[101.707449,3.028431],[101.704862,3.041722],[101.708218,3.063888],[101.699483,3.077701],[101.694011,3.089595],[101.715936,3.127956],[101.719953,3.142885],[101.718367,3.150617],[101.71822,3.156804],[101.718575,3.160873],[101.710932,3.167797],[101.701702,3.173893],[101.695722,3.173741],[101.685171,3.178712],[101.68104,3.189393],[101.679618,3.195329],[101.675215,3.205787],[101.665559,3.207121],[101.655924,3.209476],[101.648137,3.211617],[101.640397,3.214452],[101.628675,3.20759],[101.621145,3.198542],[101.608413,3.198161],[101.592886,3.199691],[101.581723,3.206229],[101.578433,3.197154],[101.572398,3.176367]]}},{"type":"Feature","properties":{"route_company":"Rapid Rail","route_id":"SP","element_type":"way","color":"#721422","route_name":"Laluan Sri Petaling (Sentul Timur → Putra Heights)","osm_id":"3374384","railway":"light_rail","status":"open"},"geometry":{"type":"LineString","coordinates":[[101.695327,3.185832],[101.695506,3.178586],[101.695722,3.173741],[101.693594,3.166563],[101.694127,3.161185],[101.694446,3.155547],[101.696603,3.149614],[101.701792,3.144554],[101.706113,3.140145],[101.712051,3.134948],[101.715936,3.127956],[101.714325,3.112736],[101.706321,3.102073],[101.712435,3.089635],[101.711311,3.076067],[101.708218,3.063888],[101.692198,3.058126],[101.687088,3.061499],[101.670652,3.062014],[101.662603,3.061916],[101.656535,3.054649],[101.644261,3.05045],[101.621057,3.048049],[101.616114,3.033236],[101.613548,3.022715],[101.612995,3.016928],[101.605277,3.007812],[101.596817,2.999879],[101.575579,2.996039]]}},{"type":"Feature","properties":{"route_company":"Rapid Rail","route_id":"9","element_type":"way","color":"#008000","route_name":"Laluan Kajang (Kwasa Damansara → Kajang)","osm_id":"5690837","railway":"subway","status":"open"},"geometry":{"type":"LineString","coordinates":[[101.572398,3.176367],[101.564866,3.169861],[101.578696,3.150229],[101.593657,3.14967],[101.608735,3.155212],[101.618785,3.146714],[101.630797,3.13608],[101.642954,3.129332],[101.662327,3.143305],[101.665307,3.150983],[101.687359,3.137188],[101.695867,3.142503],[101.702269,3.142176],[101.711232,3.146288],[101.719953,3.142885],[101.723151,3.132384],[101.727084,3.123981],[101.729343,3.112649],[101.732294,3.104369],[101.740345,3.091392],[101.745144,3.079214],[101.763549,3.071664],[101.772993,3.06219],[101.77504,3.048374],[101.773401,3.041322],[101.771128,3.026453],[101.784129,3.000821],[101.786258,2.994095],[101.79039,2.983146]]}},{"type":"Feature","properties":{"route_company":"Rapid Rail","route_id":"AG","element_type":"way","color":"#fe8e10","route_name":"Laluan Ampang (Sentul Timur → Ampang)","osm_id":"4466552","railway":"light_rail","status":"open"},"geometry":{"type":"LineString","coordinates":[[101.695327,3.185832],[101.695506,3.178586],[101.695722,3.173741],[101.693594,3.166563],[101.694127,3.161185],[101.694446,3.155547],[101.696603,3.149614],[101.701792,3.144554],[101.706113,3.140145],[101.712051,3.134948],[101.715936,3.127956],[101.717869,3.120962],[101.727084,3.123981],[101.738981,3.130269],[101.746672,3.134785],[101.753044,3.138496],[101.756598,3.140658],[101.760168,3.15051]]}},{"type":"Feature","properties":{"route_company":"Rapid KL","route_id":"MR","element_type":"way","color":"#7dba00","route_name":"Laluan Monorel KL (KL Sentral → Titiwangsa)","osm_id":"2546881","railway":"monorail","status":"open"},"geometry":{"type":"LineString","coordinates":[[101.687216,3.13339],[101.690862,3.131452],[101.699203,3.138948],[101.706113,3.140145],[101.709447,3.142812],[101.711232,3.146288],[101.710416,3.150831],[101.704831,3.15614],[101.698899,3.159253],[101.698385,3.167394],[101.695722,3.173741]]}},{"type":"Feature","properties":{"osm_id":"243237659","station_name":"Gombak","element_type":"node","station_id":"KJ1"},"geometry":{"type":"Point","coordinates":[101.724361,3.231222]}},{"type":"Feature","properties":{"osm_id":"8764046764","station_name":"Taman Melati","element_type":"node","station_id":"KJ2"},"geometry":{"type":"Point","coordinates":[101.721897,3.219552]}},{"type":"Feature","properties":{"osm_id":"243238173","station_name":"Wangsa Maju","element_type":"node","station_id":"KJ3"},"geometry":{"type":"Point","coordinates":[101.731918,3.205832]}},{"type":"Feature","properties":{"osm_id":"9857686054","station_name":"Sri Rampai","element_type":"node","station_id":"KJ4"},"geometry":{"type":"Point","coordinates":[101.73731,3.199145]}},{"type":"Feature","properties":{"osm_id":"778106533","station_name":"Setiawangsa","element_type":"node","station_id":"KJ5"},"geometry":{"type":"Point","coordinates":[101.735947,3.175735]}},{"type":"Feature","properties":{"osm_id":"9857686023","station_name":"Jelatek","element_type":"node","station_id":"KJ6"},"geometry":{"type":"Point","coordinates":[101.735325,3.167317]}},{"type":"Feature","properties":{"osm_id":"9857686011","station_name":"Dato' Keramat","element_type":"node","station_id":"KJ7"},"geometry":{"type":"Point","coordinates":[101.731874,3.165034]}},{"type":"Feature","properties":{"osm_id":"5603337888","station_name":"Damai","element_type":"node","station_id":"KJ8"},"geometry":{"type":"Point","coordinates":[101.724367,3.164407]}},{"type":"Feature","properties":{"osm_id":"9857685991","station_name":"Ampang Park","element_type":"node","station_id":"KJ9"},"geometry":{"type":"Point","coordinates":[101.718575,3.160873]}},{"type":"Feature","properties":{"osm_id":"9857685983","station_name":"KLCC","element_type":"node","station_id":"KJ10"},"geometry":{"type":"Point","coordinates":[101.713361,3.159163]}},{"type":"Feature","properties":{"osm_id":"9857685973","station_name":"Kampung Baru","element_type":"node","station_id":"KJ11"},"geometry":{"type":"Point","coordinates":[101.706799,3.16127]}},{"type":"Feature","properties":{"osm_id":"9857685964","station_name":"Dang Wangi","element_type":"node","station_id":"KJ12"},"geometry":{"type":"Point","coordinates":[101.701965,3.156852]}},{"type":"Feature","properties":{"osm_id":"9857685952","station_name":"Masjid Jamek (AG SP)","element_type":"node","station_id":"KJ13"},"geometry":{"type":"Point","coordinates":[101.696603,3.149614]}},{"type":"Feature","properties":{"osm_id":"5391744192","station_name":"Pasar Seni","element_type":"node","station_id":"KJ14"},"geometry":{"type":"Point","coordinates":[101.695867,3.142503]}},{"type":"Feature","properties":{"osm_id":"9857685923","station_name":"KL Sentral (KJ)","element_type":"node","station_id":"KJ15"},"geometry":{"type":"Point","coordinates":[101.687216,3.13339]}},{"type":"Feature","properties":{"osm_id":"9857685906","station_name":"Bangsar","element_type":"node","station_id":"KJ16"},"geometry":{"type":"Point","coordinates":[101.679096,3.127536]}},{"type":"Feature","properties":{"osm_id":"7369242373","station_name":"Abdullah Hukum","element_type":"node","station_id":"KJ17"},"geometry":{"type":"Point","coordinates":[101.672946,3.118749]}},{"type":"Feature","properties":{"osm_id":"9857685871","station_name":"Kerinchi","element_type":"node","station_id":"KJ18"},"geometry":{"type":"Point","coordinates":[101.668511,3.115454]}},{"type":"Feature","properties":{"osm_id":"7148101757","station_name":"Universiti","element_type":"node","station_id":"KJ19"},"geometry":{"type":"Point","coordinates":[101.661712,3.114486]}},{"type":"Feature","properties":{"osm_id":"1523290736","station_name":"Taman Jaya","element_type":"node","station_id":"KJ20"},"geometry":{"type":"Point","coordinates":[101.645296,3.104043]}},{"type":"Feature","properties":{"osm_id":"9867488352","station_name":"Asia Jaya","element_type":"node","station_id":"KJ21"},"geometry":{"type":"Point","coordinates":[101.637763,3.104301]}},{"type":"Feature","properties":{"osm_id":"1537848372","station_name":"Taman Paramount","element_type":"node","station_id":"KJ22"},"geometry":{"type":"Point","coordinates":[101.623164,3.104684]}},{"type":"Feature","properties":{"osm_id":"1537849706","station_name":"Taman Bahagia","element_type":"node","station_id":"KJ23"},"geometry":{"type":"Point","coordinates":[101.612712,3.110679]}},{"type":"Feature","properties":{"osm_id":"9867488351","station_name":"Kelana Jaya","element_type":"node","station_id":"KJ24"},"geometry":{"type":"Point","coordinates":[101.604481,3.112394]}},{"type":"Feature","properties":{"osm_id":"5397595509","station_name":"Lembah Subang","element_type":"node","station_id":"KJ25"},"geometry":{"type":"Point","coordinates":[101.591321,3.111935]}},{"type":"Feature","properties":{"osm_id":"5397595511","station_name":"Ara Damansara","element_type":"node","station_id":"KJ26"},"geometry":{"type":"Point","coordinates":[101.586715,3.108388]}},{"type":"Feature","properties":{"osm_id":"9867488350","station_name":"Glenmarie","element_type":"node","station_id":"KJ27"},"geometry":{"type":"Point","coordinates":[101.590494,3.095957]}},{"type":"Feature","properties":{"osm_id":"5486069170","station_name":"Subang Jaya (LRT)","element_type":"node","station_id":"KJ28"},"geometry":{"type":"Point","coordinates":[101.587295,3.084834]}},{"type":"Feature","properties":{"osm_id":"9867488349","station_name":"SS15","element_type":"node","station_id":"KJ29"},"geometry":{"type":"Point","coordinates":[101.586218,3.075692]}},{"type":"Feature","properties":{"osm_id":"4868073453","station_name":"SS18","element_type":"node","station_id":"KJ30"},"geometry":{"type":"Point","coordinates":[101.58623,3.067125]}},{"type":"Feature","properties":{"osm_id":"5397596021","station_name":"USJ7","element_type":"node","station_id":"KJ31"},"geometry":{"type":"Point","coordinates":[101.592056,3.054836]}},{"type":"Feature","properties":{"osm_id":"5304094204","station_name":"Taipan","element_type":"node","station_id":"KJ32"},"geometry":{"type":"Point","coordinates":[101.590211,3.04782]}},{"type":"Feature","properties":{"osm_id":"5397605055","station_name":"Wawasan","element_type":"node","station_id":"KJ33"},"geometry":{"type":"Point","coordinates":[101.588138,3.035035]}},{"type":"Feature","properties":{"osm_id":"5397605057","station_name":"USJ21","element_type":"node","station_id":"KJ34"},"geometry":{"type":"Point","coordinates":[101.581795,3.029713]}},{"type":"Feature","properties":{"osm_id":"9867488362","station_name":"Alam Megah","element_type":"node","station_id":"KJ35"},"geometry":{"type":"Point","coordinates":[101.572102,3.023071]}},{"type":"Feature","properties":{"osm_id":"9867488363","station_name":"Subang Alam","element_type":"node","station_id":"KJ36"},"geometry":{"type":"Point","coordinates":[101.57219,3.009704]}},{"type":"Feature","properties":{"osm_id":"7077855554","station_name":"Putra Heights","element_type":"node","station_id":"KJ37"},"geometry":{"type":"Point","coordinates":[101.575579,2.996039]}},{"type":"Feature","properties":{"osm_id":"10211729882","station_name":"Putrajaya Sentral","element_type":"node","station_id":"PY41"},"geometry":{"type":"Point","coordinates":[101.671383,2.931401]}},{"type":"Feature","properties":{"osm_id":"7932664086","station_name":"Cyberjaya City Centre","element_type":"node","station_id":"PY40"},"geometry":{"type":"Point","coordinates":[101.665598,2.938853]}},{"type":"Feature","properties":{"osm_id":"10211729880","station_name":"Cyberjaya Utara","element_type":"node","station_id":"PY39"},"geometry":{"type":"Point","coordinates":[101.657428,2.949209]}},{"type":"Feature","properties":{"osm_id":"10211729878","station_name":"16 Sierra","element_type":"node","station_id":"PY38"},"geometry":{"type":"Point","coordinates":[101.654797,2.965251]}},{"type":"Feature","properties":{"osm_id":"10211729876","station_name":"Putra Permai","element_type":"node","station_id":"PY37"},"geometry":{"type":"Point","coordinates":[101.660546,2.983175]}},{"type":"Feature","properties":{"osm_id":"10211729874","station_name":"Taman Equine","element_type":"node","station_id":"PY36"},"geometry":{"type":"Point","coordinates":[101.672542,2.989405]}},{"type":"Feature","properties":{"osm_id":"10211729872","station_name":"UPM","element_type":"node","station_id":"PY34"},"geometry":{"type":"Point","coordinates":[101.705392,3.008577]}},{"type":"Feature","properties":{"osm_id":"10211729870","station_name":"Serdang Jaya","element_type":"node","station_id":"PY33"},"geometry":{"type":"Point","coordinates":[101.708882,3.021537]}},{"type":"Feature","properties":{"osm_id":"7725136738","station_name":"Serdang Raya Selatan","element_type":"node","station_id":"PY32"},"geometry":{"type":"Point","coordinates":[101.707449,3.028431]}},{"type":"Feature","properties":{"osm_id":"10211729860","station_name":"Serdang Raya Utara","element_type":"node","station_id":"PY31"},"geometry":{"type":"Point","coordinates":[101.704862,3.041722]}},{"type":"Feature","properties":{"osm_id":"10211729858","station_name":"Sungai Besi","element_type":"node","station_id":"PY29"},"geometry":{"type":"Point","coordinates":[101.708218,3.063888]}},{"type":"Feature","properties":{"osm_id":"10211729856","station_name":"Taman Naga Emas","element_type":"node","station_id":"PY28"},"geometry":{"type":"Point","coordinates":[101.699483,3.077701]}},{"type":"Feature","properties":{"osm_id":"10211729854","station_name":"Kuchai","element_type":"node","station_id":"PY27"},"geometry":{"type":"Point","coordinates":[101.694011,3.089595]}},{"type":"Feature","properties":{"osm_id":"10211729852","station_name":"Chan Sow Lin","element_type":"node","station_id":"PY24"},"geometry":{"type":"Point","coordinates":[101.715936,3.127956]}},{"type":"Feature","properties":{"osm_id":"10132470682","station_name":"Tun Razak Exchange (PY)","element_type":"node","station_id":"PY23"},"geometry":{"type":"Point","coordinates":[101.719953,3.142885]}},{"type":"Feature","properties":{"osm_id":"10211729850","station_name":"Conlay","element_type":"node","station_id":"PY22"},"geometry":{"type":"Point","coordinates":[101.718367,3.150617]}},{"type":"Feature","properties":{"osm_id":"7724226582","station_name":"Persiaran KLCC","element_type":"node","station_id":"PY21"},"geometry":{"type":"Point","coordinates":[101.71822,3.156804]}},{"type":"Feature","properties":{"osm_id":"10211729845","station_name":"Raja Uda","element_type":"node","station_id":"PY19"},"geometry":{"type":"Point","coordinates":[101.710932,3.167797]}},{"type":"Feature","properties":{"osm_id":"10211729843","station_name":"Hospital Kuala Lumpur","element_type":"node","station_id":"PY18"},"geometry":{"type":"Point","coordinates":[101.701702,3.173893]}},{"type":"Feature","properties":{"osm_id":"10211729841","station_name":"Titiwangsa","element_type":"node","station_id":"PY17"},"geometry":{"type":"Point","coordinates":[101.695722,3.173741]}},{"type":"Feature","properties":{"osm_id":"10211729839","station_name":"Sentul Barat","element_type":"node","station_id":"PY16"},"geometry":{"type":"Point","coordinates":[101.685171,3.178712]}},{"type":"Feature","properties":{"osm_id":"9755011838","station_name":"Jalan Ipoh","element_type":"node","station_id":"PY15"},"geometry":{"type":"Point","coordinates":[101.68104,3.189393]}},{"type":"Feature","properties":{"osm_id":"9755011836","station_name":"Kentonmen","element_type":"node","station_id":"PY14"},"geometry":{"type":"Point","coordinates":[101.679618,3.195329]}},{"type":"Feature","properties":{"osm_id":"9755011840","station_name":"Kampung Batu (PY)","element_type":"node","station_id":"PY13"},"geometry":{"type":"Point","coordinates":[101.675215,3.205787]}},{"type":"Feature","properties":{"osm_id":"9833287690","station_name":"Sri Delima","element_type":"node","station_id":"PY12"},"geometry":{"type":"Point","coordinates":[101.665559,3.207121]}},{"type":"Feature","properties":{"osm_id":"9833287692","station_name":"Jinjang","element_type":"node","station_id":"PY11"},"geometry":{"type":"Point","coordinates":[101.655924,3.209476]}},{"type":"Feature","properties":{"osm_id":"9833371330","station_name":"Kepong Baru","element_type":"node","station_id":"PY10"},"geometry":{"type":"Point","coordinates":[101.648137,3.211617]}},{"type":"Feature","properties":{"osm_id":"9849953874","station_name":"Metro Prima","element_type":"node","station_id":"PY09"},"geometry":{"type":"Point","coordinates":[101.640397,3.214452]}},{"type":"Feature","properties":{"osm_id":"9849953872","station_name":"Sri Damansara Timur","element_type":"node","station_id":"PY08"},"geometry":{"type":"Point","coordinates":[101.628675,3.20759]}},{"type":"Feature","properties":{"osm_id":"7723739344","station_name":"Sri Damansara Sentral","element_type":"node","station_id":"PY07"},"geometry":{"type":"Point","coordinates":[101.621145,3.198542]}},{"type":"Feature","properties":{"osm_id":"7723739292","station_name":"Sri Damansara Barat","element_type":"node","station_id":"PY06"},"geometry":{"type":"Point","coordinates":[101.608413,3.198161]}},{"type":"Feature","properties":{"osm_id":"9849592619","station_name":"Damansara Damai","element_type":"node","station_id":"PY05"},"geometry":{"type":"Point","coordinates":[101.592886,3.199691]}},{"type":"Feature","properties":{"osm_id":"5659819843","station_name":"Sungai Buloh (PY)","element_type":"node","station_id":"PY04"},"geometry":{"type":"Point","coordinates":[101.581723,3.206229]}},{"type":"Feature","properties":{"osm_id":"7722393676","station_name":"Kampung Selamat","element_type":"node","station_id":"PY03"},"geometry":{"type":"Point","coordinates":[101.578433,3.197154]}},{"type":"Feature","properties":{"osm_id":"7723703874","station_name":"Kwasa Damansara","element_type":"node","station_id":"PY01"},"geometry":{"type":"Point","coordinates":[101.572398,3.176367]}},{"type":"Feature","properties":{"osm_id":"5391827790","station_name":"Sentul Timur","element_type":"node","station_id":"AG1;SP1"},"geometry":{"type":"Point","coordinates":[101.695327,3.185832]}},{"type":"Feature","properties":{"osm_id":"5391827789","station_name":"Sentul","element_type":"node","station_id":"AG2;SP2"},"geometry":{"type":"Point","coordinates":[101.695506,3.178586]}},{"type":"Feature","properties":{"osm_id":"5391827787","station_name":"PWTC","element_type":"node","station_id":"AG4;SP4"},"geometry":{"type":"Point","coordinates":[101.693594,3.166563]}},{"type":"Feature","properties":{"osm_id":"243234896","station_name":"Sultan Ismail","element_type":"node","station_id":"AG5;SP5"},"geometry":{"type":"Point","coordinates":[101.694127,3.161185]}},{"type":"Feature","properties":{"osm_id":"243234879","station_name":"Bandaraya","element_type":"node","station_id":"AG6;SP6"},"geometry":{"type":"Point","coordinates":[101.694446,3.155547]}},{"type":"Feature","properties":{"osm_id":"5391735621","station_name":"Plaza Rakyat","element_type":"node","station_id":"AG8;SP8"},"geometry":{"type":"Point","coordinates":[101.701792,3.144554]}},{"type":"Feature","properties":{"osm_id":"28930701","station_name":"Hang Tuah","element_type":"node","station_id":"AG9;SP9"},"geometry":{"type":"Point","coordinates":[101.706113,3.140145]}},{"type":"Feature","properties":{"osm_id":"2575356400","station_name":"Pudu","element_type":"node","station_id":"AG10;SP10"},"geometry":{"type":"Point","coordinates":[101.712051,3.134948]}},{"type":"Feature","properties":{"osm_id":"4036400201","station_name":"Cheras","element_type":"node","station_id":"SP12"},"geometry":{"type":"Point","coordinates":[101.714325,3.112736]}},{"type":"Feature","properties":{"osm_id":"4036400193","station_name":"Salak Selatan","element_type":"node","station_id":"SP13"},"geometry":{"type":"Point","coordinates":[101.706321,3.102073]}},{"type":"Feature","properties":{"osm_id":"4036400191","station_name":"Bandar Tun Razak","element_type":"node","station_id":"SP14"},"geometry":{"type":"Point","coordinates":[101.712435,3.089635]}},{"type":"Feature","properties":{"osm_id":"4036400190","station_name":"Bandar Tasik Selatan","element_type":"node","station_id":"SP15"},"geometry":{"type":"Point","coordinates":[101.711311,3.076067]}},{"type":"Feature","properties":{"osm_id":"9867662585","station_name":"Bukit Jalil","element_type":"node","station_id":"SP17"},"geometry":{"type":"Point","coordinates":[101.692198,3.058126]}},{"type":"Feature","properties":{"osm_id":"8950363112","station_name":"Sri Petaling","element_type":"node","station_id":"SP18"},"geometry":{"type":"Point","coordinates":[101.687088,3.061499]}},{"type":"Feature","properties":{"osm_id":"8945524214","station_name":"Awan Besar","element_type":"node","station_id":"SP19"},"geometry":{"type":"Point","coordinates":[101.670652,3.062014]}},{"type":"Feature","properties":{"osm_id":"8945536463","station_name":"Muhibbah","element_type":"node","station_id":"SP20"},"geometry":{"type":"Point","coordinates":[101.662603,3.061916]}},{"type":"Feature","properties":{"osm_id":"9867662584","station_name":"Alam Sutera","element_type":"node","station_id":"SP21"},"geometry":{"type":"Point","coordinates":[101.656535,3.054649]}},{"type":"Feature","properties":{"osm_id":"7077803194","station_name":"Kinrara BK5","element_type":"node","station_id":"SP22"},"geometry":{"type":"Point","coordinates":[101.644261,3.05045]}},{"type":"Feature","properties":{"osm_id":"8944394786","station_name":"IOI Puchong Jaya","element_type":"node","station_id":"SP24"},"geometry":{"type":"Point","coordinates":[101.621057,3.048049]}},{"type":"Feature","properties":{"osm_id":"8944394756","station_name":"Pusat Bandar Puchong","element_type":"node","station_id":"SP25"},"geometry":{"type":"Point","coordinates":[101.616114,3.033236]}},{"type":"Feature","properties":{"osm_id":"8944223705","station_name":"Taman Perindustrian Puchong","element_type":"node","station_id":"SP26"},"geometry":{"type":"Point","coordinates":[101.613548,3.022715]}},{"type":"Feature","properties":{"osm_id":"8944223678","station_name":"Bandar Puteri","element_type":"node","station_id":"SP27"},"geometry":{"type":"Point","coordinates":[101.612995,3.016928]}},{"type":"Feature","properties":{"osm_id":"7077855537","station_name":"Puchong Perdana","element_type":"node","station_id":"SP28"},"geometry":{"type":"Point","coordinates":[101.605277,3.007812]}},{"type":"Feature","properties":{"osm_id":"8944223620","station_name":"Puchong Prima","element_type":"node","station_id":"SP29"},"geometry":{"type":"Point","coordinates":[101.596817,2.999879]}},{"type":"Feature","properties":{"osm_id":"7723703872","station_name":"Kwasa Sentral","element_type":"node","station_id":"KG05"},"geometry":{"type":"Point","coordinates":[101.564866,3.169861]}},{"type":"Feature","properties":{"osm_id":"7727312789","station_name":"Kota Damansara","element_type":"node","station_id":"KG06"},"geometry":{"type":"Point","coordinates":[101.578696,3.150229]}},{"type":"Feature","properties":{"osm_id":"7727312788","station_name":"Surian","element_type":"node","station_id":"KG07"},"geometry":{"type":"Point","coordinates":[101.593657,3.14967]}},{"type":"Feature","properties":{"osm_id":"7727312842","station_name":"Mutiara Damansara","element_type":"node","station_id":"KG08"},"geometry":{"type":"Point","coordinates":[101.608735,3.155212]}},{"type":"Feature","properties":{"osm_id":"7727312862","station_name":"Bandar Utama","element_type":"node","station_id":"KG09"},"geometry":{"type":"Point","coordinates":[101.618785,3.146714]}},{"type":"Feature","properties":{"osm_id":"7727312912","station_name":"Taman Tun Dr Ismail","element_type":"node","station_id":"KG10"},"geometry":{"type":"Point","coordinates":[101.630797,3.13608]}},{"type":"Feature","properties":{"osm_id":"4560707931","station_name":"Phileo Damansara","element_type":"node","station_id":"KG12"},"geometry":{"type":"Point","coordinates":[101.642954,3.129332]}},{"type":"Feature","properties":{"osm_id":"4560707932","station_name":"Pusat Bandar Damansara","element_type":"node","station_id":"KG13"},"geometry":{"type":"Point","coordinates":[101.662327,3.143305]}},{"type":"Feature","properties":{"osm_id":"4555795928","station_name":"Semantan","element_type":"node","station_id":"KG14"},"geometry":{"type":"Point","coordinates":[101.665307,3.150983]}},{"type":"Feature","properties":{"osm_id":"4658799653","station_name":"Muzium Negara","element_type":"node","station_id":"KG15"},"geometry":{"type":"Point","coordinates":[101.687359,3.137188]}},{"type":"Feature","properties":{"osm_id":"4650900225","station_name":"Merdeka","element_type":"node","station_id":"KG17"},"geometry":{"type":"Point","coordinates":[101.702269,3.142176]}},{"type":"Feature","properties":{"osm_id":"7737907035","station_name":"Bukit Bintang (KG)","element_type":"node","station_id":"KG18A"},"geometry":{"type":"Point","coordinates":[101.711232,3.146288]}},{"type":"Feature","properties":{"osm_id":"7737907037","station_name":"Cochrane","element_type":"node","station_id":"KG21"},"geometry":{"type":"Point","coordinates":[101.723151,3.132384]}},{"type":"Feature","properties":{"osm_id":"7737907040","station_name":"Maluri","element_type":"node","station_id":"KG22"},"geometry":{"type":"Point","coordinates":[101.727084,3.123981]}},{"type":"Feature","properties":{"osm_id":"7737907093","station_name":"Taman Pertama","element_type":"node","station_id":"KG23"},"geometry":{"type":"Point","coordinates":[101.729343,3.112649]}},{"type":"Feature","properties":{"osm_id":"3857515109","station_name":"Taman Midah","element_type":"node","station_id":"SBK24"},"geometry":{"type":"Point","coordinates":[101.732294,3.104369]}},{"type":"Feature","properties":{"osm_id":"5469085479","station_name":"Taman Mutiara","element_type":"node","station_id":"KG25"},"geometry":{"type":"Point","coordinates":[101.740345,3.091392]}},{"type":"Feature","properties":{"osm_id":"5469085480","station_name":"Taman Connaught","element_type":"node","station_id":"KG26"},"geometry":{"type":"Point","coordinates":[101.745144,3.079214]}},{"type":"Feature","properties":{"osm_id":"5469085481","station_name":"Taman Suntex","element_type":"node","station_id":"SBK27"},"geometry":{"type":"Point","coordinates":[101.763549,3.071664]}},{"type":"Feature","properties":{"osm_id":"5469085482","station_name":"Sri Raya","element_type":"node","station_id":"SBK28"},"geometry":{"type":"Point","coordinates":[101.772993,3.06219]}},{"type":"Feature","properties":{"osm_id":"5469085496","station_name":"Bandar Tun Hussein Onn","element_type":"node","station_id":"SBK29"},"geometry":{"type":"Point","coordinates":[101.77504,3.048374]}},{"type":"Feature","properties":{"osm_id":"5469085497","station_name":"Batu 11 Cheras","element_type":"node","station_id":"SBK30"},"geometry":{"type":"Point","coordinates":[101.773401,3.041322]}},{"type":"Feature","properties":{"osm_id":"5397463176","station_name":"Bukit Dukung","element_type":"node","station_id":"SBK31"},"geometry":{"type":"Point","coordinates":[101.771128,3.026453]}},{"type":"Feature","properties":{"osm_id":"7738029302","station_name":"Sungai Jernih","element_type":"node","station_id":"SBK33"},"geometry":{"type":"Point","coordinates":[101.784129,3.000821]}},{"type":"Feature","properties":{"osm_id":"7738029347","station_name":"Stadium Kajang","element_type":"node","station_id":"SBK34"},"geometry":{"type":"Point","coordinates":[101.786258,2.994095]}},{"type":"Feature","properties":{"osm_id":"5249698028","station_name":"Kajang (KG)","element_type":"node","station_id":"KG35"},"geometry":{"type":"Point","coordinates":[101.79039,2.983146]}},{"type":"Feature","properties":{"osm_id":"5392245921","station_name":"Miharja","element_type":"node","station_id":"AG12"},"geometry":{"type":"Point","coordinates":[101.717869,3.120962]}},{"type":"Feature","properties":{"osm_id":"3001786749","station_name":"Pandan Jaya","element_type":"node","station_id":"AG14"},"geometry":{"type":"Point","coordinates":[101.738981,3.130269]}},{"type":"Feature","properties":{"osm_id":"3001786779","station_name":"Pandan Indah","element_type":"node","station_id":"AG15"},"geometry":{"type":"Point","coordinates":[101.746672,3.134785]}},{"type":"Feature","properties":{"osm_id":"5395329329","station_name":"Cempaka","element_type":"node","station_id":"AG16"},"geometry":{"type":"Point","coordinates":[101.753044,3.138496]}},{"type":"Feature","properties":{"osm_id":"5395329330","station_name":"Cahaya","element_type":"node","station_id":"AG17"},"geometry":{"type":"Point","coordinates":[101.756598,3.140658]}},{"type":"Feature","properties":{"osm_id":"9704514070","station_name":"Ampang","element_type":"node","station_id":"AG18"},"geometry":{"type":"Point","coordinates":[101.760168,3.15051]}},{"type":"Feature","properties":{"osm_id":"1993254082","station_name":"Tun Sambanthan","element_type":"node","station_id":"MR2"},"geometry":{"type":"Point","coordinates":[101.690862,3.131452]}},{"type":"Feature","properties":{"osm_id":"264907051","station_name":"Maharajalela","element_type":"node","station_id":"MR3"},"geometry":{"type":"Point","coordinates":[101.699203,3.138948]}},{"type":"Feature","properties":{"osm_id":"264907059","station_name":"Imbi","element_type":"node","station_id":"MR5"},"geometry":{"type":"Point","coordinates":[101.709447,3.142812]}},{"type":"Feature","properties":{"osm_id":"5506071117","station_name":"Raja Chulan","element_type":"node","station_id":"MR7"},"geometry":{"type":"Point","coordinates":[101.710416,3.150831]}},{"type":"Feature","properties":{"osm_id":"5506071116","station_name":"Bukit Nanas","element_type":"node","station_id":"MR8"},"geometry":{"type":"Point","coordinates":[101.704831,3.15614]}},{"type":"Feature","properties":{"osm_id":"5505950907","station_name":"Medan Tuanku","element_type":"node","station_id":"MR9"},"geometry":{"type":"Point","coordinates":[101.698899,3.159253]}},{"type":"Feature","properties":{"osm_id":"3478428865","station_name":"Chow Kit","element_type":"node","station_id":"MR10"},"geometry":{"type":"Point","coordinates":[101.698385,3.167394]}},{"type":"Feature","properties":{"route_company":"","route_id":"1307430468","element_type":"way","color":"#f032e6","route_name":"MRT 3 Circle Line","osm_id":"1307430468","railway":"subway","status":"proposed"},"geometry":{"type":"LineString","coordinates":[[101.679325,3.176687],[101.684636,3.172611],[101.688976,3.171176],[101.693895,3.175321],[101.698412,3.177432],[101.700107,3.181593],[101.70044,3.194003],[101.701255,3.196028],[101.703883,3.199317],[101.70913,3.200324],[101.715814,3.205733],[101.719467,3.205074],[101.726698,3.197458],[101.733589,3.191965]]}}]}