{"type":"FeatureCollection","generator":"metroOsmFetch (OpenStreetMap / Overpass, ODbL)","features":[{"type":"Feature","properties":{"osm_id":"1950768183","station_name":"新木場","element_type":"node","station_id":"R01"},"geometry":{"type":"Point","coordinates":[139.826971,35.646021]}},{"type":"Feature","properties":{"osm_id":"1950765321","station_name":"東雲","element_type":"node","station_id":"R02"},"geometry":{"type":"Point","coordinates":[139.803624,35.64073]}},{"type":"Feature","properties":{"osm_id":"1063379042","station_name":"国際展示場","element_type":"node","station_id":"R03"},"geometry":{"type":"Point","coordinates":[139.792522,35.634511]}},{"type":"Feature","properties":{"osm_id":"1742285574","station_name":"東京テレポート","element_type":"node","station_id":""},"geometry":{"type":"Point","coordinates":[139.778085,35.627089]}},{"type":"Feature","properties":{"osm_id":"1742285572","station_name":"天王洲アイル","element_type":"node","station_id":"R05"},"geometry":{"type":"Point","coordinates":[139.750834,35.621663]}},{"type":"Feature","properties":{"osm_id":"1742285570","station_name":"品川シーサイド","element_type":"node","station_id":"R06"},"geometry":{"type":"Point","coordinates":[139.749878,35.60972]}},{"type":"Feature","properties":{"osm_id":"1742285571","station_name":"大井町","element_type":"node","station_id":""},"geometry":{"type":"Point","coordinates":[139.734407,35.607448]}},{"type":"Feature","properties":{"osm_id":"3406728237","station_name":"大崎","element_type":"node","station_id":"JA08;R08"},"geometry":{"type":"Point","coordinates":[139.728281,35.619292]}},{"type":"Feature","properties":{"route_company":"Tokyo Waterfront Area Rapid Transit","route_id":"R","element_type":"way","color":"#2d3087","route_name":"りんかい線（新木場⇒大崎）","osm_id":"3304256","railway":"train","status":"open"},"geometry":{"type":"LineString","coordinates":[[139.826971,35.646021],[139.803624,35.64073],[139.792522,35.634511],[139.778085,35.627089],[139.750834,35.621663],[139.749878,35.60972],[139.734407,35.607448],[139.728281,35.619292]]}}]}