{"type":"FeatureCollection","generator":"metroOsmFetch (OpenStreetMap / Overpass, ODbL)","features":[{"type":"Feature","properties":{"osm_id":"7694192090","station_name":"بهارستان","element_type":"node","station_id":"7694192090"},"geometry":{"type":"Point","coordinates":[51.684268,32.60221]}},{"type":"Feature","properties":{"osm_id":"7694182676","station_name":"راه آهن","element_type":"node","station_id":"7694182676"},"geometry":{"type":"Point","coordinates":[51.693655,32.548854]}},{"type":"Feature","properties":{"osm_id":"7694182653","station_name":"سپاهان شهر","element_type":"node","station_id":"7694182653"},"geometry":{"type":"Point","coordinates":[51.686383,32.555243]}},{"type":"Feature","properties":{"osm_id":"4023936989","station_name":"دفاع مقدس (صفه)","element_type":"node","station_id":"4023936989"},"geometry":{"type":"Point","coordinates":[51.669666,32.588229]}},{"type":"Feature","properties":{"osm_id":"4020260592","station_name":"کوی امام","element_type":"node","station_id":"4020260592"},"geometry":{"type":"Point","coordinates":[51.668215,32.598434]}},{"type":"Feature","properties":{"osm_id":"4020260595","station_name":"کارگر","element_type":"node","station_id":"4020260595"},"geometry":{"type":"Point","coordinates":[51.663441,32.606511]}},{"type":"Feature","properties":{"osm_id":"4020260594","station_name":"دانشگاه","element_type":"node","station_id":"4020260594"},"geometry":{"type":"Point","coordinates":[51.663535,32.615036]}},{"type":"Feature","properties":{"osm_id":"7104501371","station_name":"آزادی","element_type":"node","station_id":"7104501371"},"geometry":{"type":"Point","coordinates":[51.664462,32.622274]}},{"type":"Feature","properties":{"osm_id":"4020260298","station_name":"شریعتی","element_type":"node","station_id":"4020260298"},"geometry":{"type":"Point","coordinates":[51.665393,32.629334]}},{"type":"Feature","properties":{"osm_id":"4020260791","station_name":"سی و سه پل","element_type":"node","station_id":"4020260791"},"geometry":{"type":"Point","coordinates":[51.666708,32.638882]}},{"type":"Feature","properties":{"osm_id":"4020260297","station_name":"انقلاب","element_type":"node","station_id":"4020260297"},"geometry":{"type":"Point","coordinates":[51.668035,32.648709]}},{"type":"Feature","properties":{"osm_id":"4769272241","station_name":"امام حسین","element_type":"node","station_id":"4769272241"},"geometry":{"type":"Point","coordinates":[51.669329,32.658086]}},{"type":"Feature","properties":{"osm_id":"4020260397","station_name":"تختی","element_type":"node","station_id":"4020260397"},"geometry":{"type":"Point","coordinates":[51.670131,32.664205]}},{"type":"Feature","properties":{"osm_id":"3690028870","station_name":"شهدا","element_type":"node","station_id":"3690028870"},"geometry":{"type":"Point","coordinates":[51.671179,32.671898]}},{"type":"Feature","properties":{"osm_id":"3787736366","station_name":"شهید باهنر","element_type":"node","station_id":"3787736366"},"geometry":{"type":"Point","coordinates":[51.67224,32.679564]}},{"type":"Feature","properties":{"osm_id":"3787736365","station_name":"شهید چمران","element_type":"node","station_id":"3787736365"},"geometry":{"type":"Point","coordinates":[51.673437,32.688503]}},{"type":"Feature","properties":{"osm_id":"3787736364","station_name":"کاوه","element_type":"node","station_id":"3787736364"},"geometry":{"type":"Point","coordinates":[51.67247,32.698659]}},{"type":"Feature","properties":{"osm_id":"3787736362","station_name":"جابر","element_type":"node","station_id":"3787736362"},"geometry":{"type":"Point","coordinates":[51.666094,32.708438]}},{"type":"Feature","properties":{"osm_id":"3690028850","station_name":"شهید علیخانی","element_type":"node","station_id":"3690028850"},"geometry":{"type":"Point","coordinates":[51.659542,32.714664]}},{"type":"Feature","properties":{"osm_id":"3690028848","station_name":"شهید مفتح","element_type":"node","station_id":"3690028848"},"geometry":{"type":"Point","coordinates":[51.645376,32.715949]}},{"type":"Feature","properties":{"osm_id":"3787736360","station_name":"گلستان","element_type":"node","station_id":"3787736360"},"geometry":{"type":"Point","coordinates":[51.63119,32.715525]}},{"type":"Feature","properties":{"osm_id":"3690028835","station_name":"قدس","element_type":"node","station_id":"3690028835"},"geometry":{"type":"Point","coordinates":[51.603198,32.71484]}},{"type":"Feature","properties":{"osm_id":"7694352639","station_name":"رسالت","element_type":"node","station_id":"7694352639"},"geometry":{"type":"Point","coordinates":[51.591786,32.71951]}},{"type":"Feature","properties":{"osm_id":"7694352640","station_name":"امیرکبیر","element_type":"node","station_id":"7694352640"},"geometry":{"type":"Point","coordinates":[51.580926,32.72774]}},{"type":"Feature","properties":{"osm_id":"7694352635","station_name":"دانشگاه صنعتی اصفهان","element_type":"node","station_id":"7694352635"},"geometry":{"type":"Point","coordinates":[51.556546,32.746106]}},{"type":"Feature","properties":{"route_company":"","route_id":"1","element_type":"way","color":"#1a988c","route_name":"خط ۱","osm_id":"5587340","railway":"subway","status":"open"},"geometry":{"type":"LineString","coordinates":[[51.684268,32.60221],[51.693655,32.548854],[51.686383,32.555243],[51.669666,32.588229],[51.668215,32.598434],[51.663441,32.606511],[51.663535,32.615036],[51.664462,32.622274],[51.665393,32.629334],[51.666708,32.638882],[51.668035,32.648709],[51.669329,32.658086],[51.670131,32.664205],[51.671179,32.671898],[51.67224,32.679564],[51.673437,32.688503],[51.67247,32.698659],[51.666094,32.708438],[51.659542,32.714664],[51.645376,32.715949],[51.63119,32.715525],[51.684268,32.60221],[51.603198,32.71484],[51.591786,32.71951],[51.580926,32.72774],[51.556546,32.746106]]}}]}