{"type":"FeatureCollection","generator":"metroOsmFetch (OpenStreetMap / Overpass, ODbL)","features":[{"type":"Feature","properties":{"route_company":"سازمان قطار شهری شیراز و حومه","route_id":"1","element_type":"way","color":"#ee3c3c","route_name":"خط ۱: احسان ← شهید دستغیب","osm_id":"5727259","railway":"subway","status":"open"},"geometry":{"type":"LineString","coordinates":[[52.454606,29.678228],[52.46503,29.682724],[52.473756,29.686602],[52.486507,29.666247],[52.485446,29.655232],[52.502754,29.637452],[52.512825,29.63208],[52.519902,29.631365],[52.531965,29.624114],[52.540669,29.618909],[52.551771,29.612405],[52.558494,29.608229],[52.562878,29.602896],[52.567856,29.596127],[52.574205,29.587456],[52.579176,29.580669],[52.585306,29.57232],[52.590409,29.56493],[52.594567,29.558692],[52.599192,29.551758]]}},{"type":"Feature","properties":{"route_company":"سازمان قطار شهری شیراز و حومه","route_id":"2","element_type":"way","color":"#229954","route_name":"خط ۲: قهرمانان => امام حسین","osm_id":"5744272","railway":"subway","status":"open"},"geometry":{"type":"LineString","coordinates":[[52.496492,29.570105],[52.5064,29.580357],[52.508195,29.588189],[52.510771,29.597435],[52.515881,29.603871],[52.523801,29.613899],[52.531965,29.624114]]}},{"type":"Feature","properties":{"osm_id":"815622281","station_name":"احسان","element_type":"node","station_id":"815622281"},"geometry":{"type":"Point","coordinates":[52.454606,29.678228]}},{"type":"Feature","properties":{"osm_id":"815622276","station_name":"دکتر شریعتی","element_type":"node","station_id":"815622276"},"geometry":{"type":"Point","coordinates":[52.46503,29.682724]}},{"type":"Feature","properties":{"osm_id":"815622271","station_name":"میرزای شیرازی","element_type":"node","station_id":"815622271"},"geometry":{"type":"Point","coordinates":[52.473756,29.686602]}},{"type":"Feature","properties":{"osm_id":"815622239","station_name":"شاهد","element_type":"node","station_id":"815622239"},"geometry":{"type":"Point","coordinates":[52.486507,29.666247]}},{"type":"Feature","properties":{"osm_id":"815613519","station_name":"قصردشت","element_type":"node","station_id":"815613519"},"geometry":{"type":"Point","coordinates":[52.485446,29.655232]}},{"type":"Feature","properties":{"osm_id":"314366213","station_name":"شهید مطهری","element_type":"node","station_id":"314366213"},"geometry":{"type":"Point","coordinates":[52.502754,29.637452]}},{"type":"Feature","properties":{"osm_id":"5014863146","station_name":"شهید آوینی","element_type":"node","station_id":"5014863146"},"geometry":{"type":"Point","coordinates":[52.512825,29.63208]}},{"type":"Feature","properties":{"osm_id":"3890672475","station_name":"نمازی","element_type":"node","station_id":"3890672475"},"geometry":{"type":"Point","coordinates":[52.519902,29.631365]}},{"type":"Feature","properties":{"osm_id":"3893392082","station_name":"امام حسین","element_type":"node","station_id":"3893392082"},"geometry":{"type":"Point","coordinates":[52.531965,29.624114]}},{"type":"Feature","properties":{"osm_id":"3890683367","station_name":"زندیه","element_type":"node","station_id":"3890683367"},"geometry":{"type":"Point","coordinates":[52.540669,29.618909]}},{"type":"Feature","properties":{"osm_id":"3890672464","station_name":"وکیل الرعایا","element_type":"node","station_id":"3890672464"},"geometry":{"type":"Point","coordinates":[52.551771,29.612405]}},{"type":"Feature","properties":{"osm_id":"306435246","station_name":"ولیعصر","element_type":"node","station_id":"306435246"},"geometry":{"type":"Point","coordinates":[52.558494,29.608229]}},{"type":"Feature","properties":{"osm_id":"306435241","station_name":"شهید کاوه","element_type":"node","station_id":"306435241"},"geometry":{"type":"Point","coordinates":[52.562878,29.602896]}},{"type":"Feature","properties":{"osm_id":"306435240","station_name":"فضیلت","element_type":"node","station_id":"306435240"},"geometry":{"type":"Point","coordinates":[52.567856,29.596127]}},{"type":"Feature","properties":{"osm_id":"5936862196","station_name":"رازی","element_type":"node","station_id":"5936862196"},"geometry":{"type":"Point","coordinates":[52.574205,29.587456]}},{"type":"Feature","properties":{"osm_id":"306435238","station_name":"غدیر","element_type":"node","station_id":"306435238"},"geometry":{"type":"Point","coordinates":[52.579176,29.580669]}},{"type":"Feature","properties":{"osm_id":"306434175","station_name":"جانبازان","element_type":"node","station_id":"306434175"},"geometry":{"type":"Point","coordinates":[52.585306,29.57232]}},{"type":"Feature","properties":{"osm_id":"306434174","station_name":"فرصت شیرازی","element_type":"node","station_id":"306434174"},"geometry":{"type":"Point","coordinates":[52.590409,29.56493]}},{"type":"Feature","properties":{"osm_id":"306434173","station_name":"شهید دوران","element_type":"node","station_id":"306434173"},"geometry":{"type":"Point","coordinates":[52.594567,29.558692]}},{"type":"Feature","properties":{"osm_id":"306435235","station_name":"شهید دستغیب","element_type":"node","station_id":"306435235"},"geometry":{"type":"Point","coordinates":[52.599192,29.551758]}},{"type":"Feature","properties":{"osm_id":"3893392193","station_name":"قهرمانان","element_type":"node","station_id":"3893392193"},"geometry":{"type":"Point","coordinates":[52.496492,29.570105]}},{"type":"Feature","properties":{"osm_id":"3893392189","station_name":"شهدای عادل آباد","element_type":"node","station_id":"3893392189"},"geometry":{"type":"Point","coordinates":[52.5064,29.580357]}},{"type":"Feature","properties":{"osm_id":"3893392274","station_name":"دولت","element_type":"node","station_id":"3893392274"},"geometry":{"type":"Point","coordinates":[52.508195,29.588189]}},{"type":"Feature","properties":{"osm_id":"3893392187","station_name":"رحمت","element_type":"node","station_id":"3893392187"},"geometry":{"type":"Point","coordinates":[52.510771,29.597435]}},{"type":"Feature","properties":{"osm_id":"13196660856","station_name":"بسیج","element_type":"node","station_id":"13196660856"},"geometry":{"type":"Point","coordinates":[52.515881,29.603871]}},{"type":"Feature","properties":{"osm_id":"3893392084","station_name":"استقلال","element_type":"node","station_id":"3893392084"},"geometry":{"type":"Point","coordinates":[52.523801,29.613899]}}]}