{"type":"FeatureCollection","generator":"metroOsmFetch (OpenStreetMap / Overpass, ODbL)","features":[{"type":"Feature","properties":{"route_company":"Adana Büyükşehir Belediyesi","route_id":"M1","element_type":"way","color":"#e6194b","route_name":"M1 Akıncılar → Hastane","osm_id":"7838816","railway":"subway","status":"open"},"geometry":{"type":"LineString","coordinates":[[35.344064,36.988873],[35.337567,36.981008],[35.325854,36.978938],[35.31946,36.984742],[35.318278,36.992453],[35.313412,37.002062],[35.304499,37.012316],[35.302663,37.02035],[35.296512,37.027091],[35.28793,37.035633],[35.284667,37.040899],[35.280182,37.047747],[35.262991,37.050652]]}},{"type":"Feature","properties":{"osm_id":"1297586968","station_name":"Akıncılar","element_type":"node","station_id":"1297586968"},"geometry":{"type":"Point","coordinates":[35.344064,36.988873]}},{"type":"Feature","properties":{"osm_id":"1297586983","station_name":"Cumhuriyet","element_type":"node","station_id":"1297586983"},"geometry":{"type":"Point","coordinates":[35.337567,36.981008]}},{"type":"Feature","properties":{"osm_id":"1297586973","station_name":"Hürriyet","element_type":"node","station_id":"1297586973"},"geometry":{"type":"Point","coordinates":[35.325854,36.978938]}},{"type":"Feature","properties":{"osm_id":"1297586994","station_name":"Kocavezir","element_type":"node","station_id":"1297586994"},"geometry":{"type":"Point","coordinates":[35.31946,36.984742]}},{"type":"Feature","properties":{"osm_id":"5303110837","station_name":"İstiklal Gazileri","element_type":"node","station_id":"5303110837"},"geometry":{"type":"Point","coordinates":[35.318278,36.992453]}},{"type":"Feature","properties":{"osm_id":"5303110838","station_name":"Vilayet","element_type":"node","station_id":"5303110838"},"geometry":{"type":"Point","coordinates":[35.313412,37.002062]}},{"type":"Feature","properties":{"osm_id":"1297571820","station_name":"Mavi Bulvar","element_type":"node","station_id":"1297571820"},"geometry":{"type":"Point","coordinates":[35.28793,37.035633]}},{"type":"Feature","properties":{"osm_id":"1291984370","station_name":"Kurttepe - Anadolu Lisesi","element_type":"node","station_id":"1291984370"},"geometry":{"type":"Point","coordinates":[35.280182,37.047747]}},{"type":"Feature","properties":{"osm_id":"1291984223","station_name":"Hastane","element_type":"node","station_id":"1291984223"},"geometry":{"type":"Point","coordinates":[35.262991,37.050652]}}]}