{"type":"FeatureCollection","generator":"metroOsmFetch (OpenStreetMap / Overpass, ODbL)","features":[{"type":"Feature","properties":{"route_company":"Adana Büyükşehir Belediyesi","route_id":"M1","element_type":"way","color":"#e6194b","route_name":"M1 Akıncılar → Hastane","osm_id":"7838816","railway":"subway","status":"open"},"geometry":{"type":"LineString","coordinates":[[35.344141,36.988844],[35.337569,36.98099],[35.325848,36.97892],[35.319438,36.984733],[35.318253,36.992453],[35.313393,37.002049],[35.304429,37.012296],[35.302586,37.020342],[35.296463,37.027042],[35.287858,37.035607],[35.284594,37.040878],[35.280142,37.047681],[35.26299,37.050591]]}},{"type":"Feature","properties":{"osm_id":"1297586968","station_name":"Akıncılar","element_type":"node","station_id":"1297586968"},"geometry":{"type":"Point","coordinates":[35.344141,36.988844]}},{"type":"Feature","properties":{"osm_id":"1297586983","station_name":"Cumhuriyet","element_type":"node","station_id":"1297586983"},"geometry":{"type":"Point","coordinates":[35.337569,36.98099]}},{"type":"Feature","properties":{"osm_id":"1297586973","station_name":"Hürriyet","element_type":"node","station_id":"1297586973"},"geometry":{"type":"Point","coordinates":[35.325848,36.97892]}},{"type":"Feature","properties":{"osm_id":"1297586994","station_name":"Kocavezir","element_type":"node","station_id":"1297586994"},"geometry":{"type":"Point","coordinates":[35.319438,36.984733]}},{"type":"Feature","properties":{"osm_id":"5303110837","station_name":"İstiklal Gazileri","element_type":"node","station_id":"5303110837"},"geometry":{"type":"Point","coordinates":[35.318253,36.992453]}},{"type":"Feature","properties":{"osm_id":"5303110838","station_name":"Vilayet","element_type":"node","station_id":"5303110838"},"geometry":{"type":"Point","coordinates":[35.313393,37.002049]}},{"type":"Feature","properties":{"osm_id":"1297571820","station_name":"Mavi Bulvar","element_type":"node","station_id":"1297571820"},"geometry":{"type":"Point","coordinates":[35.287858,37.035607]}},{"type":"Feature","properties":{"osm_id":"1291984370","station_name":"Kurttepe - Anadolu Lisesi","element_type":"node","station_id":"1291984370"},"geometry":{"type":"Point","coordinates":[35.280142,37.047681]}},{"type":"Feature","properties":{"osm_id":"1291984223","station_name":"Hastane","element_type":"node","station_id":"1291984223"},"geometry":{"type":"Point","coordinates":[35.26299,37.050591]}}]}