{"type":"FeatureCollection","generator":"metroOsmFetch (OpenStreetMap / Overpass, ODbL)","features":[{"type":"Feature","properties":{"route_company":"","route_id":"19925415","element_type":"way","color":"#1ca8c9","route_name":"M5 (Kızılay – İlkbahar Mahallesi) Metro Hattı","osm_id":"19925415","railway":"subway"},"geometry":{"type":"LineString","coordinates":[[32.852788,39.917063],[32.854118,39.910168],[32.855945,39.909292],[32.863733,39.908892],[32.865515,39.907391],[32.865605,39.9057],[32.850681,39.896193],[32.847007,39.896057],[32.839743,39.898257],[32.836003,39.898256],[32.824058,39.890779],[32.823404,39.887904],[32.827774,39.883841],[32.840549,39.88082],[32.84175,39.87979],[32.842006,39.877838],[32.840409,39.876225],[32.823207,39.869763],[32.81072,39.853798],[32.810197,39.8518],[32.818233,39.845408],[32.820003,39.84498],[32.834026,39.851512],[32.843252,39.846957],[32.847791,39.846545],[32.851235,39.847986],[32.85308,39.850416],[32.853928,39.854757],[32.851632,39.858685]]}},{"type":"Feature","properties":{"route_company":"EGO Genel Müdürlüğü","route_id":"M1","element_type":"way","color":"#3497d6","route_name":"M1","osm_id":"456707","railway":"subway"},"geometry":{"type":"LineString","coordinates":[[32.853725,39.920137],[32.855002,39.928178],[32.850674,39.939251],[32.844213,39.943578],[32.83418,39.951602],[32.817057,39.957256],[32.804607,39.961987],[32.793983,39.96552],[32.78347,39.969244],[32.766632,39.971927],[32.744915,39.97025],[32.726815,39.968238]]}},{"type":"Feature","properties":{"route_company":"EGO Genel Müdürlüğü","route_id":"M2","element_type":"way","color":"#3497d6","route_name":"M2","osm_id":"3604162","railway":"subway"},"geometry":{"type":"LineString","coordinates":[[32.853725,39.920137],[32.844426,39.91521],[32.827215,39.915277],[32.808009,39.91086],[32.796323,39.908992],[32.784567,39.908451],[32.76539,39.907638],[32.750078,39.907018],[32.733263,39.906318],[32.707863,39.905447],[32.690944,39.897847],[32.686244,39.886896]]}},{"type":"Feature","properties":{"route_company":"EGO Genel Müdürlüğü","route_id":"M3","element_type":"way","color":"#3497d6","route_name":"M3","osm_id":"7878077","railway":"subway"},"geometry":{"type":"LineString","coordinates":[[32.726815,39.968238],[32.715323,39.967718],[32.703127,39.971756],[32.69424,39.980798],[32.662711,39.979666],[32.647872,39.980505],[32.627373,39.981141],[32.613221,39.98156],[32.598386,39.982284],[32.585306,39.984091],[32.574343,39.985573],[32.559037,39.987712]]}},{"type":"Feature","properties":{"route_company":"EGO Genel Müdürlüğü","route_id":"M4","element_type":"way","color":"#ef805e","route_name":"M4","osm_id":"7981739","railway":"subway"},"geometry":{"type":"LineString","coordinates":[[32.853725,39.920137],[32.850503,39.930631],[32.842584,39.933244],[32.844213,39.943578],[32.850491,39.947715],[32.858762,39.955386],[32.864045,39.966388],[32.868234,39.977933],[32.875378,39.983749],[32.875514,39.990358],[32.87033,39.999842],[32.86087,39.996283]]}},{"type":"Feature","properties":{"route_company":"EGO Genel Müdürlüğü","route_id":"A","element_type":"way","color":"#0a6c1b","route_name":"Ankaray","osm_id":"456693","railway":"subway"},"geometry":{"type":"LineString","coordinates":[[32.814421,39.918259],[32.814923,39.9232],[32.819985,39.931105],[32.828529,39.932582],[32.837265,39.934738],[32.842584,39.933244],[32.847662,39.925701],[32.853725,39.920137],[32.861424,39.923359],[32.868447,39.928267],[32.878032,39.932534]]}},{"type":"Feature","properties":{"osm_id":"6559768310","station_name":"15 Temmuz Kızılay Millî İrade","element_type":"node","station_id":"6559768310"},"geometry":{"type":"Point","coordinates":[32.853725,39.920137]}},{"type":"Feature","properties":{"osm_id":"8150747489","station_name":"Sıhhiye","element_type":"node","station_id":"8150747489"},"geometry":{"type":"Point","coordinates":[32.855002,39.928178]}},{"type":"Feature","properties":{"osm_id":"8101959603","station_name":"Ulus","element_type":"node","station_id":"8101959603"},"geometry":{"type":"Point","coordinates":[32.850674,39.939251]}},{"type":"Feature","properties":{"osm_id":"9164521695","station_name":"Atatürk Kültür Merkezi","element_type":"node","station_id":"9164521695"},"geometry":{"type":"Point","coordinates":[32.844213,39.943578]}},{"type":"Feature","properties":{"osm_id":"8103161145","station_name":"Akköprü","element_type":"node","station_id":"8103161145"},"geometry":{"type":"Point","coordinates":[32.83418,39.951602]}},{"type":"Feature","properties":{"osm_id":"8101820898","station_name":"İvedik","element_type":"node","station_id":"8101820898"},"geometry":{"type":"Point","coordinates":[32.817057,39.957256]}},{"type":"Feature","properties":{"osm_id":"8101820873","station_name":"Yenimahalle","element_type":"node","station_id":"8101820873"},"geometry":{"type":"Point","coordinates":[32.804607,39.961987]}},{"type":"Feature","properties":{"osm_id":"8102682501","station_name":"Demetevler","element_type":"node","station_id":"8102682501"},"geometry":{"type":"Point","coordinates":[32.793983,39.96552]}},{"type":"Feature","properties":{"osm_id":"8102482895","station_name":"Hastane","element_type":"node","station_id":"8102482895"},"geometry":{"type":"Point","coordinates":[32.78347,39.969244]}},{"type":"Feature","properties":{"osm_id":"6559799439","station_name":"Macunköy","element_type":"node","station_id":"6559799439"},"geometry":{"type":"Point","coordinates":[32.766632,39.971927]}},{"type":"Feature","properties":{"osm_id":"8102140487","station_name":"OSTİM","element_type":"node","station_id":"8102140487"},"geometry":{"type":"Point","coordinates":[32.744915,39.97025]}},{"type":"Feature","properties":{"osm_id":"5388669626","station_name":"Batıkent","element_type":"node","station_id":"5388669626"},"geometry":{"type":"Point","coordinates":[32.726815,39.968238]}},{"type":"Feature","properties":{"osm_id":"8954619257","station_name":"Necatibey","element_type":"node","station_id":"8954619257"},"geometry":{"type":"Point","coordinates":[32.844426,39.91521]}},{"type":"Feature","properties":{"osm_id":"9211960694","station_name":"Millî Kütüphane","element_type":"node","station_id":"9211960694"},"geometry":{"type":"Point","coordinates":[32.827215,39.915277]}},{"type":"Feature","properties":{"osm_id":"9211960693","station_name":"Söğütözü","element_type":"node","station_id":"9211960693"},"geometry":{"type":"Point","coordinates":[32.808009,39.91086]}},{"type":"Feature","properties":{"osm_id":"9211960692","station_name":"MTA","element_type":"node","station_id":"9211960692"},"geometry":{"type":"Point","coordinates":[32.796323,39.908992]}},{"type":"Feature","properties":{"osm_id":"9211960691","station_name":"ODTÜ","element_type":"node","station_id":"9211960691"},"geometry":{"type":"Point","coordinates":[32.784567,39.908451]}},{"type":"Feature","properties":{"osm_id":"9211960690","station_name":"Bilkent","element_type":"node","station_id":"9211960690"},"geometry":{"type":"Point","coordinates":[32.76539,39.907638]}},{"type":"Feature","properties":{"osm_id":"9211960689","station_name":"Tarım Bakanlığı-Danıştay","element_type":"node","station_id":"9211960689"},"geometry":{"type":"Point","coordinates":[32.750078,39.907018]}},{"type":"Feature","properties":{"osm_id":"9211960688","station_name":"Beytepe","element_type":"node","station_id":"9211960688"},"geometry":{"type":"Point","coordinates":[32.733263,39.906318]}},{"type":"Feature","properties":{"osm_id":"9211960687","station_name":"Ümitköy","element_type":"node","station_id":"9211960687"},"geometry":{"type":"Point","coordinates":[32.707863,39.905447]}},{"type":"Feature","properties":{"osm_id":"9211960686","station_name":"Çayyolu","element_type":"node","station_id":"9211960686"},"geometry":{"type":"Point","coordinates":[32.690944,39.897847]}},{"type":"Feature","properties":{"osm_id":"9211960685","station_name":"Koru","element_type":"node","station_id":"9211960685"},"geometry":{"type":"Point","coordinates":[32.686244,39.886896]}},{"type":"Feature","properties":{"osm_id":"8100388143","station_name":"Batı Merkez","element_type":"node","station_id":"8100388143"},"geometry":{"type":"Point","coordinates":[32.715323,39.967718]}},{"type":"Feature","properties":{"osm_id":"8100619482","station_name":"Mesa","element_type":"node","station_id":"8100619482"},"geometry":{"type":"Point","coordinates":[32.703127,39.971756]}},{"type":"Feature","properties":{"osm_id":"8100557864","station_name":"Botanik","element_type":"node","station_id":"8100557864"},"geometry":{"type":"Point","coordinates":[32.69424,39.980798]}},{"type":"Feature","properties":{"osm_id":"8100532184","station_name":"İstanbul Yolu","element_type":"node","station_id":"8100532184"},"geometry":{"type":"Point","coordinates":[32.662711,39.979666]}},{"type":"Feature","properties":{"osm_id":"8100531117","station_name":"Eryaman 1-2","element_type":"node","station_id":"8100531117"},"geometry":{"type":"Point","coordinates":[32.647872,39.980505]}},{"type":"Feature","properties":{"osm_id":"8100515657","station_name":"Eryaman 5","element_type":"node","station_id":"8100515657"},"geometry":{"type":"Point","coordinates":[32.627373,39.981141]}},{"type":"Feature","properties":{"osm_id":"8100504867","station_name":"Devlet Mahallesi/1910 Ankaragücü","element_type":"node","station_id":"8100504867"},"geometry":{"type":"Point","coordinates":[32.613221,39.98156]}},{"type":"Feature","properties":{"osm_id":"8100473431","station_name":"Harikalar Diyarı","element_type":"node","station_id":"8100473431"},"geometry":{"type":"Point","coordinates":[32.598386,39.982284]}},{"type":"Feature","properties":{"osm_id":"8100386347","station_name":"Fatih","element_type":"node","station_id":"8100386347"},"geometry":{"type":"Point","coordinates":[32.585306,39.984091]}},{"type":"Feature","properties":{"osm_id":"8100386336","station_name":"GOP","element_type":"node","station_id":"8100386336"},"geometry":{"type":"Point","coordinates":[32.574343,39.985573]}},{"type":"Feature","properties":{"osm_id":"8100386327","station_name":"OSB-Törekent","element_type":"node","station_id":"8100386327"},"geometry":{"type":"Point","coordinates":[32.559037,39.987712]}},{"type":"Feature","properties":{"osm_id":"7117492093","station_name":"Adliye","element_type":"node","station_id":"7117492093"},"geometry":{"type":"Point","coordinates":[32.850503,39.930631]}},{"type":"Feature","properties":{"osm_id":"7117492088","station_name":"Gar","element_type":"node","station_id":"7117492088"},"geometry":{"type":"Point","coordinates":[32.842584,39.933244]}},{"type":"Feature","properties":{"osm_id":"4597987424","station_name":"ASKİ","element_type":"node","station_id":"4597987424"},"geometry":{"type":"Point","coordinates":[32.850491,39.947715]}},{"type":"Feature","properties":{"osm_id":"4597987421","station_name":"Dışkapı","element_type":"node","station_id":"4597987421"},"geometry":{"type":"Point","coordinates":[32.858762,39.955386]}},{"type":"Feature","properties":{"osm_id":"4597987420","station_name":"Meteoroloji","element_type":"node","station_id":"4597987420"},"geometry":{"type":"Point","coordinates":[32.864045,39.966388]}},{"type":"Feature","properties":{"osm_id":"4592026953","station_name":"Belediye","element_type":"node","station_id":"4592026953"},"geometry":{"type":"Point","coordinates":[32.868234,39.977933]}},{"type":"Feature","properties":{"osm_id":"4592026960","station_name":"Mecidiye","element_type":"node","station_id":"4592026960"},"geometry":{"type":"Point","coordinates":[32.875378,39.983749]}},{"type":"Feature","properties":{"osm_id":"4592030298","station_name":"Kuyubaşı","element_type":"node","station_id":"4592030298"},"geometry":{"type":"Point","coordinates":[32.875514,39.990358]}},{"type":"Feature","properties":{"osm_id":"4592030313","station_name":"Duygu Eczanesi","element_type":"node","station_id":"4592030313"},"geometry":{"type":"Point","coordinates":[32.87033,39.999842]}},{"type":"Feature","properties":{"osm_id":"4592030316","station_name":"Şehitler","element_type":"node","station_id":"4592030316"},"geometry":{"type":"Point","coordinates":[32.86087,39.996283]}},{"type":"Feature","properties":{"osm_id":"8994135973","station_name":"AŞTİ","element_type":"node","station_id":"8994135973"},"geometry":{"type":"Point","coordinates":[32.814421,39.918259]}},{"type":"Feature","properties":{"osm_id":"8994135972","station_name":"Emek","element_type":"node","station_id":"8994135972"},"geometry":{"type":"Point","coordinates":[32.814923,39.9232]}},{"type":"Feature","properties":{"osm_id":"8994135971","station_name":"Bahçelievler","element_type":"node","station_id":"8994135971"},"geometry":{"type":"Point","coordinates":[32.819985,39.931105]}},{"type":"Feature","properties":{"osm_id":"8994135970","station_name":"Beşevler","element_type":"node","station_id":"8994135970"},"geometry":{"type":"Point","coordinates":[32.828529,39.932582]}},{"type":"Feature","properties":{"osm_id":"8994135959","station_name":"Anadolu/Anıtkabir","element_type":"node","station_id":"8994135959"},"geometry":{"type":"Point","coordinates":[32.837265,39.934738]}},{"type":"Feature","properties":{"osm_id":"8994135969","station_name":"Demirtepe","element_type":"node","station_id":"8994135969"},"geometry":{"type":"Point","coordinates":[32.847662,39.925701]}},{"type":"Feature","properties":{"osm_id":"8994135975","station_name":"Kolej","element_type":"node","station_id":"8994135975"},"geometry":{"type":"Point","coordinates":[32.861424,39.923359]}},{"type":"Feature","properties":{"osm_id":"8994135976","station_name":"Kurtuluş","element_type":"node","station_id":"8994135976"},"geometry":{"type":"Point","coordinates":[32.868447,39.928267]}},{"type":"Feature","properties":{"osm_id":"8994135977","station_name":"Dikimevi","element_type":"node","station_id":"8994135977"},"geometry":{"type":"Point","coordinates":[32.878032,39.932534]}}]}