{"type":"FeatureCollection","generator":"metroOsmFetch (OpenStreetMap / Overpass, ODbL)","features":[{"type":"Feature","properties":{"route_company":"高雄捷運股份有限公司","route_id":"6826886","element_type":"way","color":"#80b352","route_name":"高雄環狀輕軌 (順行)","osm_id":"6826886","railway":"light_rail","status":"open"},"geometry":{"type":"LineString","coordinates":[[120.322815,22.62942],[120.323638,22.625169],[120.325169,22.621169],[120.326817,22.616887],[120.327137,22.612511],[120.326042,22.608476],[120.324602,22.604578],[120.31978,22.599575],[120.315241,22.596257],[120.310532,22.593625],[120.304927,22.595011],[120.302653,22.600907],[120.300817,22.605689],[120.298006,22.610123],[120.293353,22.61165],[120.293166,22.616678],[120.289441,22.619325],[120.284219,22.618513],[120.279954,22.620482],[120.275328,22.621488],[120.278699,22.626521],[120.280722,22.629555],[120.282594,22.63605],[120.281087,22.642048],[120.281456,22.647043],[120.281763,22.652111],[120.282842,22.65494],[120.287251,22.654959],[120.291086,22.654786],[120.295057,22.654451],[120.302906,22.656569],[120.308238,22.656697],[120.314861,22.655591],[120.318534,22.653752],[120.323773,22.650038],[120.326187,22.644142],[120.327292,22.637367],[120.325769,22.633183],[120.322815,22.62942]]}},{"type":"Feature","properties":{"route_company":"高雄捷運股份有限公司","route_id":"R","element_type":"way","color":"#ff0000","route_name":"高雄捷運紅線 小港-岡山車站","osm_id":"4174828","railway":"subway","status":"open"},"geometry":{"type":"LineString","coordinates":[[120.353876,22.564514],[120.341627,22.570116],[120.328769,22.580548],[120.321741,22.588412],[120.315241,22.596257],[120.307878,22.60618],[120.304422,22.614153],[120.301201,22.624849],[120.302287,22.631279],[120.302652,22.639335],[120.303221,22.647739],[120.302906,22.656569],[120.303412,22.665862],[120.306993,22.677254],[120.309019,22.688166],[120.30251,22.701754],[120.302306,22.708754],[120.307168,22.718712],[120.316255,22.72235],[120.320927,22.72961],[120.317724,22.744407],[120.314555,22.753556],[120.310693,22.760932],[120.301793,22.780809],[120.299067,22.792594]]}},{"type":"Feature","properties":{"route_company":"高雄捷運股份有限公司","route_id":"O","element_type":"way","color":"#ffa500","route_name":"高雄捷運橘線 哈瑪星-大寮","osm_id":"4174827","railway":"subway","status":"open"},"geometry":{"type":"LineString","coordinates":[[120.275328,22.621488],[120.284078,22.624155],[120.294628,22.628968],[120.302287,22.631279],[120.311452,22.630727],[120.317623,22.63027],[120.327648,22.629475],[120.33464,22.627251],[120.340799,22.625189],[120.348049,22.625363],[120.355209,22.625992],[120.363361,22.625192],[120.371827,22.624629],[120.390589,22.622117]]}},{"type":"Feature","properties":{"osm_id":"4430465312","station_name":"凱旋公園","element_type":"node","station_id":"4430465312"},"geometry":{"type":"Point","coordinates":[120.322815,22.62942]}},{"type":"Feature","properties":{"osm_id":"8300714837","station_name":"衛生局","element_type":"node","station_id":"8300714837"},"geometry":{"type":"Point","coordinates":[120.323638,22.625169]}},{"type":"Feature","properties":{"osm_id":"8300714838","station_name":"五權國小","element_type":"node","station_id":"8300714838"},"geometry":{"type":"Point","coordinates":[120.325169,22.621169]}},{"type":"Feature","properties":{"osm_id":"8300714840","station_name":"凱旋武昌","element_type":"node","station_id":"8300714840"},"geometry":{"type":"Point","coordinates":[120.326817,22.616887]}},{"type":"Feature","properties":{"osm_id":"4430464479","station_name":"凱旋二聖","element_type":"node","station_id":"4430464479"},"geometry":{"type":"Point","coordinates":[120.327137,22.612511]}},{"type":"Feature","properties":{"osm_id":"4430464469","station_name":"輕軌機廠","element_type":"node","station_id":"4430464469"},"geometry":{"type":"Point","coordinates":[120.326042,22.608476]}},{"type":"Feature","properties":{"osm_id":"5795560658","station_name":"籬仔內","element_type":"node","station_id":"5795560658"},"geometry":{"type":"Point","coordinates":[120.324602,22.604578]}},{"type":"Feature","properties":{"osm_id":"5795559552","station_name":"凱旋瑞田","element_type":"node","station_id":"5795559552"},"geometry":{"type":"Point","coordinates":[120.31978,22.599575]}},{"type":"Feature","properties":{"osm_id":"5795559550","station_name":"前鎮之星","element_type":"node","station_id":"R6"},"geometry":{"type":"Point","coordinates":[120.315241,22.596257]}},{"type":"Feature","properties":{"osm_id":"6480877561","station_name":"凱旋中華","element_type":"node","station_id":"6480877561"},"geometry":{"type":"Point","coordinates":[120.310532,22.593625]}},{"type":"Feature","properties":{"osm_id":"6480877563","station_name":"夢時代","element_type":"node","station_id":"6480877563"},"geometry":{"type":"Point","coordinates":[120.304927,22.595011]}},{"type":"Feature","properties":{"osm_id":"6480877571","station_name":"經貿園區","element_type":"node","station_id":"6480877571"},"geometry":{"type":"Point","coordinates":[120.302653,22.600907]}},{"type":"Feature","properties":{"osm_id":"6480877569","station_name":"軟體園區","element_type":"node","station_id":"6480877569"},"geometry":{"type":"Point","coordinates":[120.300817,22.605689]}},{"type":"Feature","properties":{"osm_id":"6480877567","station_name":"高雄展覽館","element_type":"node","station_id":"6480877567"},"geometry":{"type":"Point","coordinates":[120.298006,22.610123]}},{"type":"Feature","properties":{"osm_id":"6480877565","station_name":"旅運中心","element_type":"node","station_id":"6480877565"},"geometry":{"type":"Point","coordinates":[120.293353,22.61165]}},{"type":"Feature","properties":{"osm_id":"6480877574","station_name":"光榮碼頭","element_type":"node","station_id":"6480877574"},"geometry":{"type":"Point","coordinates":[120.293166,22.616678]}},{"type":"Feature","properties":{"osm_id":"6480877575","station_name":"真愛碼頭","element_type":"node","station_id":"6480877575"},"geometry":{"type":"Point","coordinates":[120.289441,22.619325]}},{"type":"Feature","properties":{"osm_id":"6480877579","station_name":"駁二大義","element_type":"node","station_id":"6480877579"},"geometry":{"type":"Point","coordinates":[120.284219,22.618513]}},{"type":"Feature","properties":{"osm_id":"6480877577","station_name":"駁二蓬萊","element_type":"node","station_id":"6480877577"},"geometry":{"type":"Point","coordinates":[120.279954,22.620482]}},{"type":"Feature","properties":{"osm_id":"5795560656","station_name":"哈瑪星","element_type":"node","station_id":"O1"},"geometry":{"type":"Point","coordinates":[120.275328,22.621488]}},{"type":"Feature","properties":{"osm_id":"5963969987","station_name":"壽山公園","element_type":"node","station_id":"5963969987"},"geometry":{"type":"Point","coordinates":[120.278699,22.626521]}},{"type":"Feature","properties":{"osm_id":"4430484274","station_name":"文武聖殿","element_type":"node","station_id":"4430484274"},"geometry":{"type":"Point","coordinates":[120.280722,22.629555]}},{"type":"Feature","properties":{"osm_id":"4430485490","station_name":"鼓山區公所","element_type":"node","station_id":"4430485490"},"geometry":{"type":"Point","coordinates":[120.282594,22.63605]}},{"type":"Feature","properties":{"osm_id":"9110151933","station_name":"鼓山","element_type":"node","station_id":"9110151933"},"geometry":{"type":"Point","coordinates":[120.281087,22.642048]}},{"type":"Feature","properties":{"osm_id":"9110151925","station_name":"馬卡道","element_type":"node","station_id":"9110151925"},"geometry":{"type":"Point","coordinates":[120.281456,22.647043]}},{"type":"Feature","properties":{"osm_id":"9110151959","station_name":"臺鐵美術館","element_type":"node","station_id":"9110151959"},"geometry":{"type":"Point","coordinates":[120.281763,22.652111]}},{"type":"Feature","properties":{"osm_id":"9775364848","station_name":"內惟藝術中心","element_type":"node","station_id":"9775364848"},"geometry":{"type":"Point","coordinates":[120.282842,22.65494]}},{"type":"Feature","properties":{"osm_id":"9775364846","station_name":"美術館","element_type":"node","station_id":"9775364846"},"geometry":{"type":"Point","coordinates":[120.287251,22.654959]}},{"type":"Feature","properties":{"osm_id":"9775364844","station_name":"聯合醫院","element_type":"node","station_id":"9775364844"},"geometry":{"type":"Point","coordinates":[120.291086,22.654786]}},{"type":"Feature","properties":{"osm_id":"9775364843","station_name":"龍華國小","element_type":"node","station_id":"9775364843"},"geometry":{"type":"Point","coordinates":[120.295057,22.654451]}},{"type":"Feature","properties":{"osm_id":"9775364838","station_name":"愛河之心","element_type":"node","station_id":"R13"},"geometry":{"type":"Point","coordinates":[120.302906,22.656569]}},{"type":"Feature","properties":{"osm_id":"11475823962","station_name":"新上國小","element_type":"node","station_id":"11475823962"},"geometry":{"type":"Point","coordinates":[120.308238,22.656697]}},{"type":"Feature","properties":{"osm_id":"11475823961","station_name":"大順民族","element_type":"node","station_id":"C26"},"geometry":{"type":"Point","coordinates":[120.314861,22.655591]}},{"type":"Feature","properties":{"osm_id":"11466206756","station_name":"灣仔內","element_type":"node","station_id":"C27"},"geometry":{"type":"Point","coordinates":[120.318534,22.653752]}},{"type":"Feature","properties":{"osm_id":"11466206749","station_name":"高雄高工","element_type":"node","station_id":"C28"},"geometry":{"type":"Point","coordinates":[120.323773,22.650038]}},{"type":"Feature","properties":{"osm_id":"11466206746","station_name":"樹德家商","element_type":"node","station_id":"C29"},"geometry":{"type":"Point","coordinates":[120.326187,22.644142]}},{"type":"Feature","properties":{"osm_id":"11466206735","station_name":"科工館","element_type":"node","station_id":"C30"},"geometry":{"type":"Point","coordinates":[120.327292,22.637367]}},{"type":"Feature","properties":{"osm_id":"11466206729","station_name":"聖功醫院","element_type":"node","station_id":"C31"},"geometry":{"type":"Point","coordinates":[120.325769,22.633183]}},{"type":"Feature","properties":{"osm_id":"4579346760","station_name":"小港","element_type":"node","station_id":"R3"},"geometry":{"type":"Point","coordinates":[120.353876,22.564514]}},{"type":"Feature","properties":{"osm_id":"4579346758","station_name":"高雄國際機場","element_type":"node","station_id":"R4"},"geometry":{"type":"Point","coordinates":[120.341627,22.570116]}},{"type":"Feature","properties":{"osm_id":"4579346759","station_name":"草衙","element_type":"node","station_id":"R4A"},"geometry":{"type":"Point","coordinates":[120.328769,22.580548]}},{"type":"Feature","properties":{"osm_id":"4579352785","station_name":"前鎮高中","element_type":"node","station_id":"R5"},"geometry":{"type":"Point","coordinates":[120.321741,22.588412]}},{"type":"Feature","properties":{"osm_id":"4579353571","station_name":"獅甲","element_type":"node","station_id":"R7"},"geometry":{"type":"Point","coordinates":[120.307878,22.60618]}},{"type":"Feature","properties":{"osm_id":"4579363124","station_name":"三多商圈","element_type":"node","station_id":"R8"},"geometry":{"type":"Point","coordinates":[120.304422,22.614153]}},{"type":"Feature","properties":{"osm_id":"254984134","station_name":"中央公園","element_type":"node","station_id":"R9"},"geometry":{"type":"Point","coordinates":[120.301201,22.624849]}},{"type":"Feature","properties":{"osm_id":"8061865069","station_name":"美麗島","element_type":"node","station_id":"8061865069"},"geometry":{"type":"Point","coordinates":[120.302287,22.631279]}},{"type":"Feature","properties":{"osm_id":"4580663532","station_name":"高雄車站","element_type":"node","station_id":"R11"},"geometry":{"type":"Point","coordinates":[120.302652,22.639335]}},{"type":"Feature","properties":{"osm_id":"4580663527","station_name":"後驛","element_type":"node","station_id":"R12"},"geometry":{"type":"Point","coordinates":[120.303221,22.647739]}},{"type":"Feature","properties":{"osm_id":"9653406448","station_name":"巨蛋","element_type":"node","station_id":"9653406448"},"geometry":{"type":"Point","coordinates":[120.303412,22.665862]}},{"type":"Feature","properties":{"osm_id":"9653406443","station_name":"生態園區","element_type":"node","station_id":"9653406443"},"geometry":{"type":"Point","coordinates":[120.306993,22.677254]}},{"type":"Feature","properties":{"osm_id":"4580663531","station_name":"左營","element_type":"node","station_id":"R16"},"geometry":{"type":"Point","coordinates":[120.309019,22.688166]}},{"type":"Feature","properties":{"osm_id":"4580827632","station_name":"世運","element_type":"node","station_id":"R17"},"geometry":{"type":"Point","coordinates":[120.30251,22.701754]}},{"type":"Feature","properties":{"osm_id":"4580834623","station_name":"油廠國小","element_type":"node","station_id":"R18"},"geometry":{"type":"Point","coordinates":[120.302306,22.708754]}},{"type":"Feature","properties":{"osm_id":"4580837515","station_name":"楠梓科技園區","element_type":"node","station_id":"R19"},"geometry":{"type":"Point","coordinates":[120.307168,22.718712]}},{"type":"Feature","properties":{"osm_id":"4580845736","station_name":"後勁","element_type":"node","station_id":"R20"},"geometry":{"type":"Point","coordinates":[120.316255,22.72235]}},{"type":"Feature","properties":{"osm_id":"4580840208","station_name":"都會公園","element_type":"node","station_id":"R21"},"geometry":{"type":"Point","coordinates":[120.320927,22.72961]}},{"type":"Feature","properties":{"osm_id":"4580850452","station_name":"青埔","element_type":"node","station_id":"R22"},"geometry":{"type":"Point","coordinates":[120.317724,22.744407]}},{"type":"Feature","properties":{"osm_id":"4580876598","station_name":"橋頭糖廠","element_type":"node","station_id":"R22A"},"geometry":{"type":"Point","coordinates":[120.314555,22.753556]}},{"type":"Feature","properties":{"osm_id":"4580928832","station_name":"橋頭火車站","element_type":"node","station_id":"R23"},"geometry":{"type":"Point","coordinates":[120.310693,22.760932]}},{"type":"Feature","properties":{"osm_id":"1636204114","station_name":"岡山高醫","element_type":"node","station_id":"1636204114"},"geometry":{"type":"Point","coordinates":[120.301793,22.780809]}},{"type":"Feature","properties":{"osm_id":"12022098640","station_name":"岡山車站","element_type":"node","station_id":"12022098640"},"geometry":{"type":"Point","coordinates":[120.299067,22.792594]}},{"type":"Feature","properties":{"osm_id":"4580663525","station_name":"鹽埕埔","element_type":"node","station_id":"O2"},"geometry":{"type":"Point","coordinates":[120.284078,22.624155]}},{"type":"Feature","properties":{"osm_id":"4580663528","station_name":"前金","element_type":"node","station_id":"O4"},"geometry":{"type":"Point","coordinates":[120.294628,22.628968]}},{"type":"Feature","properties":{"osm_id":"4581486083","station_name":"信義國小","element_type":"node","station_id":"O6"},"geometry":{"type":"Point","coordinates":[120.311452,22.630727]}},{"type":"Feature","properties":{"osm_id":"4581486084","station_name":"文化中心","element_type":"node","station_id":"O7"},"geometry":{"type":"Point","coordinates":[120.317623,22.63027]}},{"type":"Feature","properties":{"osm_id":"4581491487","station_name":"五塊厝","element_type":"node","station_id":"O8"},"geometry":{"type":"Point","coordinates":[120.327648,22.629475]}},{"type":"Feature","properties":{"osm_id":"4581492319","station_name":"苓雅運動園區","element_type":"node","station_id":"O9"},"geometry":{"type":"Point","coordinates":[120.33464,22.627251]}},{"type":"Feature","properties":{"osm_id":"4581495519","station_name":"衛武營","element_type":"node","station_id":"O10"},"geometry":{"type":"Point","coordinates":[120.340799,22.625189]}},{"type":"Feature","properties":{"osm_id":"4581502018","station_name":"鳳山西站","element_type":"node","station_id":"O11"},"geometry":{"type":"Point","coordinates":[120.348049,22.625363]}},{"type":"Feature","properties":{"osm_id":"4581503591","station_name":"鳳山","element_type":"node","station_id":"O12"},"geometry":{"type":"Point","coordinates":[120.355209,22.625992]}},{"type":"Feature","properties":{"osm_id":"4582336214","station_name":"大東","element_type":"node","station_id":"O13"},"geometry":{"type":"Point","coordinates":[120.363361,22.625192]}},{"type":"Feature","properties":{"osm_id":"4582339822","station_name":"鳳山國中","element_type":"node","station_id":"O14"},"geometry":{"type":"Point","coordinates":[120.371827,22.624629]}},{"type":"Feature","properties":{"osm_id":"5792157308","station_name":"大寮","element_type":"node","station_id":"OT1"},"geometry":{"type":"Point","coordinates":[120.390589,22.622117]}},{"type":"Feature","properties":{"route_company":"","route_id":"850496178","element_type":"way","color":"#f58231","route_name":"岡山路竹延伸線(第二A階段)","osm_id":"850496178","railway":"subway","status":"construction"},"geometry":{"type":"LineString","coordinates":[[120.298968,22.793552],[120.298469,22.796882],[120.280962,22.810847],[120.267503,22.823074],[120.260449,22.858385],[120.256809,22.865253],[120.252299,22.877762],[120.242302,22.889177]]}},{"type":"Feature","properties":{"route_company":"","route_id":"850499175","element_type":"way","color":"#911eb4","route_name":"小港林園線","osm_id":"850499175","railway":"subway","status":"proposed"},"geometry":{"type":"LineString","coordinates":[[120.355591,22.562493],[120.365821,22.549919],[120.373434,22.538081],[120.372579,22.534501],[120.361142,22.514132],[120.36269,22.51043],[120.371528,22.505146],[120.382652,22.503257],[120.386847,22.500175],[120.401263,22.500923],[120.409335,22.498307]]}},{"type":"Feature","properties":{"route_company":"","route_id":"850502539","element_type":"way","color":"#1ca8c9","route_name":"大寮林園線","osm_id":"850502539","railway":"subway","status":"proposed"},"geometry":{"type":"LineString","coordinates":[[120.387411,22.624727],[120.394032,22.613983],[120.396278,22.606675],[120.401224,22.596516],[120.410616,22.592643],[120.419839,22.590764],[120.422132,22.576476],[120.421419,22.572343],[120.41212,22.557983],[120.412619,22.554296],[120.411551,22.547212],[120.408885,22.537908],[120.396331,22.520687],[120.395254,22.515644],[120.397964,22.500841]]}}]}