{"type":"FeatureCollection","generator":"metroOsmFetch (OpenStreetMap / Overpass, ODbL)","features":[{"type":"Feature","properties":{"route_company":"高雄捷運股份有限公司","route_id":"6826886","element_type":"way","color":"#80b352","route_name":"高雄環狀輕軌 (順行)","osm_id":"6826886","railway":"light_rail","status":"open"},"geometry":{"type":"LineString","coordinates":[[120.322825,22.629414],[120.323652,22.625175],[120.325182,22.621173],[120.326828,22.61689],[120.327148,22.61251],[120.326052,22.608474],[120.324612,22.604575],[120.319789,22.599565],[120.315289,22.595997],[120.310536,22.593616],[120.304912,22.595006],[120.302635,22.600902],[120.300801,22.605685],[120.29801,22.610109],[120.293347,22.611638],[120.293151,22.616686],[120.289445,22.619315],[120.284213,22.618501],[120.279947,22.62047],[120.275494,22.621532],[120.278677,22.626531],[120.280713,22.629565],[120.282579,22.636047],[120.281079,22.642048],[120.281441,22.647045],[120.281749,22.652113],[120.282841,22.654967],[120.287252,22.654989],[120.291087,22.65481],[120.295054,22.65449],[120.303151,22.656482],[120.308754,22.656644],[120.315391,22.655469],[120.318892,22.653536],[120.324105,22.649822],[120.326364,22.643749],[120.327157,22.636951],[120.325581,22.632838]]}},{"type":"Feature","properties":{"route_company":"高雄捷運股份有限公司","route_id":"R","element_type":"way","color":"#ff0000","route_name":"高雄捷運紅線 小港-岡山車站","osm_id":"4174828","railway":"subway","status":"open"},"geometry":{"type":"LineString","coordinates":[[120.353876,22.564514],[120.341627,22.570116],[120.328769,22.580548],[120.321741,22.588412],[120.315289,22.595997],[120.307878,22.60618],[120.304422,22.614153],[120.301201,22.624849],[120.302287,22.631279],[120.302652,22.639335],[120.303221,22.647739],[120.303151,22.656482],[120.303412,22.665862],[120.306993,22.677254],[120.309019,22.688166],[120.30251,22.701754],[120.302306,22.708754],[120.307168,22.718712],[120.316255,22.72235],[120.320927,22.72961],[120.317724,22.744407],[120.314555,22.753556],[120.310693,22.760932],[120.301793,22.780809],[120.299067,22.792594]]}},{"type":"Feature","properties":{"route_company":"高雄捷運股份有限公司","route_id":"O","element_type":"way","color":"#ffa500","route_name":"高雄捷運橘線 哈瑪星-大寮","osm_id":"4174827","railway":"subway","status":"open"},"geometry":{"type":"LineString","coordinates":[[120.275494,22.621532],[120.284078,22.624155],[120.294628,22.628968],[120.302287,22.631279],[120.311452,22.630727],[120.317623,22.63027],[120.327648,22.629475],[120.33464,22.627251],[120.340799,22.625189],[120.348049,22.625363],[120.355209,22.625992],[120.363361,22.625192],[120.371827,22.624629],[120.390589,22.622117]]}},{"type":"Feature","properties":{"osm_id":"4430465312","station_name":"凱旋公園","element_type":"node","station_id":"4430465312"},"geometry":{"type":"Point","coordinates":[120.322825,22.629414]}},{"type":"Feature","properties":{"osm_id":"8300714837","station_name":"衛生局","element_type":"node","station_id":"8300714837"},"geometry":{"type":"Point","coordinates":[120.323652,22.625175]}},{"type":"Feature","properties":{"osm_id":"8300714838","station_name":"五權國小","element_type":"node","station_id":"8300714838"},"geometry":{"type":"Point","coordinates":[120.325182,22.621173]}},{"type":"Feature","properties":{"osm_id":"8300714840","station_name":"凱旋武昌","element_type":"node","station_id":"8300714840"},"geometry":{"type":"Point","coordinates":[120.326828,22.61689]}},{"type":"Feature","properties":{"osm_id":"4430464479","station_name":"凱旋二聖","element_type":"node","station_id":"4430464479"},"geometry":{"type":"Point","coordinates":[120.327148,22.61251]}},{"type":"Feature","properties":{"osm_id":"4430464469","station_name":"輕軌機廠","element_type":"node","station_id":"4430464469"},"geometry":{"type":"Point","coordinates":[120.326052,22.608474]}},{"type":"Feature","properties":{"osm_id":"5795560658","station_name":"籬仔內","element_type":"node","station_id":"5795560658"},"geometry":{"type":"Point","coordinates":[120.324612,22.604575]}},{"type":"Feature","properties":{"osm_id":"5795559552","station_name":"凱旋瑞田","element_type":"node","station_id":"5795559552"},"geometry":{"type":"Point","coordinates":[120.319789,22.599565]}},{"type":"Feature","properties":{"osm_id":"5795559550","station_name":"前鎮之星","element_type":"node","station_id":"R6"},"geometry":{"type":"Point","coordinates":[120.315289,22.595997]}},{"type":"Feature","properties":{"osm_id":"6480877561","station_name":"凱旋中華","element_type":"node","station_id":"6480877561"},"geometry":{"type":"Point","coordinates":[120.310536,22.593616]}},{"type":"Feature","properties":{"osm_id":"6480877563","station_name":"夢時代","element_type":"node","station_id":"6480877563"},"geometry":{"type":"Point","coordinates":[120.304912,22.595006]}},{"type":"Feature","properties":{"osm_id":"6480877571","station_name":"經貿園區","element_type":"node","station_id":"6480877571"},"geometry":{"type":"Point","coordinates":[120.302635,22.600902]}},{"type":"Feature","properties":{"osm_id":"6480877569","station_name":"軟體園區","element_type":"node","station_id":"6480877569"},"geometry":{"type":"Point","coordinates":[120.300801,22.605685]}},{"type":"Feature","properties":{"osm_id":"6480877567","station_name":"高雄展覽館","element_type":"node","station_id":"6480877567"},"geometry":{"type":"Point","coordinates":[120.29801,22.610109]}},{"type":"Feature","properties":{"osm_id":"6480877565","station_name":"旅運中心","element_type":"node","station_id":"6480877565"},"geometry":{"type":"Point","coordinates":[120.293347,22.611638]}},{"type":"Feature","properties":{"osm_id":"6480877574","station_name":"光榮碼頭","element_type":"node","station_id":"6480877574"},"geometry":{"type":"Point","coordinates":[120.293151,22.616686]}},{"type":"Feature","properties":{"osm_id":"6480877575","station_name":"真愛碼頭","element_type":"node","station_id":"6480877575"},"geometry":{"type":"Point","coordinates":[120.289445,22.619315]}},{"type":"Feature","properties":{"osm_id":"6480877579","station_name":"駁二大義","element_type":"node","station_id":"6480877579"},"geometry":{"type":"Point","coordinates":[120.284213,22.618501]}},{"type":"Feature","properties":{"osm_id":"6480877577","station_name":"駁二蓬萊","element_type":"node","station_id":"6480877577"},"geometry":{"type":"Point","coordinates":[120.279947,22.62047]}},{"type":"Feature","properties":{"osm_id":"5795560656","station_name":"哈瑪星","element_type":"node","station_id":"O1"},"geometry":{"type":"Point","coordinates":[120.275494,22.621532]}},{"type":"Feature","properties":{"osm_id":"5963969987","station_name":"壽山公園","element_type":"node","station_id":"5963969987"},"geometry":{"type":"Point","coordinates":[120.278677,22.626531]}},{"type":"Feature","properties":{"osm_id":"4430484274","station_name":"文武聖殿","element_type":"node","station_id":"4430484274"},"geometry":{"type":"Point","coordinates":[120.280713,22.629565]}},{"type":"Feature","properties":{"osm_id":"4430485490","station_name":"鼓山區公所","element_type":"node","station_id":"4430485490"},"geometry":{"type":"Point","coordinates":[120.282579,22.636047]}},{"type":"Feature","properties":{"osm_id":"9110151933","station_name":"鼓山","element_type":"node","station_id":"9110151933"},"geometry":{"type":"Point","coordinates":[120.281079,22.642048]}},{"type":"Feature","properties":{"osm_id":"9110151925","station_name":"馬卡道","element_type":"node","station_id":"9110151925"},"geometry":{"type":"Point","coordinates":[120.281441,22.647045]}},{"type":"Feature","properties":{"osm_id":"9110151959","station_name":"臺鐵美術館","element_type":"node","station_id":"9110151959"},"geometry":{"type":"Point","coordinates":[120.281749,22.652113]}},{"type":"Feature","properties":{"osm_id":"9775364848","station_name":"內惟藝術中心","element_type":"node","station_id":"9775364848"},"geometry":{"type":"Point","coordinates":[120.282841,22.654967]}},{"type":"Feature","properties":{"osm_id":"9775364846","station_name":"美術館","element_type":"node","station_id":"9775364846"},"geometry":{"type":"Point","coordinates":[120.287252,22.654989]}},{"type":"Feature","properties":{"osm_id":"9775364844","station_name":"聯合醫院","element_type":"node","station_id":"9775364844"},"geometry":{"type":"Point","coordinates":[120.291087,22.65481]}},{"type":"Feature","properties":{"osm_id":"9775364843","station_name":"龍華國小","element_type":"node","station_id":"9775364843"},"geometry":{"type":"Point","coordinates":[120.295054,22.65449]}},{"type":"Feature","properties":{"osm_id":"9775364838","station_name":"愛河之心","element_type":"node","station_id":"R13"},"geometry":{"type":"Point","coordinates":[120.303151,22.656482]}},{"type":"Feature","properties":{"osm_id":"11475823962","station_name":"新上國小","element_type":"node","station_id":"11475823962"},"geometry":{"type":"Point","coordinates":[120.308754,22.656644]}},{"type":"Feature","properties":{"osm_id":"11475823961","station_name":"大順民族","element_type":"node","station_id":"C26"},"geometry":{"type":"Point","coordinates":[120.315391,22.655469]}},{"type":"Feature","properties":{"osm_id":"11466206756","station_name":"灣仔內","element_type":"node","station_id":"C27"},"geometry":{"type":"Point","coordinates":[120.318892,22.653536]}},{"type":"Feature","properties":{"osm_id":"11466206749","station_name":"高雄高工","element_type":"node","station_id":"C28"},"geometry":{"type":"Point","coordinates":[120.324105,22.649822]}},{"type":"Feature","properties":{"osm_id":"11466206746","station_name":"樹德家商","element_type":"node","station_id":"C29"},"geometry":{"type":"Point","coordinates":[120.326364,22.643749]}},{"type":"Feature","properties":{"osm_id":"11466206735","station_name":"科工館","element_type":"node","station_id":"C30"},"geometry":{"type":"Point","coordinates":[120.327157,22.636951]}},{"type":"Feature","properties":{"osm_id":"11466206729","station_name":"聖功醫院","element_type":"node","station_id":"C31"},"geometry":{"type":"Point","coordinates":[120.325581,22.632838]}},{"type":"Feature","properties":{"osm_id":"4579346760","station_name":"小港","element_type":"node","station_id":"R3"},"geometry":{"type":"Point","coordinates":[120.353876,22.564514]}},{"type":"Feature","properties":{"osm_id":"4579346758","station_name":"高雄國際機場","element_type":"node","station_id":"R4"},"geometry":{"type":"Point","coordinates":[120.341627,22.570116]}},{"type":"Feature","properties":{"osm_id":"4579346759","station_name":"草衙","element_type":"node","station_id":"R4A"},"geometry":{"type":"Point","coordinates":[120.328769,22.580548]}},{"type":"Feature","properties":{"osm_id":"4579352785","station_name":"前鎮高中","element_type":"node","station_id":"R5"},"geometry":{"type":"Point","coordinates":[120.321741,22.588412]}},{"type":"Feature","properties":{"osm_id":"4579353571","station_name":"獅甲","element_type":"node","station_id":"R7"},"geometry":{"type":"Point","coordinates":[120.307878,22.60618]}},{"type":"Feature","properties":{"osm_id":"4579363124","station_name":"三多商圈","element_type":"node","station_id":"R8"},"geometry":{"type":"Point","coordinates":[120.304422,22.614153]}},{"type":"Feature","properties":{"osm_id":"254984134","station_name":"中央公園","element_type":"node","station_id":"R9"},"geometry":{"type":"Point","coordinates":[120.301201,22.624849]}},{"type":"Feature","properties":{"osm_id":"8061865069","station_name":"美麗島","element_type":"node","station_id":"8061865069"},"geometry":{"type":"Point","coordinates":[120.302287,22.631279]}},{"type":"Feature","properties":{"osm_id":"4580663532","station_name":"高雄車站","element_type":"node","station_id":"R11"},"geometry":{"type":"Point","coordinates":[120.302652,22.639335]}},{"type":"Feature","properties":{"osm_id":"4580663527","station_name":"後驛","element_type":"node","station_id":"R12"},"geometry":{"type":"Point","coordinates":[120.303221,22.647739]}},{"type":"Feature","properties":{"osm_id":"9653406448","station_name":"巨蛋","element_type":"node","station_id":"9653406448"},"geometry":{"type":"Point","coordinates":[120.303412,22.665862]}},{"type":"Feature","properties":{"osm_id":"9653406443","station_name":"生態園區","element_type":"node","station_id":"9653406443"},"geometry":{"type":"Point","coordinates":[120.306993,22.677254]}},{"type":"Feature","properties":{"osm_id":"4580663531","station_name":"左營","element_type":"node","station_id":"R16"},"geometry":{"type":"Point","coordinates":[120.309019,22.688166]}},{"type":"Feature","properties":{"osm_id":"4580827632","station_name":"世運","element_type":"node","station_id":"R17"},"geometry":{"type":"Point","coordinates":[120.30251,22.701754]}},{"type":"Feature","properties":{"osm_id":"4580834623","station_name":"油廠國小","element_type":"node","station_id":"R18"},"geometry":{"type":"Point","coordinates":[120.302306,22.708754]}},{"type":"Feature","properties":{"osm_id":"4580837515","station_name":"楠梓科技園區","element_type":"node","station_id":"R19"},"geometry":{"type":"Point","coordinates":[120.307168,22.718712]}},{"type":"Feature","properties":{"osm_id":"4580845736","station_name":"後勁","element_type":"node","station_id":"R20"},"geometry":{"type":"Point","coordinates":[120.316255,22.72235]}},{"type":"Feature","properties":{"osm_id":"4580840208","station_name":"都會公園","element_type":"node","station_id":"R21"},"geometry":{"type":"Point","coordinates":[120.320927,22.72961]}},{"type":"Feature","properties":{"osm_id":"4580850452","station_name":"青埔","element_type":"node","station_id":"R22"},"geometry":{"type":"Point","coordinates":[120.317724,22.744407]}},{"type":"Feature","properties":{"osm_id":"4580876598","station_name":"橋頭糖廠","element_type":"node","station_id":"R22A"},"geometry":{"type":"Point","coordinates":[120.314555,22.753556]}},{"type":"Feature","properties":{"osm_id":"4580928832","station_name":"橋頭火車站","element_type":"node","station_id":"R23"},"geometry":{"type":"Point","coordinates":[120.310693,22.760932]}},{"type":"Feature","properties":{"osm_id":"1636204114","station_name":"岡山高醫","element_type":"node","station_id":"1636204114"},"geometry":{"type":"Point","coordinates":[120.301793,22.780809]}},{"type":"Feature","properties":{"osm_id":"12022098640","station_name":"岡山車站","element_type":"node","station_id":"12022098640"},"geometry":{"type":"Point","coordinates":[120.299067,22.792594]}},{"type":"Feature","properties":{"osm_id":"4580663525","station_name":"鹽埕埔","element_type":"node","station_id":"O2"},"geometry":{"type":"Point","coordinates":[120.284078,22.624155]}},{"type":"Feature","properties":{"osm_id":"4580663528","station_name":"前金","element_type":"node","station_id":"O4"},"geometry":{"type":"Point","coordinates":[120.294628,22.628968]}},{"type":"Feature","properties":{"osm_id":"4581486083","station_name":"信義國小","element_type":"node","station_id":"O6"},"geometry":{"type":"Point","coordinates":[120.311452,22.630727]}},{"type":"Feature","properties":{"osm_id":"4581486084","station_name":"文化中心","element_type":"node","station_id":"O7"},"geometry":{"type":"Point","coordinates":[120.317623,22.63027]}},{"type":"Feature","properties":{"osm_id":"4581491487","station_name":"五塊厝","element_type":"node","station_id":"O8"},"geometry":{"type":"Point","coordinates":[120.327648,22.629475]}},{"type":"Feature","properties":{"osm_id":"4581492319","station_name":"苓雅運動園區","element_type":"node","station_id":"O9"},"geometry":{"type":"Point","coordinates":[120.33464,22.627251]}},{"type":"Feature","properties":{"osm_id":"4581495519","station_name":"衛武營","element_type":"node","station_id":"O10"},"geometry":{"type":"Point","coordinates":[120.340799,22.625189]}},{"type":"Feature","properties":{"osm_id":"4581502018","station_name":"鳳山西站","element_type":"node","station_id":"O11"},"geometry":{"type":"Point","coordinates":[120.348049,22.625363]}},{"type":"Feature","properties":{"osm_id":"4581503591","station_name":"鳳山","element_type":"node","station_id":"O12"},"geometry":{"type":"Point","coordinates":[120.355209,22.625992]}},{"type":"Feature","properties":{"osm_id":"4582336214","station_name":"大東","element_type":"node","station_id":"O13"},"geometry":{"type":"Point","coordinates":[120.363361,22.625192]}},{"type":"Feature","properties":{"osm_id":"4582339822","station_name":"鳳山國中","element_type":"node","station_id":"O14"},"geometry":{"type":"Point","coordinates":[120.371827,22.624629]}},{"type":"Feature","properties":{"osm_id":"5792157308","station_name":"大寮","element_type":"node","station_id":"OT1"},"geometry":{"type":"Point","coordinates":[120.390589,22.622117]}}]}