{"type":"FeatureCollection","generator":"metroOsmFetch (OpenStreetMap / Overpass, ODbL)","features":[{"type":"Feature","properties":{"osm_id":"4963787352","station_name":"北屯總站","element_type":"node","station_id":"103a"},"geometry":{"type":"Point","coordinates":[120.70879,24.189174]}},{"type":"Feature","properties":{"osm_id":"5731645673","station_name":"舊社","element_type":"node","station_id":"103"},"geometry":{"type":"Point","coordinates":[120.707315,24.182328]}},{"type":"Feature","properties":{"osm_id":"5731645677","station_name":"松竹","element_type":"node","station_id":"104"},"geometry":{"type":"Point","coordinates":[120.701389,24.180719]}},{"type":"Feature","properties":{"osm_id":"5731645680","station_name":"四維國小","element_type":"node","station_id":"105"},"geometry":{"type":"Point","coordinates":[120.693253,24.171256]}},{"type":"Feature","properties":{"osm_id":"5730724506","station_name":"文心崇德","element_type":"node","station_id":"106"},"geometry":{"type":"Point","coordinates":[120.684996,24.172185]}},{"type":"Feature","properties":{"osm_id":"5730724498","station_name":"文心中清","element_type":"node","station_id":"107"},"geometry":{"type":"Point","coordinates":[120.670588,24.17371]}},{"type":"Feature","properties":{"osm_id":"5730724490","station_name":"文華高中","element_type":"node","station_id":"108"},"geometry":{"type":"Point","coordinates":[120.660657,24.171509]}},{"type":"Feature","properties":{"osm_id":"5730724480","station_name":"文心櫻花","element_type":"node","station_id":"109"},"geometry":{"type":"Point","coordinates":[120.653891,24.167778]}},{"type":"Feature","properties":{"osm_id":"5731645686","station_name":"市政府","element_type":"node","station_id":"110"},"geometry":{"type":"Point","coordinates":[120.649221,24.162106]}},{"type":"Feature","properties":{"osm_id":"5731645688","station_name":"水安宮","element_type":"node","station_id":"111"},"geometry":{"type":"Point","coordinates":[120.646792,24.153242]}},{"type":"Feature","properties":{"osm_id":"5731645690","station_name":"文心森林公園","element_type":"node","station_id":"112"},"geometry":{"type":"Point","coordinates":[120.646722,24.145446]}},{"type":"Feature","properties":{"osm_id":"5731645692","station_name":"南屯","element_type":"node","station_id":"113"},"geometry":{"type":"Point","coordinates":[120.6467,24.14055]}},{"type":"Feature","properties":{"osm_id":"5731645694","station_name":"豐樂公園","element_type":"node","station_id":"114"},"geometry":{"type":"Point","coordinates":[120.646455,24.132338]}},{"type":"Feature","properties":{"osm_id":"5731645696","station_name":"大慶","element_type":"node","station_id":"115"},"geometry":{"type":"Point","coordinates":[120.647549,24.119052]}},{"type":"Feature","properties":{"osm_id":"5730723119","station_name":"九張犁","element_type":"node","station_id":"116"},"geometry":{"type":"Point","coordinates":[120.63996,24.114386]}},{"type":"Feature","properties":{"osm_id":"5730723117","station_name":"九德","element_type":"node","station_id":"117"},"geometry":{"type":"Point","coordinates":[120.63435,24.110934]}},{"type":"Feature","properties":{"osm_id":"5731645700","station_name":"烏日","element_type":"node","station_id":"118"},"geometry":{"type":"Point","coordinates":[120.624862,24.108874]}},{"type":"Feature","properties":{"osm_id":"13571689713","station_name":"高鐵臺中站","element_type":"node","station_id":"119"},"geometry":{"type":"Point","coordinates":[120.614107,24.110069]}},{"type":"Feature","properties":{"route_company":"臺中捷運公司","route_id":"1","element_type":"way","color":"#e6194b","route_name":"臺中捷運綠線高鐵台中站方向","osm_id":"11330355","railway":"subway","status":"open"},"geometry":{"type":"LineString","coordinates":[[120.70879,24.189174],[120.707315,24.182328],[120.701389,24.180719],[120.693253,24.171256],[120.684996,24.172185],[120.670588,24.17371],[120.660657,24.171509],[120.653891,24.167778],[120.649221,24.162106],[120.646792,24.153242],[120.646722,24.145446],[120.6467,24.14055],[120.646455,24.132338],[120.647549,24.119052],[120.63996,24.114386],[120.63435,24.110934],[120.624862,24.108874],[120.614107,24.110069]]}}]}