{"type":"FeatureCollection","generator":"metroOsmFetch (OpenStreetMap / Overpass, ODbL)","features":[{"type":"Feature","properties":{"route_company":"臺中捷運公司","route_id":"1","element_type":"way","color":"#8ec31c","route_name":"臺中捷運綠線高鐵台中站方向","osm_id":"11330355","railway":"subway","status":"open"},"geometry":{"type":"LineString","coordinates":[[120.708722,24.189161],[120.707314,24.182354],[120.701364,24.180727],[120.693253,24.171279],[120.685002,24.172212],[120.670586,24.173727],[120.660648,24.171531],[120.653874,24.167796],[120.649193,24.162119],[120.64675,24.153243],[120.646688,24.145446],[120.646653,24.140549],[120.646412,24.132339],[120.647507,24.119069],[120.639941,24.114413],[120.634331,24.110957],[120.624866,24.108896],[120.614112,24.110118]]}},{"type":"Feature","properties":{"osm_id":"4963787352","station_name":"北屯總站","element_type":"node","station_id":"103a"},"geometry":{"type":"Point","coordinates":[120.708722,24.189161]}},{"type":"Feature","properties":{"osm_id":"5731645673","station_name":"舊社","element_type":"node","station_id":"103"},"geometry":{"type":"Point","coordinates":[120.707314,24.182354]}},{"type":"Feature","properties":{"osm_id":"5731645677","station_name":"松竹","element_type":"node","station_id":"104"},"geometry":{"type":"Point","coordinates":[120.701364,24.180727]}},{"type":"Feature","properties":{"osm_id":"5731645680","station_name":"四維國小","element_type":"node","station_id":"105"},"geometry":{"type":"Point","coordinates":[120.693253,24.171279]}},{"type":"Feature","properties":{"osm_id":"5730724506","station_name":"文心崇德","element_type":"node","station_id":"106"},"geometry":{"type":"Point","coordinates":[120.685002,24.172212]}},{"type":"Feature","properties":{"osm_id":"5730724498","station_name":"文心中清","element_type":"node","station_id":"107"},"geometry":{"type":"Point","coordinates":[120.670586,24.173727]}},{"type":"Feature","properties":{"osm_id":"5730724490","station_name":"文華高中","element_type":"node","station_id":"108"},"geometry":{"type":"Point","coordinates":[120.660648,24.171531]}},{"type":"Feature","properties":{"osm_id":"5730724480","station_name":"文心櫻花","element_type":"node","station_id":"109"},"geometry":{"type":"Point","coordinates":[120.653874,24.167796]}},{"type":"Feature","properties":{"osm_id":"5731645686","station_name":"市政府","element_type":"node","station_id":"110"},"geometry":{"type":"Point","coordinates":[120.649193,24.162119]}},{"type":"Feature","properties":{"osm_id":"5731645688","station_name":"水安宮","element_type":"node","station_id":"111"},"geometry":{"type":"Point","coordinates":[120.64675,24.153243]}},{"type":"Feature","properties":{"osm_id":"5731645690","station_name":"文心森林公園","element_type":"node","station_id":"112"},"geometry":{"type":"Point","coordinates":[120.646688,24.145446]}},{"type":"Feature","properties":{"osm_id":"5731645692","station_name":"南屯","element_type":"node","station_id":"113"},"geometry":{"type":"Point","coordinates":[120.646653,24.140549]}},{"type":"Feature","properties":{"osm_id":"5731645694","station_name":"豐樂公園","element_type":"node","station_id":"114"},"geometry":{"type":"Point","coordinates":[120.646412,24.132339]}},{"type":"Feature","properties":{"osm_id":"5731645696","station_name":"大慶","element_type":"node","station_id":"115"},"geometry":{"type":"Point","coordinates":[120.647507,24.119069]}},{"type":"Feature","properties":{"osm_id":"5730723119","station_name":"九張犁","element_type":"node","station_id":"116"},"geometry":{"type":"Point","coordinates":[120.639941,24.114413]}},{"type":"Feature","properties":{"osm_id":"5730723117","station_name":"九德","element_type":"node","station_id":"117"},"geometry":{"type":"Point","coordinates":[120.634331,24.110957]}},{"type":"Feature","properties":{"osm_id":"5731645700","station_name":"烏日","element_type":"node","station_id":"118"},"geometry":{"type":"Point","coordinates":[120.624866,24.108896]}},{"type":"Feature","properties":{"osm_id":"13571689713","station_name":"高鐵臺中站","element_type":"node","station_id":"119"},"geometry":{"type":"Point","coordinates":[120.614112,24.110118]}}]}