{"type":"FeatureCollection","generator":"metroOsmFetch (OpenStreetMap / Overpass, ODbL)","features":[{"type":"Feature","properties":{"osm_id":"3495094888","station_name":"淡水","element_type":"node","station_id":"R28"},"geometry":{"type":"Point","coordinates":[121.445574,25.167783]}},{"type":"Feature","properties":{"osm_id":"3495094887","station_name":"紅樹林","element_type":"node","station_id":"R27"},"geometry":{"type":"Point","coordinates":[121.458888,25.155101]}},{"type":"Feature","properties":{"osm_id":"3495094886","station_name":"竹圍","element_type":"node","station_id":"R26"},"geometry":{"type":"Point","coordinates":[121.45951,25.136973]}},{"type":"Feature","properties":{"osm_id":"3495094885","station_name":"關渡","element_type":"node","station_id":"R25"},"geometry":{"type":"Point","coordinates":[121.467142,25.125701]}},{"type":"Feature","properties":{"osm_id":"3495094884","station_name":"忠義","element_type":"node","station_id":"R24"},"geometry":{"type":"Point","coordinates":[121.473374,25.130951]}},{"type":"Feature","properties":{"osm_id":"3495094883","station_name":"復興崗","element_type":"node","station_id":"R23"},"geometry":{"type":"Point","coordinates":[121.485498,25.13749]}},{"type":"Feature","properties":{"osm_id":"3495094882","station_name":"北投","element_type":"node","station_id":"R22"},"geometry":{"type":"Point","coordinates":[121.498593,25.131931]}},{"type":"Feature","properties":{"osm_id":"3495094881","station_name":"奇岩","element_type":"node","station_id":"R21"},"geometry":{"type":"Point","coordinates":[121.501137,25.125603]}},{"type":"Feature","properties":{"osm_id":"3495094880","station_name":"唭哩岸","element_type":"node","station_id":"R20"},"geometry":{"type":"Point","coordinates":[121.50613,25.120905]}},{"type":"Feature","properties":{"osm_id":"3495094879","station_name":"石牌","element_type":"node","station_id":"R19"},"geometry":{"type":"Point","coordinates":[121.515523,25.114607]}},{"type":"Feature","properties":{"osm_id":"3495094878","station_name":"明德","element_type":"node","station_id":"R18"},"geometry":{"type":"Point","coordinates":[121.518769,25.109859]}},{"type":"Feature","properties":{"osm_id":"3495094877","station_name":"芝山","element_type":"node","station_id":"R17"},"geometry":{"type":"Point","coordinates":[121.52252,25.103003]}},{"type":"Feature","properties":{"osm_id":"3495094876","station_name":"士林","element_type":"node","station_id":"R16"},"geometry":{"type":"Point","coordinates":[121.526247,25.093495]}},{"type":"Feature","properties":{"osm_id":"3495094875","station_name":"劍潭","element_type":"node","station_id":"R15"},"geometry":{"type":"Point","coordinates":[121.524981,25.084291]}},{"type":"Feature","properties":{"osm_id":"9168430426","station_name":"圓山","element_type":"node","station_id":"9168430426"},"geometry":{"type":"Point","coordinates":[121.520069,25.071426]}},{"type":"Feature","properties":{"osm_id":"3495094873","station_name":"民權西路","element_type":"node","station_id":"R13;O11"},"geometry":{"type":"Point","coordinates":[121.519403,25.062851]}},{"type":"Feature","properties":{"osm_id":"3495094872","station_name":"雙連","element_type":"node","station_id":"R12"},"geometry":{"type":"Point","coordinates":[121.520699,25.057632]}},{"type":"Feature","properties":{"osm_id":"3495094871","station_name":"中山","element_type":"node","station_id":"R11;G14"},"geometry":{"type":"Point","coordinates":[121.520391,25.052626]}},{"type":"Feature","properties":{"osm_id":"3495094870","station_name":"臺北車站","element_type":"node","station_id":"R10;BL12"},"geometry":{"type":"Point","coordinates":[121.515911,25.047477]}},{"type":"Feature","properties":{"osm_id":"2973163775","station_name":"臺大醫院","element_type":"node","station_id":"R09"},"geometry":{"type":"Point","coordinates":[121.516181,25.041646]}},{"type":"Feature","properties":{"osm_id":"3494960750","station_name":"中正紀念堂","element_type":"node","station_id":"R08;G10"},"geometry":{"type":"Point","coordinates":[121.517762,25.033394]}},{"type":"Feature","properties":{"osm_id":"1940469232","station_name":"東門","element_type":"node","station_id":"O06;R07"},"geometry":{"type":"Point","coordinates":[121.529258,25.033843]}},{"type":"Feature","properties":{"osm_id":"3494960749","station_name":"大安森林公園","element_type":"node","station_id":"R06"},"geometry":{"type":"Point","coordinates":[121.535279,25.033562]}},{"type":"Feature","properties":{"osm_id":"3494960748","station_name":"大安","element_type":"node","station_id":"BR09;R05"},"geometry":{"type":"Point","coordinates":[121.543555,25.033329]}},{"type":"Feature","properties":{"osm_id":"7478389983","station_name":"信義安和","element_type":"node","station_id":"7478389983"},"geometry":{"type":"Point","coordinates":[121.552667,25.033074]}},{"type":"Feature","properties":{"osm_id":"2480211043","station_name":"臺北101/世貿","element_type":"node","station_id":"2480211043"},"geometry":{"type":"Point","coordinates":[121.562443,25.032862]}},{"type":"Feature","properties":{"osm_id":"3494960745","station_name":"象山","element_type":"node","station_id":"R02"},"geometry":{"type":"Point","coordinates":[121.569758,25.032868]}},{"type":"Feature","properties":{"osm_id":"7093644634","station_name":"南港展覽館","element_type":"node","station_id":"BR24"},"geometry":{"type":"Point","coordinates":[121.617606,25.054949]}},{"type":"Feature","properties":{"osm_id":"3501186379","station_name":"南港軟體園區","element_type":"node","station_id":"BR23"},"geometry":{"type":"Point","coordinates":[121.615897,25.059946]}},{"type":"Feature","properties":{"osm_id":"3501186378","station_name":"東湖","element_type":"node","station_id":"BR22"},"geometry":{"type":"Point","coordinates":[121.61161,25.06742]}},{"type":"Feature","properties":{"osm_id":"3501186377","station_name":"葫洲","element_type":"node","station_id":"BR21"},"geometry":{"type":"Point","coordinates":[121.607363,25.072639]}},{"type":"Feature","properties":{"osm_id":"3501186376","station_name":"大湖公園","element_type":"node","station_id":"BR20"},"geometry":{"type":"Point","coordinates":[121.602341,25.083761]}},{"type":"Feature","properties":{"osm_id":"2971714589","station_name":"內湖","element_type":"node","station_id":"BR19"},"geometry":{"type":"Point","coordinates":[121.594189,25.083497]}},{"type":"Feature","properties":{"osm_id":"3501186375","station_name":"文德","element_type":"node","station_id":"BR18"},"geometry":{"type":"Point","coordinates":[121.584942,25.078556]}},{"type":"Feature","properties":{"osm_id":"3501186374","station_name":"港墘","element_type":"node","station_id":"BR17"},"geometry":{"type":"Point","coordinates":[121.575203,25.080073]}},{"type":"Feature","properties":{"osm_id":"373400459","station_name":"西湖","element_type":"node","station_id":"BR16"},"geometry":{"type":"Point","coordinates":[121.567316,25.082192]}},{"type":"Feature","properties":{"osm_id":"3497302610","station_name":"劍南路","element_type":"node","station_id":"BR15"},"geometry":{"type":"Point","coordinates":[121.555653,25.084849]}},{"type":"Feature","properties":{"osm_id":"1681745146","station_name":"大直","element_type":"node","station_id":"BR14"},"geometry":{"type":"Point","coordinates":[121.54744,25.079865]}},{"type":"Feature","properties":{"osm_id":"3497302608","station_name":"松山機場","element_type":"node","station_id":"BR13"},"geometry":{"type":"Point","coordinates":[121.551614,25.063086]}},{"type":"Feature","properties":{"osm_id":"3497302607","station_name":"中山國中","element_type":"node","station_id":"BR12"},"geometry":{"type":"Point","coordinates":[121.544202,25.060687]}},{"type":"Feature","properties":{"osm_id":"3497302606","station_name":"南京復興","element_type":"node","station_id":"BR11;G16"},"geometry":{"type":"Point","coordinates":[121.543965,25.051836]}},{"type":"Feature","properties":{"osm_id":"2051349996","station_name":"忠孝復興","element_type":"node","station_id":"2051349996"},"geometry":{"type":"Point","coordinates":[121.543749,25.041277]}},{"type":"Feature","properties":{"osm_id":"3497302604","station_name":"科技大樓","element_type":"node","station_id":"BR08"},"geometry":{"type":"Point","coordinates":[121.54346,25.026101]}},{"type":"Feature","properties":{"osm_id":"3497302603","station_name":"六張犁","element_type":"node","station_id":"BR07"},"geometry":{"type":"Point","coordinates":[121.553121,25.023818]}},{"type":"Feature","properties":{"osm_id":"689442955","station_name":"麟光","element_type":"node","station_id":"BR06"},"geometry":{"type":"Point","coordinates":[121.558905,25.01844]}},{"type":"Feature","properties":{"osm_id":"689295008","station_name":"辛亥","element_type":"node","station_id":"BR05"},"geometry":{"type":"Point","coordinates":[121.55706,25.005481]}},{"type":"Feature","properties":{"osm_id":"689354512","station_name":"萬芳醫院","element_type":"node","station_id":"BR04"},"geometry":{"type":"Point","coordinates":[121.558138,24.999431]}},{"type":"Feature","properties":{"osm_id":"689418701","station_name":"萬芳社區","element_type":"node","station_id":"BR03"},"geometry":{"type":"Point","coordinates":[121.568123,24.998609]}},{"type":"Feature","properties":{"osm_id":"689420115","station_name":"木柵","element_type":"node","station_id":"BR02"},"geometry":{"type":"Point","coordinates":[121.573183,24.998246]}},{"type":"Feature","properties":{"osm_id":"689422202","station_name":"動物園","element_type":"node","station_id":"BR01"},"geometry":{"type":"Point","coordinates":[121.579448,24.998317]}},{"type":"Feature","properties":{"osm_id":"3639530980","station_name":"頂埔","element_type":"node","station_id":"BL01"},"geometry":{"type":"Point","coordinates":[121.419174,24.959563]}},{"type":"Feature","properties":{"osm_id":"373399546","station_name":"永寧","element_type":"node","station_id":"BL02"},"geometry":{"type":"Point","coordinates":[121.43627,24.966872]}},{"type":"Feature","properties":{"osm_id":"373399553","station_name":"土城","element_type":"node","station_id":"BL03"},"geometry":{"type":"Point","coordinates":[121.444391,24.973182]}},{"type":"Feature","properties":{"osm_id":"3639530951","station_name":"海山","element_type":"node","station_id":"BL04"},"geometry":{"type":"Point","coordinates":[121.448786,24.985318]}},{"type":"Feature","properties":{"osm_id":"3639530940","station_name":"亞東醫院","element_type":"node","station_id":"BL05"},"geometry":{"type":"Point","coordinates":[121.452363,24.997522]}},{"type":"Feature","properties":{"osm_id":"3639530943","station_name":"府中","element_type":"node","station_id":"BL06"},"geometry":{"type":"Point","coordinates":[121.45928,25.00877]}},{"type":"Feature","properties":{"osm_id":"373399361","station_name":"板橋","element_type":"node","station_id":"373399361"},"geometry":{"type":"Point","coordinates":[121.464044,25.014964]}},{"type":"Feature","properties":{"osm_id":"3639530946","station_name":"新埔","element_type":"node","station_id":"BL08"},"geometry":{"type":"Point","coordinates":[121.468306,25.02346]}},{"type":"Feature","properties":{"osm_id":"3639530950","station_name":"江子翠","element_type":"node","station_id":"BL09"},"geometry":{"type":"Point","coordinates":[121.472778,25.030424]}},{"type":"Feature","properties":{"osm_id":"3639530981","station_name":"龍山寺","element_type":"node","station_id":"BL10"},"geometry":{"type":"Point","coordinates":[121.499581,25.035284]}},{"type":"Feature","properties":{"osm_id":"3639530979","station_name":"西門","element_type":"node","station_id":"G12;BL11"},"geometry":{"type":"Point","coordinates":[121.508608,25.042713]}},{"type":"Feature","properties":{"osm_id":"3578751641","station_name":"善導寺","element_type":"node","station_id":"BL13"},"geometry":{"type":"Point","coordinates":[121.523423,25.044762]}},{"type":"Feature","properties":{"osm_id":"3812564401","station_name":"忠孝新生","element_type":"node","station_id":"BL14;O07"},"geometry":{"type":"Point","coordinates":[121.532838,25.04229]}},{"type":"Feature","properties":{"osm_id":"3639530945","station_name":"忠孝敦化","element_type":"node","station_id":"BL16"},"geometry":{"type":"Point","coordinates":[121.549479,25.041509]}},{"type":"Feature","properties":{"osm_id":"3639530942","station_name":"國父紀念館","element_type":"node","station_id":"BL17"},"geometry":{"type":"Point","coordinates":[121.557392,25.041342]}},{"type":"Feature","properties":{"osm_id":"3512275767","station_name":"市政府","element_type":"node","station_id":"BL18"},"geometry":{"type":"Point","coordinates":[121.5661,25.041128]}},{"type":"Feature","properties":{"osm_id":"3639530949","station_name":"永春","element_type":"node","station_id":"BL19"},"geometry":{"type":"Point","coordinates":[121.575705,25.040876]}},{"type":"Feature","properties":{"osm_id":"3639530944","station_name":"後山埤","element_type":"node","station_id":"BL20"},"geometry":{"type":"Point","coordinates":[121.582322,25.044741]}},{"type":"Feature","properties":{"osm_id":"3639530947","station_name":"昆陽","element_type":"node","station_id":"BL21"},"geometry":{"type":"Point","coordinates":[121.593316,25.05049]}},{"type":"Feature","properties":{"osm_id":"3639530941","station_name":"南港","element_type":"node","station_id":"BL22"},"geometry":{"type":"Point","coordinates":[121.607192,25.052091]}},{"type":"Feature","properties":{"osm_id":"2457951083","station_name":"三重","element_type":"node","station_id":"O15"},"geometry":{"type":"Point","coordinates":[121.483675,25.055101]}},{"type":"Feature","properties":{"osm_id":"2399954599","station_name":"新北產業園區","element_type":"node","station_id":"2399954599"},"geometry":{"type":"Point","coordinates":[121.459373,25.061483]}},{"type":"Feature","properties":{"osm_id":"2457955731","station_name":"新莊副都心","element_type":"node","station_id":"2457955731"},"geometry":{"type":"Point","coordinates":[121.445784,25.059213]}},{"type":"Feature","properties":{"osm_id":"2644199756","station_name":"泰山","element_type":"node","station_id":"2644199756"},"geometry":{"type":"Point","coordinates":[121.439555,25.053268]}},{"type":"Feature","properties":{"osm_id":"1815749667","station_name":"泰山貴和","element_type":"node","station_id":"1815749667"},"geometry":{"type":"Point","coordinates":[121.422967,25.033348]}},{"type":"Feature","properties":{"osm_id":"2644199759","station_name":"體育大學","element_type":"node","station_id":"2644199759"},"geometry":{"type":"Point","coordinates":[121.385408,25.041326]}},{"type":"Feature","properties":{"osm_id":"1699708879","station_name":"長庚醫院","element_type":"node","station_id":"1699708879"},"geometry":{"type":"Point","coordinates":[121.370793,25.060485]}},{"type":"Feature","properties":{"osm_id":"2644199771","station_name":"林口","element_type":"node","station_id":"2644199771"},"geometry":{"type":"Point","coordinates":[121.361241,25.065769]}},{"type":"Feature","properties":{"osm_id":"1267584116","station_name":"山鼻","element_type":"node","station_id":"1267584116"},"geometry":{"type":"Point","coordinates":[121.285189,25.080797]}},{"type":"Feature","properties":{"osm_id":"1267584107","station_name":"坑口","element_type":"node","station_id":"1267584107"},"geometry":{"type":"Point","coordinates":[121.266471,25.086436]}},{"type":"Feature","properties":{"osm_id":"1267584128","station_name":"機場第一航廈","element_type":"node","station_id":"1267584128"},"geometry":{"type":"Point","coordinates":[121.238264,25.080282]}},{"type":"Feature","properties":{"osm_id":"1267584120","station_name":"機場第二航廈","element_type":"node","station_id":"1267584120"},"geometry":{"type":"Point","coordinates":[121.232711,25.076972]}},{"type":"Feature","properties":{"osm_id":"1267584046","station_name":"機場旅館","element_type":"node","station_id":"1267584046"},"geometry":{"type":"Point","coordinates":[121.220563,25.06913]}},{"type":"Feature","properties":{"osm_id":"1257929937","station_name":"大園","element_type":"node","station_id":"1257929937"},"geometry":{"type":"Point","coordinates":[121.21065,25.055821]}},{"type":"Feature","properties":{"osm_id":"5795718376","station_name":"橫山","element_type":"node","station_id":"5795718376"},"geometry":{"type":"Point","coordinates":[121.215777,25.036478]}},{"type":"Feature","properties":{"osm_id":"5795718381","station_name":"領航","element_type":"node","station_id":"5795718381"},"geometry":{"type":"Point","coordinates":[121.221094,25.024099]}},{"type":"Feature","properties":{"osm_id":"5795718387","station_name":"高鐵桃園站","element_type":"node","station_id":"5795718387"},"geometry":{"type":"Point","coordinates":[121.214145,25.013719]}},{"type":"Feature","properties":{"osm_id":"5795718382","station_name":"桃園體育園區","element_type":"node","station_id":"5795718382"},"geometry":{"type":"Point","coordinates":[121.203289,25.001755]}},{"type":"Feature","properties":{"osm_id":"5191165193","station_name":"興南","element_type":"node","station_id":"5191165193"},"geometry":{"type":"Point","coordinates":[121.216416,24.980009]}},{"type":"Feature","properties":{"osm_id":"1256337934","station_name":"環北","element_type":"node","station_id":"1256337934"},"geometry":{"type":"Point","coordinates":[121.220776,24.967169]}},{"type":"Feature","properties":{"osm_id":"2125646012","station_name":"老街溪","element_type":"node","station_id":"2125646012"},"geometry":{"type":"Point","coordinates":[121.21938,24.958583]}},{"type":"Feature","properties":{"osm_id":"3812564425","station_name":"迴龍","element_type":"node","station_id":"O21"},"geometry":{"type":"Point","coordinates":[121.411903,25.022079]}},{"type":"Feature","properties":{"osm_id":"3812564392","station_name":"丹鳳","element_type":"node","station_id":"O20"},"geometry":{"type":"Point","coordinates":[121.422657,25.028926]}},{"type":"Feature","properties":{"osm_id":"3812564424","station_name":"輔大","element_type":"node","station_id":"O19"},"geometry":{"type":"Point","coordinates":[121.435275,25.032722]}},{"type":"Feature","properties":{"osm_id":"3812564402","station_name":"新莊","element_type":"node","station_id":"O18"},"geometry":{"type":"Point","coordinates":[121.453359,25.036333]}},{"type":"Feature","properties":{"osm_id":"3812564427","station_name":"頭前庄","element_type":"node","station_id":"O17"},"geometry":{"type":"Point","coordinates":[121.460675,25.039766]}},{"type":"Feature","properties":{"osm_id":"3812564393","station_name":"先嗇宮","element_type":"node","station_id":"O16"},"geometry":{"type":"Point","coordinates":[121.471681,25.046428]}},{"type":"Feature","properties":{"osm_id":"3812564422","station_name":"菜寮","element_type":"node","station_id":"O14"},"geometry":{"type":"Point","coordinates":[121.492106,25.060268]}},{"type":"Feature","properties":{"osm_id":"3779252951","station_name":"臺北橋","element_type":"node","station_id":"O13"},"geometry":{"type":"Point","coordinates":[121.500551,25.063178]}},{"type":"Feature","properties":{"osm_id":"3812564398","station_name":"大橋頭","element_type":"node","station_id":"O12"},"geometry":{"type":"Point","coordinates":[121.512694,25.063198]}},{"type":"Feature","properties":{"osm_id":"3812564391","station_name":"中山國小","element_type":"node","station_id":"O10"},"geometry":{"type":"Point","coordinates":[121.526598,25.062674]}},{"type":"Feature","properties":{"osm_id":"1493007672","station_name":"行天宮","element_type":"node","station_id":"O09"},"geometry":{"type":"Point","coordinates":[121.533162,25.059413]}},{"type":"Feature","properties":{"osm_id":"1493007755","station_name":"松江南京","element_type":"node","station_id":"O08;G15"},"geometry":{"type":"Point","coordinates":[121.533036,25.052014]}},{"type":"Feature","properties":{"osm_id":"3812564396","station_name":"古亭","element_type":"node","station_id":"O05;G09"},"geometry":{"type":"Point","coordinates":[121.522953,25.02641]}},{"type":"Feature","properties":{"osm_id":"3812564426","station_name":"頂溪","element_type":"node","station_id":"O04"},"geometry":{"type":"Point","coordinates":[121.515472,25.013601]}},{"type":"Feature","properties":{"osm_id":"3800717745","station_name":"永安市場","element_type":"node","station_id":"O03"},"geometry":{"type":"Point","coordinates":[121.5109,25.002411]}},{"type":"Feature","properties":{"osm_id":"253559585","station_name":"景安","element_type":"node","station_id":"253559585"},"geometry":{"type":"Point","coordinates":[121.505364,24.993599]}},{"type":"Feature","properties":{"osm_id":"3812564395","station_name":"南勢角","element_type":"node","station_id":"O01"},"geometry":{"type":"Point","coordinates":[121.508852,24.990026]}},{"type":"Feature","properties":{"osm_id":"3812564404","station_name":"松山","element_type":"node","station_id":"G19"},"geometry":{"type":"Point","coordinates":[121.577474,25.050071]}},{"type":"Feature","properties":{"osm_id":"3812564394","station_name":"南京三民","element_type":"node","station_id":"G18"},"geometry":{"type":"Point","coordinates":[121.564306,25.051428]}},{"type":"Feature","properties":{"osm_id":"3812564397","station_name":"臺北小巨蛋","element_type":"node","station_id":"G17"},"geometry":{"type":"Point","coordinates":[121.551499,25.051686]}},{"type":"Feature","properties":{"osm_id":"3263840809","station_name":"北門","element_type":"node","station_id":"G13"},"geometry":{"type":"Point","coordinates":[121.510329,25.049399]}},{"type":"Feature","properties":{"osm_id":"3812564399","station_name":"小南門","element_type":"node","station_id":"G11"},"geometry":{"type":"Point","coordinates":[121.510806,25.035901]}},{"type":"Feature","properties":{"osm_id":"253559357","station_name":"臺電大樓","element_type":"node","station_id":"G08"},"geometry":{"type":"Point","coordinates":[121.52839,25.020533]}},{"type":"Feature","properties":{"osm_id":"3530915063","station_name":"公館","element_type":"node","station_id":"G07"},"geometry":{"type":"Point","coordinates":[121.534264,25.014917]}},{"type":"Feature","properties":{"osm_id":"3530915062","station_name":"萬隆","element_type":"node","station_id":"G06"},"geometry":{"type":"Point","coordinates":[121.538996,25.001899]}},{"type":"Feature","properties":{"osm_id":"3530915061","station_name":"景美","element_type":"node","station_id":"G05"},"geometry":{"type":"Point","coordinates":[121.54082,24.992978]}},{"type":"Feature","properties":{"osm_id":"5295358401","station_name":"大坪林","element_type":"node","station_id":"5295358401"},"geometry":{"type":"Point","coordinates":[121.541555,24.98291]}},{"type":"Feature","properties":{"osm_id":"3502209234","station_name":"七張","element_type":"node","station_id":"G03"},"geometry":{"type":"Point","coordinates":[121.542922,24.975022]}},{"type":"Feature","properties":{"osm_id":"3502209233","station_name":"新店區公所","element_type":"node","station_id":"G02"},"geometry":{"type":"Point","coordinates":[121.541351,24.967386]}},{"type":"Feature","properties":{"osm_id":"3461854239","station_name":"新店","element_type":"node","station_id":"G01"},"geometry":{"type":"Point","coordinates":[121.537631,24.958067]}},{"type":"Feature","properties":{"osm_id":"3812564423","station_name":"蘆洲","element_type":"node","station_id":"O54"},"geometry":{"type":"Point","coordinates":[121.465104,25.091278]}},{"type":"Feature","properties":{"osm_id":"3812564388","station_name":"三民高中","element_type":"node","station_id":"O53"},"geometry":{"type":"Point","coordinates":[121.473299,25.085505]}},{"type":"Feature","properties":{"osm_id":"3812564400","station_name":"徐匯中學","element_type":"node","station_id":"O52"},"geometry":{"type":"Point","coordinates":[121.480227,25.080336]}},{"type":"Feature","properties":{"osm_id":"3812564387","station_name":"三和國中","element_type":"node","station_id":"O51"},"geometry":{"type":"Point","coordinates":[121.486378,25.076814]}},{"type":"Feature","properties":{"osm_id":"3812564390","station_name":"三重國小","element_type":"node","station_id":"O50"},"geometry":{"type":"Point","coordinates":[121.4973,25.070003]}},{"type":"Feature","properties":{"osm_id":"9001013378","station_name":"十四張","element_type":"node","station_id":"9001013378"},"geometry":{"type":"Point","coordinates":[121.527449,24.98442]}},{"type":"Feature","properties":{"osm_id":"6307523637","station_name":"秀朗橋","element_type":"node","station_id":"6307523637"},"geometry":{"type":"Point","coordinates":[121.525026,24.990318]}},{"type":"Feature","properties":{"osm_id":"7672769057","station_name":"景平","element_type":"node","station_id":"7672769057"},"geometry":{"type":"Point","coordinates":[121.516277,24.992126]}},{"type":"Feature","properties":{"osm_id":"2866630322","station_name":"中和","element_type":"node","station_id":"2866630322"},"geometry":{"type":"Point","coordinates":[121.496212,25.002357]}},{"type":"Feature","properties":{"osm_id":"2866630320","station_name":"橋和","element_type":"node","station_id":"Y13"},"geometry":{"type":"Point","coordinates":[121.490246,25.004606]}},{"type":"Feature","properties":{"osm_id":"6307523642","station_name":"中原","element_type":"node","station_id":"Y14"},"geometry":{"type":"Point","coordinates":[121.484276,25.008172]}},{"type":"Feature","properties":{"osm_id":"7676120643","station_name":"板新","element_type":"node","station_id":"Y15"},"geometry":{"type":"Point","coordinates":[121.472422,25.014524]}},{"type":"Feature","properties":{"osm_id":"12040819251","station_name":"新埔民生","element_type":"node","station_id":"12040819251"},"geometry":{"type":"Point","coordinates":[121.466648,25.026168]}},{"type":"Feature","properties":{"osm_id":"12183049903","station_name":"幸福","element_type":"node","station_id":"12183049903"},"geometry":{"type":"Point","coordinates":[121.459976,25.050025]}},{"type":"Feature","properties":{"osm_id":"4990733849","station_name":"媽祖田","element_type":"node","station_id":"LB02"},"geometry":{"type":"Point","coordinates":[121.412352,24.953736]}},{"type":"Feature","properties":{"osm_id":"4990733848","station_name":"長壽山","element_type":"node","station_id":"LB03"},"geometry":{"type":"Point","coordinates":[121.402946,24.944376]}},{"type":"Feature","properties":{"osm_id":"4990733845","station_name":"橫溪","element_type":"node","station_id":"LB04"},"geometry":{"type":"Point","coordinates":[121.390407,24.937182]}},{"type":"Feature","properties":{"osm_id":"4990733844","station_name":"龍埔","element_type":"node","station_id":"LB05"},"geometry":{"type":"Point","coordinates":[121.384674,24.939868]}},{"type":"Feature","properties":{"osm_id":"4990733843","station_name":"三峽 （國家教育研究院）","element_type":"node","station_id":"LB06"},"geometry":{"type":"Point","coordinates":[121.376066,24.939323]}},{"type":"Feature","properties":{"osm_id":"4990733842","station_name":"臺北大學","element_type":"node","station_id":"LB07"},"geometry":{"type":"Point","coordinates":[121.367158,24.93899]}},{"type":"Feature","properties":{"osm_id":"4990733841","station_name":"鶯歌車站","element_type":"node","station_id":"LB08"},"geometry":{"type":"Point","coordinates":[121.356652,24.95322]}},{"type":"Feature","properties":{"osm_id":"4990733840","station_name":"陶瓷老街","element_type":"node","station_id":"LB09"},"geometry":{"type":"Point","coordinates":[121.349486,24.952578]}},{"type":"Feature","properties":{"osm_id":"4990733839","station_name":"國華","element_type":"node","station_id":"LB10"},"geometry":{"type":"Point","coordinates":[121.342194,24.955342]}},{"type":"Feature","properties":{"osm_id":"4990733838","station_name":"永吉公園","element_type":"node","station_id":"LB11"},"geometry":{"type":"Point","coordinates":[121.334432,24.960838]}},{"type":"Feature","properties":{"osm_id":"4990733837","station_name":"鶯桃福德","element_type":"node","station_id":"LB12"},"geometry":{"type":"Point","coordinates":[121.329695,24.966726]}},{"type":"Feature","properties":{"osm_id":"3743802021","station_name":"竿蓁林","element_type":"node","station_id":"3743802021"},"geometry":{"type":"Point","coordinates":[121.456223,25.162185]}},{"type":"Feature","properties":{"osm_id":"6155745376","station_name":"淡金鄧公","element_type":"node","station_id":"V03"},"geometry":{"type":"Point","coordinates":[121.460826,25.169304]}},{"type":"Feature","properties":{"osm_id":"6155745377","station_name":"淡江大學","element_type":"node","station_id":"V04"},"geometry":{"type":"Point","coordinates":[121.455977,25.177076]}},{"type":"Feature","properties":{"osm_id":"6155745378","station_name":"淡金北新","element_type":"node","station_id":"V05"},"geometry":{"type":"Point","coordinates":[121.452165,25.181214]}},{"type":"Feature","properties":{"osm_id":"6155745379","station_name":"新市一路","element_type":"node","station_id":"V06"},"geometry":{"type":"Point","coordinates":[121.448123,25.183898]}},{"type":"Feature","properties":{"osm_id":"6155745371","station_name":"淡水行政中心","element_type":"node","station_id":"V07"},"geometry":{"type":"Point","coordinates":[121.444504,25.188953]}},{"type":"Feature","properties":{"osm_id":"6155745372","station_name":"濱海義山","element_type":"node","station_id":"V08"},"geometry":{"type":"Point","coordinates":[121.437372,25.189718]}},{"type":"Feature","properties":{"osm_id":"6155745368","station_name":"濱海沙崙","element_type":"node","station_id":"V09"},"geometry":{"type":"Point","coordinates":[121.431635,25.190466]}},{"type":"Feature","properties":{"osm_id":"4014856069","station_name":"臺北海洋大學","element_type":"node","station_id":"V28"},"geometry":{"type":"Point","coordinates":[121.426285,25.191161]}},{"type":"Feature","properties":{"osm_id":"9001013375","station_name":"沙崙","element_type":"node","station_id":"9001013375"},"geometry":{"type":"Point","coordinates":[121.417211,25.187477]}},{"type":"Feature","properties":{"osm_id":"8043755931","station_name":"淡水漁人碼頭","element_type":"node","station_id":"V26"},"geometry":{"type":"Point","coordinates":[121.418612,25.182005]}},{"type":"Feature","properties":{"osm_id":"6522757004","station_name":"崁頂","element_type":"node","station_id":"6522757004"},"geometry":{"type":"Point","coordinates":[121.434582,25.200964]}},{"type":"Feature","properties":{"osm_id":"6155745369","station_name":"淡海新市鎮","element_type":"node","station_id":"V10"},"geometry":{"type":"Point","coordinates":[121.432475,25.195655]}},{"type":"Feature","properties":{"osm_id":"10678684636","station_name":"雙城","element_type":"node","station_id":"10678684636"},"geometry":{"type":"Point","coordinates":[121.489662,24.946332]}},{"type":"Feature","properties":{"osm_id":"6794461155","station_name":"玫瑰中國城","element_type":"node","station_id":"6794461155"},"geometry":{"type":"Point","coordinates":[121.493705,24.950615]}},{"type":"Feature","properties":{"osm_id":"10678684635","station_name":"台北小城","element_type":"node","station_id":"10678684635"},"geometry":{"type":"Point","coordinates":[121.49937,24.953695]}},{"type":"Feature","properties":{"osm_id":"10679298298","station_name":"耕莘安康院區","element_type":"node","station_id":"10679298298"},"geometry":{"type":"Point","coordinates":[121.504667,24.954473]}},{"type":"Feature","properties":{"osm_id":"10679298296","station_name":"景文科大","element_type":"node","station_id":"10679298296"},"geometry":{"type":"Point","coordinates":[121.510416,24.955557]}},{"type":"Feature","properties":{"osm_id":"13851870615","station_name":"安康","element_type":"node","station_id":"13851870615"},"geometry":{"type":"Point","coordinates":[121.517295,24.965162]}},{"type":"Feature","properties":{"osm_id":"10678684639","station_name":"陽光運動公園","element_type":"node","station_id":"10678684639"},"geometry":{"type":"Point","coordinates":[121.519511,24.97231]}},{"type":"Feature","properties":{"osm_id":"10678684640","station_name":"新和國小","element_type":"node","station_id":"10678684640"},"geometry":{"type":"Point","coordinates":[121.518589,24.983444]}},{"type":"Feature","properties":{"osm_id":"1223127570","station_name":"小碧潭","element_type":"node","station_id":"G03A"},"geometry":{"type":"Point","coordinates":[121.530599,24.971765]}},{"type":"Feature","properties":{"osm_id":"269820830","station_name":"新北投","element_type":"node","station_id":"R22A"},"geometry":{"type":"Point","coordinates":[121.503169,25.136964]}},{"type":"Feature","properties":{"osm_id":"","station_name":"廣慈/奉天宮","element_type":"node","station_id":"manual-廣慈/奉天宮"},"geometry":{"type":"Point","coordinates":[121.582311,25.037468]}},{"type":"Feature","properties":{"route_company":"","route_id":"R","element_type":"way","color":"#e3002c","route_name":"淡水信義線","osm_id":"3343808","railway":"subway","status":"open"},"geometry":{"type":"LineString","coordinates":[[121.445574,25.167783],[121.458888,25.155101]]}},{"type":"Feature","properties":{"route_company":"","route_id":"R","element_type":"way","color":"#e3002c","route_name":"淡水信義線","osm_id":"3343808","railway":"subway","status":"open"},"geometry":{"type":"LineString","coordinates":[[121.458888,25.155101],[121.45951,25.136973],[121.467142,25.125701],[121.473374,25.130951],[121.485498,25.13749],[121.498593,25.131931]]}},{"type":"Feature","properties":{"route_company":"","route_id":"R","element_type":"way","color":"#e3002c","route_name":"淡水信義線","osm_id":"3343808","railway":"subway","status":"open"},"geometry":{"type":"LineString","coordinates":[[121.498593,25.131931],[121.501137,25.125603],[121.50613,25.120905],[121.515523,25.114607],[121.518769,25.109859],[121.52252,25.103003],[121.526247,25.093495],[121.524981,25.084291],[121.520069,25.071426],[121.519403,25.062851]]}},{"type":"Feature","properties":{"route_company":"","route_id":"R","element_type":"way","color":"#e3002c","route_name":"淡水信義線","osm_id":"3343808","railway":"subway","status":"open"},"geometry":{"type":"LineString","coordinates":[[121.519403,25.062851],[121.520699,25.057632],[121.520391,25.052626]]}},{"type":"Feature","properties":{"route_company":"","route_id":"R","element_type":"way","color":"#e3002c","route_name":"淡水信義線","osm_id":"3343808","railway":"subway","status":"open"},"geometry":{"type":"LineString","coordinates":[[121.520391,25.052626],[121.515911,25.047477]]}},{"type":"Feature","properties":{"route_company":"","route_id":"R","element_type":"way","color":"#e3002c","route_name":"淡水信義線","osm_id":"3343808","railway":"subway","status":"open"},"geometry":{"type":"LineString","coordinates":[[121.515911,25.047477],[121.516181,25.041646],[121.517762,25.033394]]}},{"type":"Feature","properties":{"route_company":"","route_id":"R","element_type":"way","color":"#e3002c","route_name":"淡水信義線","osm_id":"3343808","railway":"subway","status":"open"},"geometry":{"type":"LineString","coordinates":[[121.517762,25.033394],[121.529258,25.033843]]}},{"type":"Feature","properties":{"route_company":"","route_id":"R","element_type":"way","color":"#e3002c","route_name":"淡水信義線","osm_id":"3343808","railway":"subway","status":"open"},"geometry":{"type":"LineString","coordinates":[[121.529258,25.033843],[121.535279,25.033562],[121.543555,25.033329]]}},{"type":"Feature","properties":{"route_company":"","route_id":"R","element_type":"way","color":"#e3002c","route_name":"淡水信義線","osm_id":"3343808","railway":"subway","status":"open"},"geometry":{"type":"LineString","coordinates":[[121.543555,25.033329],[121.552667,25.033074],[121.562443,25.032862],[121.569758,25.032868],[121.582311,25.037468]]}},{"type":"Feature","properties":{"route_company":"","route_id":"BR","element_type":"way","color":"#c48c31","route_name":"捷運文湖線(順向)","osm_id":"447449","railway":"subway","status":"open"},"geometry":{"type":"LineString","coordinates":[[121.617606,25.054949],[121.615897,25.059946],[121.61161,25.06742],[121.607363,25.072639],[121.602341,25.083761],[121.594189,25.083497],[121.584942,25.078556],[121.575203,25.080073],[121.567316,25.082192],[121.555653,25.084849],[121.54744,25.079865],[121.551614,25.063086],[121.544202,25.060687],[121.543965,25.051836]]}},{"type":"Feature","properties":{"route_company":"","route_id":"BR","element_type":"way","color":"#c48c31","route_name":"捷運文湖線(順向)","osm_id":"447449","railway":"subway","status":"open"},"geometry":{"type":"LineString","coordinates":[[121.543965,25.051836],[121.543749,25.041277]]}},{"type":"Feature","properties":{"route_company":"","route_id":"BR","element_type":"way","color":"#c48c31","route_name":"捷運文湖線(順向)","osm_id":"447449","railway":"subway","status":"open"},"geometry":{"type":"LineString","coordinates":[[121.543749,25.041277],[121.543555,25.033329]]}},{"type":"Feature","properties":{"route_company":"","route_id":"BR","element_type":"way","color":"#c48c31","route_name":"捷運文湖線(順向)","osm_id":"447449","railway":"subway","status":"open"},"geometry":{"type":"LineString","coordinates":[[121.543555,25.033329],[121.54346,25.026101],[121.553121,25.023818],[121.558905,25.01844],[121.55706,25.005481],[121.558138,24.999431],[121.568123,24.998609],[121.573183,24.998246],[121.579448,24.998317]]}},{"type":"Feature","properties":{"route_company":"","route_id":"BL","element_type":"way","color":"#0070bd","route_name":"南港-板橋-土城線","osm_id":"199038","railway":"subway","status":"open"},"geometry":{"type":"LineString","coordinates":[[121.419174,24.959563],[121.43627,24.966872],[121.444391,24.973182],[121.448786,24.985318],[121.452363,24.997522],[121.45928,25.00877],[121.464044,25.014964]]}},{"type":"Feature","properties":{"route_company":"","route_id":"BL","element_type":"way","color":"#0070bd","route_name":"南港-板橋-土城線","osm_id":"199038","railway":"subway","status":"open"},"geometry":{"type":"LineString","coordinates":[[121.464044,25.014964],[121.468306,25.02346],[121.472778,25.030424],[121.499581,25.035284],[121.508608,25.042713]]}},{"type":"Feature","properties":{"route_company":"","route_id":"BL","element_type":"way","color":"#0070bd","route_name":"南港-板橋-土城線","osm_id":"199038","railway":"subway","status":"open"},"geometry":{"type":"LineString","coordinates":[[121.508608,25.042713],[121.515911,25.047477]]}},{"type":"Feature","properties":{"route_company":"","route_id":"BL","element_type":"way","color":"#0070bd","route_name":"南港-板橋-土城線","osm_id":"199038","railway":"subway","status":"open"},"geometry":{"type":"LineString","coordinates":[[121.515911,25.047477],[121.523423,25.044762],[121.532838,25.04229]]}},{"type":"Feature","properties":{"route_company":"","route_id":"BL","element_type":"way","color":"#0070bd","route_name":"南港-板橋-土城線","osm_id":"199038","railway":"subway","status":"open"},"geometry":{"type":"LineString","coordinates":[[121.532838,25.04229],[121.543749,25.041277]]}},{"type":"Feature","properties":{"route_company":"","route_id":"BL","element_type":"way","color":"#0070bd","route_name":"南港-板橋-土城線","osm_id":"199038","railway":"subway","status":"open"},"geometry":{"type":"LineString","coordinates":[[121.543749,25.041277],[121.549479,25.041509],[121.557392,25.041342],[121.5661,25.041128],[121.575705,25.040876],[121.582322,25.044741],[121.593316,25.05049],[121.607192,25.052091],[121.617606,25.054949]]}},{"type":"Feature","properties":{"route_company":"桃園大眾捷運股份有限公司","route_id":"A","element_type":"way","color":"#8246af","route_name":"桃園國際機場捷運 (西向)","osm_id":"2108764","railway":"subway","status":"open"},"geometry":{"type":"LineString","coordinates":[[121.515911,25.047477],[121.483675,25.055101]]}},{"type":"Feature","properties":{"route_company":"桃園大眾捷運股份有限公司","route_id":"A","element_type":"way","color":"#8246af","route_name":"桃園國際機場捷運 (西向)","osm_id":"2108764","railway":"subway","status":"open"},"geometry":{"type":"LineString","coordinates":[[121.483675,25.055101],[121.459373,25.061483]]}},{"type":"Feature","properties":{"route_company":"桃園大眾捷運股份有限公司","route_id":"A","element_type":"way","color":"#8246af","route_name":"桃園國際機場捷運 (西向)","osm_id":"2108764","railway":"subway","status":"open"},"geometry":{"type":"LineString","coordinates":[[121.459373,25.061483],[121.445784,25.059213],[121.439555,25.053268],[121.422967,25.033348],[121.385408,25.041326],[121.370793,25.060485],[121.361241,25.065769],[121.285189,25.080797],[121.266471,25.086436],[121.238264,25.080282],[121.232711,25.076972],[121.220563,25.06913],[121.21065,25.055821],[121.215777,25.036478],[121.221094,25.024099],[121.214145,25.013719],[121.203289,25.001755],[121.216416,24.980009],[121.220776,24.967169],[121.21938,24.958583]]}},{"type":"Feature","properties":{"route_company":"臺北大眾捷運股份有限公司","route_id":"O","element_type":"way","color":"#f8b61c","route_name":"台北捷運中和新蘆線(蘆洲逆向)","osm_id":"4250352","railway":"subway","status":"open"},"geometry":{"type":"LineString","coordinates":[[121.411903,25.022079],[121.422657,25.028926],[121.435275,25.032722],[121.453359,25.036333],[121.460675,25.039766]]}},{"type":"Feature","properties":{"route_company":"臺北大眾捷運股份有限公司","route_id":"O","element_type":"way","color":"#f8b61c","route_name":"台北捷運中和新蘆線(蘆洲逆向)","osm_id":"4250352","railway":"subway","status":"open"},"geometry":{"type":"LineString","coordinates":[[121.460675,25.039766],[121.471681,25.046428],[121.483675,25.055101]]}},{"type":"Feature","properties":{"route_company":"臺北大眾捷運股份有限公司","route_id":"O","element_type":"way","color":"#f8b61c","route_name":"台北捷運中和新蘆線(蘆洲逆向)","osm_id":"4250352","railway":"subway","status":"open"},"geometry":{"type":"LineString","coordinates":[[121.483675,25.055101],[121.492106,25.060268],[121.500551,25.063178],[121.512694,25.063198],[121.519403,25.062851]]}},{"type":"Feature","properties":{"route_company":"臺北大眾捷運股份有限公司","route_id":"O","element_type":"way","color":"#f8b61c","route_name":"台北捷運中和新蘆線(蘆洲逆向)","osm_id":"4250352","railway":"subway","status":"open"},"geometry":{"type":"LineString","coordinates":[[121.519403,25.062851],[121.526598,25.062674],[121.533162,25.059413],[121.533036,25.052014]]}},{"type":"Feature","properties":{"route_company":"臺北大眾捷運股份有限公司","route_id":"O","element_type":"way","color":"#f8b61c","route_name":"台北捷運中和新蘆線(蘆洲逆向)","osm_id":"4250352","railway":"subway","status":"open"},"geometry":{"type":"LineString","coordinates":[[121.533036,25.052014],[121.532838,25.04229]]}},{"type":"Feature","properties":{"route_company":"臺北大眾捷運股份有限公司","route_id":"O","element_type":"way","color":"#f8b61c","route_name":"台北捷運中和新蘆線(蘆洲逆向)","osm_id":"4250352","railway":"subway","status":"open"},"geometry":{"type":"LineString","coordinates":[[121.532838,25.04229],[121.529258,25.033843]]}},{"type":"Feature","properties":{"route_company":"臺北大眾捷運股份有限公司","route_id":"O","element_type":"way","color":"#f8b61c","route_name":"台北捷運中和新蘆線(蘆洲逆向)","osm_id":"4250352","railway":"subway","status":"open"},"geometry":{"type":"LineString","coordinates":[[121.529258,25.033843],[121.522953,25.02641]]}},{"type":"Feature","properties":{"route_company":"臺北大眾捷運股份有限公司","route_id":"O","element_type":"way","color":"#f8b61c","route_name":"台北捷運中和新蘆線(蘆洲逆向)","osm_id":"4250352","railway":"subway","status":"open"},"geometry":{"type":"LineString","coordinates":[[121.522953,25.02641],[121.515472,25.013601],[121.5109,25.002411],[121.505364,24.993599]]}},{"type":"Feature","properties":{"route_company":"臺北大眾捷運股份有限公司","route_id":"O","element_type":"way","color":"#f8b61c","route_name":"台北捷運中和新蘆線(蘆洲逆向)","osm_id":"4250352","railway":"subway","status":"open"},"geometry":{"type":"LineString","coordinates":[[121.505364,24.993599],[121.508852,24.990026]]}},{"type":"Feature","properties":{"route_company":"臺北大眾捷運股份有限公司","route_id":"G","element_type":"way","color":"#008659","route_name":"台電大樓 => 松山","osm_id":"447471","railway":"subway","status":"open"},"geometry":{"type":"LineString","coordinates":[[121.577474,25.050071],[121.564306,25.051428],[121.551499,25.051686],[121.543965,25.051836]]}},{"type":"Feature","properties":{"route_company":"臺北大眾捷運股份有限公司","route_id":"G","element_type":"way","color":"#008659","route_name":"台電大樓 => 松山","osm_id":"447471","railway":"subway","status":"open"},"geometry":{"type":"LineString","coordinates":[[121.543965,25.051836],[121.533036,25.052014]]}},{"type":"Feature","properties":{"route_company":"臺北大眾捷運股份有限公司","route_id":"G","element_type":"way","color":"#008659","route_name":"台電大樓 => 松山","osm_id":"447471","railway":"subway","status":"open"},"geometry":{"type":"LineString","coordinates":[[121.533036,25.052014],[121.520391,25.052626]]}},{"type":"Feature","properties":{"route_company":"臺北大眾捷運股份有限公司","route_id":"G","element_type":"way","color":"#008659","route_name":"台電大樓 => 松山","osm_id":"447471","railway":"subway","status":"open"},"geometry":{"type":"LineString","coordinates":[[121.520391,25.052626],[121.510329,25.049399],[121.508608,25.042713]]}},{"type":"Feature","properties":{"route_company":"臺北大眾捷運股份有限公司","route_id":"G","element_type":"way","color":"#008659","route_name":"台電大樓 => 松山","osm_id":"447471","railway":"subway","status":"open"},"geometry":{"type":"LineString","coordinates":[[121.508608,25.042713],[121.510806,25.035901],[121.517762,25.033394]]}},{"type":"Feature","properties":{"route_company":"臺北大眾捷運股份有限公司","route_id":"G","element_type":"way","color":"#008659","route_name":"台電大樓 => 松山","osm_id":"447471","railway":"subway","status":"open"},"geometry":{"type":"LineString","coordinates":[[121.517762,25.033394],[121.522953,25.02641]]}},{"type":"Feature","properties":{"route_company":"臺北大眾捷運股份有限公司","route_id":"G","element_type":"way","color":"#008659","route_name":"台電大樓 => 松山","osm_id":"447471","railway":"subway","status":"open"},"geometry":{"type":"LineString","coordinates":[[121.522953,25.02641],[121.52839,25.020533],[121.534264,25.014917],[121.538996,25.001899],[121.54082,24.992978],[121.541555,24.98291]]}},{"type":"Feature","properties":{"route_company":"臺北大眾捷運股份有限公司","route_id":"G","element_type":"way","color":"#008659","route_name":"台電大樓 => 松山","osm_id":"447471","railway":"subway","status":"open"},"geometry":{"type":"LineString","coordinates":[[121.541555,24.98291],[121.542922,24.975022],[121.541351,24.967386],[121.537631,24.958067]]}},{"type":"Feature","properties":{"route_company":"臺北大眾捷運股份有限公司","route_id":"O","element_type":"way","color":"#f8b61c","route_name":"台北捷運中和新蘆線(蘆洲逆向)","osm_id":"4250352","railway":"subway","status":"open"},"geometry":{"type":"LineString","coordinates":[[121.465104,25.091278],[121.473299,25.085505],[121.480227,25.080336],[121.486378,25.076814],[121.4973,25.070003],[121.512694,25.063198],[121.519403,25.062851]]}},{"type":"Feature","properties":{"route_company":"臺北大眾捷運股份有限公司","route_id":"O","element_type":"way","color":"#f8b61c","route_name":"台北捷運中和新蘆線(蘆洲逆向)","osm_id":"4250352","railway":"subway","status":"open"},"geometry":{"type":"LineString","coordinates":[[121.519403,25.062851],[121.526598,25.062674],[121.533162,25.059413],[121.533036,25.052014]]}},{"type":"Feature","properties":{"route_company":"臺北大眾捷運股份有限公司","route_id":"O","element_type":"way","color":"#f8b61c","route_name":"台北捷運中和新蘆線(蘆洲逆向)","osm_id":"4250352","railway":"subway","status":"open"},"geometry":{"type":"LineString","coordinates":[[121.533036,25.052014],[121.532838,25.04229]]}},{"type":"Feature","properties":{"route_company":"臺北大眾捷運股份有限公司","route_id":"O","element_type":"way","color":"#f8b61c","route_name":"台北捷運中和新蘆線(蘆洲逆向)","osm_id":"4250352","railway":"subway","status":"open"},"geometry":{"type":"LineString","coordinates":[[121.532838,25.04229],[121.529258,25.033843]]}},{"type":"Feature","properties":{"route_company":"臺北大眾捷運股份有限公司","route_id":"O","element_type":"way","color":"#f8b61c","route_name":"台北捷運中和新蘆線(蘆洲逆向)","osm_id":"4250352","railway":"subway","status":"open"},"geometry":{"type":"LineString","coordinates":[[121.529258,25.033843],[121.522953,25.02641]]}},{"type":"Feature","properties":{"route_company":"臺北大眾捷運股份有限公司","route_id":"O","element_type":"way","color":"#f8b61c","route_name":"台北捷運中和新蘆線(蘆洲逆向)","osm_id":"4250352","railway":"subway","status":"open"},"geometry":{"type":"LineString","coordinates":[[121.522953,25.02641],[121.515472,25.013601],[121.5109,25.002411],[121.505364,24.993599]]}},{"type":"Feature","properties":{"route_company":"臺北大眾捷運股份有限公司","route_id":"O","element_type":"way","color":"#f8b61c","route_name":"台北捷運中和新蘆線(蘆洲逆向)","osm_id":"4250352","railway":"subway","status":"open"},"geometry":{"type":"LineString","coordinates":[[121.505364,24.993599],[121.508852,24.990026]]}},{"type":"Feature","properties":{"route_company":"臺北大眾捷運股份有限公司","route_id":"Y","element_type":"way","color":"#ffdb00","route_name":"臺北捷運環狀線（大坪林->新北產業園區）","osm_id":"3322093","railway":"subway","status":"open"},"geometry":{"type":"LineString","coordinates":[[121.541555,24.98291],[121.527449,24.98442]]}},{"type":"Feature","properties":{"route_company":"臺北大眾捷運股份有限公司","route_id":"Y","element_type":"way","color":"#ffdb00","route_name":"臺北捷運環狀線（大坪林->新北產業園區）","osm_id":"3322093","railway":"subway","status":"open"},"geometry":{"type":"LineString","coordinates":[[121.527449,24.98442],[121.525026,24.990318],[121.516277,24.992126],[121.505364,24.993599]]}},{"type":"Feature","properties":{"route_company":"臺北大眾捷運股份有限公司","route_id":"Y","element_type":"way","color":"#ffdb00","route_name":"臺北捷運環狀線（大坪林->新北產業園區）","osm_id":"3322093","railway":"subway","status":"open"},"geometry":{"type":"LineString","coordinates":[[121.505364,24.993599],[121.496212,25.002357],[121.490246,25.004606],[121.484276,25.008172],[121.472422,25.014524],[121.464044,25.014964]]}},{"type":"Feature","properties":{"route_company":"臺北大眾捷運股份有限公司","route_id":"Y","element_type":"way","color":"#ffdb00","route_name":"臺北捷運環狀線（大坪林->新北產業園區）","osm_id":"3322093","railway":"subway","status":"open"},"geometry":{"type":"LineString","coordinates":[[121.464044,25.014964],[121.466648,25.026168],[121.460675,25.039766]]}},{"type":"Feature","properties":{"route_company":"臺北大眾捷運股份有限公司","route_id":"Y","element_type":"way","color":"#ffdb00","route_name":"臺北捷運環狀線（大坪林->新北產業園區）","osm_id":"3322093","railway":"subway","status":"open"},"geometry":{"type":"LineString","coordinates":[[121.460675,25.039766],[121.459976,25.050025],[121.459373,25.061483]]}},{"type":"Feature","properties":{"route_company":"臺北捷運","route_id":"LB","element_type":"way","color":"#cd6629","route_name":"捷運三鶯線","osm_id":"5341250","railway":"subway","status":"open"},"geometry":{"type":"LineString","coordinates":[[121.419174,24.959563],[121.412352,24.953736],[121.402946,24.944376],[121.390407,24.937182],[121.384674,24.939868],[121.376066,24.939323],[121.367158,24.93899],[121.356652,24.95322],[121.349486,24.952578],[121.342194,24.955342],[121.334432,24.960838],[121.329695,24.966726]]}},{"type":"Feature","properties":{"route_company":"新北大眾捷運股份有限公司","route_id":"V","element_type":"way","color":"#e34234","route_name":"淡海輕軌藍海線","osm_id":"5990742","railway":"light_rail","status":"open"},"geometry":{"type":"LineString","coordinates":[[121.458888,25.155101],[121.456223,25.162185],[121.460826,25.169304],[121.455977,25.177076],[121.452165,25.181214],[121.448123,25.183898],[121.444504,25.188953],[121.437372,25.189718],[121.431635,25.190466],[121.426285,25.191161],[121.417211,25.187477],[121.418612,25.182005]]}},{"type":"Feature","properties":{"route_company":"新北大眾捷運股份有限公司","route_id":"V","element_type":"way","color":"#e34234","route_name":"淡海輕軌藍海線","osm_id":"5990742","railway":"light_rail","status":"open"},"geometry":{"type":"LineString","coordinates":[[121.434582,25.200964],[121.432475,25.195655],[121.431635,25.190466],[121.437372,25.189718],[121.444504,25.188953],[121.448123,25.183898],[121.452165,25.181214],[121.455977,25.177076],[121.460826,25.169304],[121.456223,25.162185],[121.458888,25.155101]]}},{"type":"Feature","properties":{"route_company":"新北捷運公司","route_id":"K","element_type":"way","color":"#c3b091","route_name":"安坑輕軌(東向)","osm_id":"15443525","railway":"light_rail","status":"open"},"geometry":{"type":"LineString","coordinates":[[121.489662,24.946332],[121.493705,24.950615],[121.49937,24.953695],[121.504667,24.954473],[121.510416,24.955557],[121.517295,24.965162],[121.519511,24.97231],[121.518589,24.983444],[121.527449,24.98442]]}},{"type":"Feature","properties":{"route_company":"臺北大眾捷運股份有限公司","route_id":"G","element_type":"way","color":"#008659","route_name":"台電大樓 => 松山","osm_id":"447471","railway":"subway","status":"open"},"geometry":{"type":"LineString","coordinates":[[121.542922,24.975022],[121.530599,24.971765]]}},{"type":"Feature","properties":{"route_company":"臺北大眾捷運股份有限公司","route_id":"捷運紅線 (新北投支線)","element_type":"way","color":"#f890a5","route_name":"捷運紅線 (新北投支線) MRT red line (Xinbeitou Branch Line)","osm_id":"2665129","railway":"subway","status":"open"},"geometry":{"type":"LineString","coordinates":[[121.498593,25.131931],[121.503169,25.136964]]}}]}