{"type":"FeatureCollection","generator":"metroOsmFetch (OpenStreetMap / Overpass, ODbL)","features":[{"type":"Feature","properties":{"route_company":"","route_id":"R","element_type":"way","color":"#ff0000","route_name":"淡水信義線","osm_id":"3343808","railway":"subway","status":"open"},"geometry":{"type":"LineString","coordinates":[[121.445574,25.167783],[121.458899,25.154929],[121.45951,25.136973],[121.467142,25.125701],[121.473374,25.130951],[121.485498,25.13749],[121.498593,25.131931],[121.501137,25.125603],[121.50613,25.120905],[121.515523,25.114607],[121.518769,25.109859],[121.52252,25.103003],[121.526247,25.093495],[121.524981,25.084291],[121.520069,25.071426],[121.519403,25.062851],[121.520699,25.057632],[121.520391,25.052626],[121.517475,25.046243],[121.516181,25.041646],[121.517762,25.033394],[121.529258,25.033843],[121.535279,25.033562],[121.543555,25.033329],[121.552667,25.033074],[121.562443,25.032862],[121.569758,25.032868]]}},{"type":"Feature","properties":{"route_company":"","route_id":"BR","element_type":"way","color":"#a74c00","route_name":"捷運文湖線(順向)","osm_id":"447449","railway":"subway","status":"open"},"geometry":{"type":"LineString","coordinates":[[121.617606,25.054949],[121.615897,25.059946],[121.61161,25.06742],[121.607363,25.072639],[121.602341,25.083761],[121.594189,25.083497],[121.584942,25.078556],[121.575203,25.080073],[121.567316,25.082192],[121.555653,25.084849],[121.54744,25.079865],[121.551614,25.063086],[121.544202,25.060687],[121.543965,25.051836],[121.543749,25.041277],[121.543555,25.033329],[121.54346,25.026101],[121.553121,25.023818],[121.558905,25.01844],[121.55706,25.005481],[121.558138,24.999431],[121.568123,24.998609],[121.573183,24.998246],[121.579448,24.998317]]}},{"type":"Feature","properties":{"route_company":"","route_id":"BL","element_type":"way","color":"#007ec7","route_name":"南港-板橋-土城線","osm_id":"199038","railway":"subway","status":"open"},"geometry":{"type":"LineString","coordinates":[[121.419477,24.959734],[121.43627,24.966872],[121.444391,24.973182],[121.448786,24.985318],[121.452363,24.997522],[121.45928,25.00877],[121.463805,25.014846],[121.468306,25.02346],[121.472778,25.030424],[121.499581,25.035284],[121.508608,25.042713],[121.517475,25.046243],[121.523423,25.044762],[121.532838,25.04229],[121.543749,25.041277],[121.549479,25.041509],[121.557392,25.041342],[121.5661,25.041128],[121.575705,25.040876],[121.582322,25.044741],[121.593316,25.05049],[121.607192,25.052091],[121.617606,25.054949]]}},{"type":"Feature","properties":{"route_company":"臺北大眾捷運股份有限公司","route_id":"O","element_type":"way","color":"#9a6324","route_name":"台北捷運中和新蘆線(蘆洲逆向)","osm_id":"4250352","railway":"subway","status":"open"},"geometry":{"type":"LineString","coordinates":[[121.508852,24.990026],[121.505365,24.993607],[121.5109,25.002411],[121.515472,25.013601],[121.522953,25.02641],[121.529258,25.033843],[121.532838,25.04229],[121.533036,25.052014],[121.533162,25.059413],[121.526598,25.062674],[121.519403,25.062851],[121.512694,25.063198],[121.500551,25.063178],[121.492106,25.060268],[121.485377,25.055978],[121.471681,25.046428],[121.460862,25.039701],[121.453359,25.036333],[121.435275,25.032722],[121.422657,25.028926],[121.411903,25.022079]]}},{"type":"Feature","properties":{"route_company":"臺北大眾捷運股份有限公司","route_id":"G","element_type":"way","color":"#1e7b54","route_name":"台電大樓 => 松山","osm_id":"447471","railway":"subway","status":"open"},"geometry":{"type":"LineString","coordinates":[[121.537631,24.958067],[121.541351,24.967386],[121.54292,24.975022],[121.541508,24.982957],[121.54082,24.992978],[121.538996,25.001899],[121.534264,25.014917],[121.52839,25.020533],[121.522953,25.02641],[121.517762,25.033394],[121.510806,25.035901],[121.508608,25.042713],[121.510329,25.049399],[121.520391,25.052626],[121.533036,25.052014],[121.543965,25.051836],[121.551499,25.051686],[121.564306,25.051428],[121.577474,25.050071]]}},{"type":"Feature","properties":{"route_company":"臺北大眾捷運股份有限公司","route_id":"Y","element_type":"way","color":"#ffd900","route_name":"臺北捷運環狀線（大坪林->新北產業園區）","osm_id":"3322093","railway":"subway","status":"open"},"geometry":{"type":"LineString","coordinates":[[121.541508,24.982957],[121.527441,24.984412],[121.525028,24.990336],[121.516278,24.992144],[121.505365,24.993607],[121.496031,25.002338],[121.49025,25.004607],[121.484277,25.008175],[121.472432,25.014536],[121.463805,25.014846],[121.466666,25.026177],[121.460862,25.039701],[121.459993,25.05003],[121.459831,25.061266]]}},{"type":"Feature","properties":{"route_company":"新北大眾捷運股份有限公司","route_id":"V","element_type":"way","color":"#febeb5","route_name":"淡海輕軌藍海線","osm_id":"5990742","railway":"light_rail","status":"open"},"geometry":{"type":"LineString","coordinates":[[121.458899,25.154929],[121.456259,25.162185],[121.460826,25.169304],[121.455977,25.177076],[121.452165,25.181214],[121.448123,25.183898],[121.444504,25.188953],[121.437372,25.189718],[121.431635,25.190466],[121.426285,25.191161],[121.417211,25.187477],[121.418612,25.182005]]}},{"type":"Feature","properties":{"route_company":"新北捷運公司","route_id":"K","element_type":"way","color":"#c3b091","route_name":"安坑輕軌(東向)","osm_id":"15443525","railway":"light_rail","status":"open"},"geometry":{"type":"LineString","coordinates":[[121.48678,24.94317],[121.489682,24.946319],[121.493738,24.950583],[121.499373,24.953683],[121.505117,24.954476],[121.510425,24.955546],[121.519538,24.972304],[121.518591,24.983421],[121.527441,24.984412],[121.51736,24.965144]]}},{"type":"Feature","properties":{"route_company":"臺北大眾捷運股份有限公司","route_id":"3320719","element_type":"way","color":"#6ef5a9","route_name":"臺北捷運 萬大-中和-樹林線","osm_id":"3320719","railway":"subway","status":"construction"},"geometry":{"type":"LineString","coordinates":[[121.411903,25.022079],[121.444391,24.973182],[121.496031,25.002338],[121.517762,25.033394]]}},{"type":"Feature","properties":{"route_company":"新北捷運公司","route_id":"17451863","element_type":"way","color":"#e5554f","route_name":"新北捷運淡海機廠","osm_id":"17451863","railway":"light_rail","status":"open"},"geometry":{"type":"LineString","coordinates":[[121.434755,25.201291],[121.435155,25.202464],[121.432084,25.20334],[121.434287,25.202209]]}},{"type":"Feature","properties":{"route_company":"臺北大眾捷運股份有限公司","route_id":"捷運紅線 (新北投支線)","element_type":"way","color":"#f890a5","route_name":"捷運紅線 (新北投支線) MRT red line (Xinbeitou Branch Line)","osm_id":"2665129","railway":"subway","status":"open"},"geometry":{"type":"LineString","coordinates":[[121.498593,25.131931],[121.503169,25.136964]]}},{"type":"Feature","properties":{"osm_id":"3495094888","station_name":"淡水","element_type":"node","station_id":"R28"},"geometry":{"type":"Point","coordinates":[121.445574,25.167783]}},{"type":"Feature","properties":{"osm_id":"3495094887","station_name":"紅樹林","element_type":"node","station_id":"R27"},"geometry":{"type":"Point","coordinates":[121.458899,25.154929]}},{"type":"Feature","properties":{"osm_id":"3495094886","station_name":"竹圍","element_type":"node","station_id":"R26"},"geometry":{"type":"Point","coordinates":[121.45951,25.136973]}},{"type":"Feature","properties":{"osm_id":"3495094885","station_name":"關渡","element_type":"node","station_id":"R25"},"geometry":{"type":"Point","coordinates":[121.467142,25.125701]}},{"type":"Feature","properties":{"osm_id":"3495094884","station_name":"忠義","element_type":"node","station_id":"R24"},"geometry":{"type":"Point","coordinates":[121.473374,25.130951]}},{"type":"Feature","properties":{"osm_id":"3495094883","station_name":"復興崗","element_type":"node","station_id":"R23"},"geometry":{"type":"Point","coordinates":[121.485498,25.13749]}},{"type":"Feature","properties":{"osm_id":"3495094882","station_name":"北投","element_type":"node","station_id":"R22"},"geometry":{"type":"Point","coordinates":[121.498593,25.131931]}},{"type":"Feature","properties":{"osm_id":"3495094881","station_name":"奇岩","element_type":"node","station_id":"R21"},"geometry":{"type":"Point","coordinates":[121.501137,25.125603]}},{"type":"Feature","properties":{"osm_id":"3495094880","station_name":"唭哩岸","element_type":"node","station_id":"R20"},"geometry":{"type":"Point","coordinates":[121.50613,25.120905]}},{"type":"Feature","properties":{"osm_id":"3495094879","station_name":"石牌","element_type":"node","station_id":"R19"},"geometry":{"type":"Point","coordinates":[121.515523,25.114607]}},{"type":"Feature","properties":{"osm_id":"3495094878","station_name":"明德","element_type":"node","station_id":"R18"},"geometry":{"type":"Point","coordinates":[121.518769,25.109859]}},{"type":"Feature","properties":{"osm_id":"3495094877","station_name":"芝山","element_type":"node","station_id":"R17"},"geometry":{"type":"Point","coordinates":[121.52252,25.103003]}},{"type":"Feature","properties":{"osm_id":"3495094876","station_name":"士林","element_type":"node","station_id":"R16"},"geometry":{"type":"Point","coordinates":[121.526247,25.093495]}},{"type":"Feature","properties":{"osm_id":"3495094875","station_name":"劍潭","element_type":"node","station_id":"R15"},"geometry":{"type":"Point","coordinates":[121.524981,25.084291]}},{"type":"Feature","properties":{"osm_id":"9168430426","station_name":"圓山","element_type":"node","station_id":"9168430426"},"geometry":{"type":"Point","coordinates":[121.520069,25.071426]}},{"type":"Feature","properties":{"osm_id":"3495094873","station_name":"民權西路","element_type":"node","station_id":"R13;O11"},"geometry":{"type":"Point","coordinates":[121.519403,25.062851]}},{"type":"Feature","properties":{"osm_id":"3495094872","station_name":"雙連","element_type":"node","station_id":"R12"},"geometry":{"type":"Point","coordinates":[121.520699,25.057632]}},{"type":"Feature","properties":{"osm_id":"3495094871","station_name":"中山","element_type":"node","station_id":"R11;G14"},"geometry":{"type":"Point","coordinates":[121.520391,25.052626]}},{"type":"Feature","properties":{"osm_id":"3495094870","station_name":"台北車站","element_type":"node","station_id":"R10;BL12"},"geometry":{"type":"Point","coordinates":[121.517475,25.046243]}},{"type":"Feature","properties":{"osm_id":"2973163775","station_name":"台大醫院","element_type":"node","station_id":"R09"},"geometry":{"type":"Point","coordinates":[121.516181,25.041646]}},{"type":"Feature","properties":{"osm_id":"3494960750","station_name":"中正紀念堂","element_type":"node","station_id":"R08;G10"},"geometry":{"type":"Point","coordinates":[121.517762,25.033394]}},{"type":"Feature","properties":{"osm_id":"1940469232","station_name":"東門","element_type":"node","station_id":"O06;R07"},"geometry":{"type":"Point","coordinates":[121.529258,25.033843]}},{"type":"Feature","properties":{"osm_id":"3494960749","station_name":"大安森林公園","element_type":"node","station_id":"R06"},"geometry":{"type":"Point","coordinates":[121.535279,25.033562]}},{"type":"Feature","properties":{"osm_id":"3494960748","station_name":"大安","element_type":"node","station_id":"BR09;R05"},"geometry":{"type":"Point","coordinates":[121.543555,25.033329]}},{"type":"Feature","properties":{"osm_id":"7478389983","station_name":"信義安和","element_type":"node","station_id":"7478389983"},"geometry":{"type":"Point","coordinates":[121.552667,25.033074]}},{"type":"Feature","properties":{"osm_id":"2480211043","station_name":"台北101/世貿","element_type":"node","station_id":"2480211043"},"geometry":{"type":"Point","coordinates":[121.562443,25.032862]}},{"type":"Feature","properties":{"osm_id":"3494960745","station_name":"象山","element_type":"node","station_id":"R02"},"geometry":{"type":"Point","coordinates":[121.569758,25.032868]}},{"type":"Feature","properties":{"osm_id":"7093644634","station_name":"南港展覽館","element_type":"node","station_id":"BR24"},"geometry":{"type":"Point","coordinates":[121.617606,25.054949]}},{"type":"Feature","properties":{"osm_id":"3501186379","station_name":"南港軟體園區","element_type":"node","station_id":"BR23"},"geometry":{"type":"Point","coordinates":[121.615897,25.059946]}},{"type":"Feature","properties":{"osm_id":"3501186378","station_name":"東湖","element_type":"node","station_id":"BR22"},"geometry":{"type":"Point","coordinates":[121.61161,25.06742]}},{"type":"Feature","properties":{"osm_id":"3501186377","station_name":"葫洲","element_type":"node","station_id":"BR21"},"geometry":{"type":"Point","coordinates":[121.607363,25.072639]}},{"type":"Feature","properties":{"osm_id":"3501186376","station_name":"大湖公園","element_type":"node","station_id":"BR20"},"geometry":{"type":"Point","coordinates":[121.602341,25.083761]}},{"type":"Feature","properties":{"osm_id":"2971714589","station_name":"內湖","element_type":"node","station_id":"BR19"},"geometry":{"type":"Point","coordinates":[121.594189,25.083497]}},{"type":"Feature","properties":{"osm_id":"3501186375","station_name":"文德","element_type":"node","station_id":"BR18"},"geometry":{"type":"Point","coordinates":[121.584942,25.078556]}},{"type":"Feature","properties":{"osm_id":"3501186374","station_name":"港墘","element_type":"node","station_id":"BR17"},"geometry":{"type":"Point","coordinates":[121.575203,25.080073]}},{"type":"Feature","properties":{"osm_id":"373400459","station_name":"西湖","element_type":"node","station_id":"BR16"},"geometry":{"type":"Point","coordinates":[121.567316,25.082192]}},{"type":"Feature","properties":{"osm_id":"3497302610","station_name":"劍南路","element_type":"node","station_id":"BR15"},"geometry":{"type":"Point","coordinates":[121.555653,25.084849]}},{"type":"Feature","properties":{"osm_id":"1681745146","station_name":"大直","element_type":"node","station_id":"BR14"},"geometry":{"type":"Point","coordinates":[121.54744,25.079865]}},{"type":"Feature","properties":{"osm_id":"3497302608","station_name":"松山機場","element_type":"node","station_id":"BR13"},"geometry":{"type":"Point","coordinates":[121.551614,25.063086]}},{"type":"Feature","properties":{"osm_id":"3497302607","station_name":"中山國中","element_type":"node","station_id":"BR12"},"geometry":{"type":"Point","coordinates":[121.544202,25.060687]}},{"type":"Feature","properties":{"osm_id":"3497302606","station_name":"南京復興","element_type":"node","station_id":"BR11;G16"},"geometry":{"type":"Point","coordinates":[121.543965,25.051836]}},{"type":"Feature","properties":{"osm_id":"2051349996","station_name":"忠孝復興","element_type":"node","station_id":"2051349996"},"geometry":{"type":"Point","coordinates":[121.543749,25.041277]}},{"type":"Feature","properties":{"osm_id":"3497302604","station_name":"科技大樓","element_type":"node","station_id":"BR08"},"geometry":{"type":"Point","coordinates":[121.54346,25.026101]}},{"type":"Feature","properties":{"osm_id":"3497302603","station_name":"六張犁","element_type":"node","station_id":"BR07"},"geometry":{"type":"Point","coordinates":[121.553121,25.023818]}},{"type":"Feature","properties":{"osm_id":"689442955","station_name":"麟光","element_type":"node","station_id":"BR06"},"geometry":{"type":"Point","coordinates":[121.558905,25.01844]}},{"type":"Feature","properties":{"osm_id":"689295008","station_name":"辛亥","element_type":"node","station_id":"BR05"},"geometry":{"type":"Point","coordinates":[121.55706,25.005481]}},{"type":"Feature","properties":{"osm_id":"689354512","station_name":"萬芳醫院","element_type":"node","station_id":"BR04"},"geometry":{"type":"Point","coordinates":[121.558138,24.999431]}},{"type":"Feature","properties":{"osm_id":"689418701","station_name":"萬芳社區","element_type":"node","station_id":"BR03"},"geometry":{"type":"Point","coordinates":[121.568123,24.998609]}},{"type":"Feature","properties":{"osm_id":"689420115","station_name":"木柵","element_type":"node","station_id":"BR02"},"geometry":{"type":"Point","coordinates":[121.573183,24.998246]}},{"type":"Feature","properties":{"osm_id":"689422202","station_name":"動物園","element_type":"node","station_id":"BR01"},"geometry":{"type":"Point","coordinates":[121.579448,24.998317]}},{"type":"Feature","properties":{"osm_id":"3639530980","station_name":"頂埔","element_type":"node","station_id":"BL01"},"geometry":{"type":"Point","coordinates":[121.419477,24.959734]}},{"type":"Feature","properties":{"osm_id":"373399546","station_name":"永寧","element_type":"node","station_id":"BL02"},"geometry":{"type":"Point","coordinates":[121.43627,24.966872]}},{"type":"Feature","properties":{"osm_id":"373399553","station_name":"土城","element_type":"node","station_id":"BL03"},"geometry":{"type":"Point","coordinates":[121.444391,24.973182]}},{"type":"Feature","properties":{"osm_id":"3639530951","station_name":"海山","element_type":"node","station_id":"BL04"},"geometry":{"type":"Point","coordinates":[121.448786,24.985318]}},{"type":"Feature","properties":{"osm_id":"3639530940","station_name":"亞東醫院","element_type":"node","station_id":"BL05"},"geometry":{"type":"Point","coordinates":[121.452363,24.997522]}},{"type":"Feature","properties":{"osm_id":"3639530943","station_name":"府中","element_type":"node","station_id":"BL06"},"geometry":{"type":"Point","coordinates":[121.45928,25.00877]}},{"type":"Feature","properties":{"osm_id":"373399361","station_name":"板橋","element_type":"node","station_id":"373399361"},"geometry":{"type":"Point","coordinates":[121.463805,25.014846]}},{"type":"Feature","properties":{"osm_id":"3639530946","station_name":"新埔","element_type":"node","station_id":"BL08"},"geometry":{"type":"Point","coordinates":[121.468306,25.02346]}},{"type":"Feature","properties":{"osm_id":"3639530950","station_name":"江子翠","element_type":"node","station_id":"BL09"},"geometry":{"type":"Point","coordinates":[121.472778,25.030424]}},{"type":"Feature","properties":{"osm_id":"3639530981","station_name":"龍山寺","element_type":"node","station_id":"BL10"},"geometry":{"type":"Point","coordinates":[121.499581,25.035284]}},{"type":"Feature","properties":{"osm_id":"3639530979","station_name":"西門","element_type":"node","station_id":"G12;BL11"},"geometry":{"type":"Point","coordinates":[121.508608,25.042713]}},{"type":"Feature","properties":{"osm_id":"3578751641","station_name":"善導寺","element_type":"node","station_id":"BL13"},"geometry":{"type":"Point","coordinates":[121.523423,25.044762]}},{"type":"Feature","properties":{"osm_id":"3812564401","station_name":"忠孝新生","element_type":"node","station_id":"BL14;O07"},"geometry":{"type":"Point","coordinates":[121.532838,25.04229]}},{"type":"Feature","properties":{"osm_id":"3639530945","station_name":"忠孝敦化","element_type":"node","station_id":"BL16"},"geometry":{"type":"Point","coordinates":[121.549479,25.041509]}},{"type":"Feature","properties":{"osm_id":"3639530942","station_name":"國父紀念館","element_type":"node","station_id":"BL17"},"geometry":{"type":"Point","coordinates":[121.557392,25.041342]}},{"type":"Feature","properties":{"osm_id":"3512275767","station_name":"市政府","element_type":"node","station_id":"BL18"},"geometry":{"type":"Point","coordinates":[121.5661,25.041128]}},{"type":"Feature","properties":{"osm_id":"3639530949","station_name":"永春","element_type":"node","station_id":"BL19"},"geometry":{"type":"Point","coordinates":[121.575705,25.040876]}},{"type":"Feature","properties":{"osm_id":"3639530944","station_name":"後山埤","element_type":"node","station_id":"BL20"},"geometry":{"type":"Point","coordinates":[121.582322,25.044741]}},{"type":"Feature","properties":{"osm_id":"3639530947","station_name":"昆陽","element_type":"node","station_id":"BL21"},"geometry":{"type":"Point","coordinates":[121.593316,25.05049]}},{"type":"Feature","properties":{"osm_id":"3639530941","station_name":"南港","element_type":"node","station_id":"BL22"},"geometry":{"type":"Point","coordinates":[121.607192,25.052091]}},{"type":"Feature","properties":{"osm_id":"3812564395","station_name":"南勢角","element_type":"node","station_id":"O01"},"geometry":{"type":"Point","coordinates":[121.508852,24.990026]}},{"type":"Feature","properties":{"osm_id":"253559585","station_name":"景安","element_type":"node","station_id":"253559585"},"geometry":{"type":"Point","coordinates":[121.505365,24.993607]}},{"type":"Feature","properties":{"osm_id":"3800717745","station_name":"永安市場","element_type":"node","station_id":"O03"},"geometry":{"type":"Point","coordinates":[121.5109,25.002411]}},{"type":"Feature","properties":{"osm_id":"3812564426","station_name":"頂溪","element_type":"node","station_id":"O04"},"geometry":{"type":"Point","coordinates":[121.515472,25.013601]}},{"type":"Feature","properties":{"osm_id":"3812564396","station_name":"古亭","element_type":"node","station_id":"O05;G09"},"geometry":{"type":"Point","coordinates":[121.522953,25.02641]}},{"type":"Feature","properties":{"osm_id":"1493007755","station_name":"松江南京","element_type":"node","station_id":"O08;G15"},"geometry":{"type":"Point","coordinates":[121.533036,25.052014]}},{"type":"Feature","properties":{"osm_id":"1493007672","station_name":"行天宮","element_type":"node","station_id":"O09"},"geometry":{"type":"Point","coordinates":[121.533162,25.059413]}},{"type":"Feature","properties":{"osm_id":"3812564391","station_name":"中山國小","element_type":"node","station_id":"O10"},"geometry":{"type":"Point","coordinates":[121.526598,25.062674]}},{"type":"Feature","properties":{"osm_id":"3812564398","station_name":"大橋頭","element_type":"node","station_id":"O12"},"geometry":{"type":"Point","coordinates":[121.512694,25.063198]}},{"type":"Feature","properties":{"osm_id":"3779252951","station_name":"台北橋","element_type":"node","station_id":"O13"},"geometry":{"type":"Point","coordinates":[121.500551,25.063178]}},{"type":"Feature","properties":{"osm_id":"3812564422","station_name":"菜寮","element_type":"node","station_id":"O14"},"geometry":{"type":"Point","coordinates":[121.492106,25.060268]}},{"type":"Feature","properties":{"osm_id":"3812564389","station_name":"三重","element_type":"node","station_id":"O15"},"geometry":{"type":"Point","coordinates":[121.485377,25.055978]}},{"type":"Feature","properties":{"osm_id":"3812564393","station_name":"先嗇宮","element_type":"node","station_id":"O16"},"geometry":{"type":"Point","coordinates":[121.471681,25.046428]}},{"type":"Feature","properties":{"osm_id":"3812564427","station_name":"頭前庄","element_type":"node","station_id":"O17"},"geometry":{"type":"Point","coordinates":[121.460862,25.039701]}},{"type":"Feature","properties":{"osm_id":"3812564402","station_name":"新莊","element_type":"node","station_id":"O18"},"geometry":{"type":"Point","coordinates":[121.453359,25.036333]}},{"type":"Feature","properties":{"osm_id":"3812564424","station_name":"輔大","element_type":"node","station_id":"O19"},"geometry":{"type":"Point","coordinates":[121.435275,25.032722]}},{"type":"Feature","properties":{"osm_id":"3812564392","station_name":"丹鳳","element_type":"node","station_id":"O20"},"geometry":{"type":"Point","coordinates":[121.422657,25.028926]}},{"type":"Feature","properties":{"osm_id":"3812564425","station_name":"迴龍","element_type":"node","station_id":"O21"},"geometry":{"type":"Point","coordinates":[121.411903,25.022079]}},{"type":"Feature","properties":{"osm_id":"3461854239","station_name":"新店","element_type":"node","station_id":"G01"},"geometry":{"type":"Point","coordinates":[121.537631,24.958067]}},{"type":"Feature","properties":{"osm_id":"3502209233","station_name":"新店區公所","element_type":"node","station_id":"G02"},"geometry":{"type":"Point","coordinates":[121.541351,24.967386]}},{"type":"Feature","properties":{"osm_id":"3502209234","station_name":"七張","element_type":"node","station_id":"G03"},"geometry":{"type":"Point","coordinates":[121.54292,24.975022]}},{"type":"Feature","properties":{"osm_id":"5295358401","station_name":"大坪林","element_type":"node","station_id":"5295358401"},"geometry":{"type":"Point","coordinates":[121.541508,24.982957]}},{"type":"Feature","properties":{"osm_id":"3530915061","station_name":"景美","element_type":"node","station_id":"G05"},"geometry":{"type":"Point","coordinates":[121.54082,24.992978]}},{"type":"Feature","properties":{"osm_id":"3530915062","station_name":"萬隆","element_type":"node","station_id":"G06"},"geometry":{"type":"Point","coordinates":[121.538996,25.001899]}},{"type":"Feature","properties":{"osm_id":"3530915063","station_name":"公館","element_type":"node","station_id":"G07"},"geometry":{"type":"Point","coordinates":[121.534264,25.014917]}},{"type":"Feature","properties":{"osm_id":"253559357","station_name":"台電大樓","element_type":"node","station_id":"G08"},"geometry":{"type":"Point","coordinates":[121.52839,25.020533]}},{"type":"Feature","properties":{"osm_id":"3812564399","station_name":"小南門","element_type":"node","station_id":"G11"},"geometry":{"type":"Point","coordinates":[121.510806,25.035901]}},{"type":"Feature","properties":{"osm_id":"3263840809","station_name":"北門","element_type":"node","station_id":"G13"},"geometry":{"type":"Point","coordinates":[121.510329,25.049399]}},{"type":"Feature","properties":{"osm_id":"3812564397","station_name":"台北小巨蛋","element_type":"node","station_id":"G17"},"geometry":{"type":"Point","coordinates":[121.551499,25.051686]}},{"type":"Feature","properties":{"osm_id":"3812564394","station_name":"南京三民","element_type":"node","station_id":"G18"},"geometry":{"type":"Point","coordinates":[121.564306,25.051428]}},{"type":"Feature","properties":{"osm_id":"3812564404","station_name":"松山","element_type":"node","station_id":"G19"},"geometry":{"type":"Point","coordinates":[121.577474,25.050071]}},{"type":"Feature","properties":{"osm_id":"9001013378","station_name":"十四張","element_type":"node","station_id":"9001013378"},"geometry":{"type":"Point","coordinates":[121.527441,24.984412]}},{"type":"Feature","properties":{"osm_id":"6307523637","station_name":"秀朗橋","element_type":"node","station_id":"6307523637"},"geometry":{"type":"Point","coordinates":[121.525028,24.990336]}},{"type":"Feature","properties":{"osm_id":"7672769057","station_name":"景平","element_type":"node","station_id":"7672769057"},"geometry":{"type":"Point","coordinates":[121.516278,24.992144]}},{"type":"Feature","properties":{"osm_id":"2866630322","station_name":"中和","element_type":"node","station_id":"Y12"},"geometry":{"type":"Point","coordinates":[121.496031,25.002338]}},{"type":"Feature","properties":{"osm_id":"2866630320","station_name":"橋和","element_type":"node","station_id":"Y13"},"geometry":{"type":"Point","coordinates":[121.49025,25.004607]}},{"type":"Feature","properties":{"osm_id":"6307523642","station_name":"中原","element_type":"node","station_id":"Y14"},"geometry":{"type":"Point","coordinates":[121.484277,25.008175]}},{"type":"Feature","properties":{"osm_id":"7676120643","station_name":"板新","element_type":"node","station_id":"Y15"},"geometry":{"type":"Point","coordinates":[121.472432,25.014536]}},{"type":"Feature","properties":{"osm_id":"12040819251","station_name":"新埔民生","element_type":"node","station_id":"12040819251"},"geometry":{"type":"Point","coordinates":[121.466666,25.026177]}},{"type":"Feature","properties":{"osm_id":"12183049903","station_name":"幸福","element_type":"node","station_id":"12183049903"},"geometry":{"type":"Point","coordinates":[121.459993,25.05003]}},{"type":"Feature","properties":{"osm_id":"7174813363","station_name":"新北產業園區","element_type":"node","station_id":"7174813363"},"geometry":{"type":"Point","coordinates":[121.459831,25.061266]}},{"type":"Feature","properties":{"osm_id":"3743802021","station_name":"竿蓁林","element_type":"node","station_id":"3743802021"},"geometry":{"type":"Point","coordinates":[121.456259,25.162185]}},{"type":"Feature","properties":{"osm_id":"6155745376","station_name":"淡金鄧公","element_type":"node","station_id":"V03"},"geometry":{"type":"Point","coordinates":[121.460826,25.169304]}},{"type":"Feature","properties":{"osm_id":"6155745377","station_name":"淡江大學","element_type":"node","station_id":"V04"},"geometry":{"type":"Point","coordinates":[121.455977,25.177076]}},{"type":"Feature","properties":{"osm_id":"6155745378","station_name":"淡金北新","element_type":"node","station_id":"V05"},"geometry":{"type":"Point","coordinates":[121.452165,25.181214]}},{"type":"Feature","properties":{"osm_id":"6155745379","station_name":"新市一路","element_type":"node","station_id":"V06"},"geometry":{"type":"Point","coordinates":[121.448123,25.183898]}},{"type":"Feature","properties":{"osm_id":"6155745371","station_name":"淡水行政中心","element_type":"node","station_id":"V07"},"geometry":{"type":"Point","coordinates":[121.444504,25.188953]}},{"type":"Feature","properties":{"osm_id":"6155745372","station_name":"濱海義山","element_type":"node","station_id":"V08"},"geometry":{"type":"Point","coordinates":[121.437372,25.189718]}},{"type":"Feature","properties":{"osm_id":"6155745368","station_name":"濱海沙崙","element_type":"node","station_id":"V09"},"geometry":{"type":"Point","coordinates":[121.431635,25.190466]}},{"type":"Feature","properties":{"osm_id":"4014856069","station_name":"臺北海洋大學","element_type":"node","station_id":"V28"},"geometry":{"type":"Point","coordinates":[121.426285,25.191161]}},{"type":"Feature","properties":{"osm_id":"9001013375","station_name":"沙崙","element_type":"node","station_id":"9001013375"},"geometry":{"type":"Point","coordinates":[121.417211,25.187477]}},{"type":"Feature","properties":{"osm_id":"8043755931","station_name":"淡水漁人碼頭","element_type":"node","station_id":"V26"},"geometry":{"type":"Point","coordinates":[121.418612,25.182005]}},{"type":"Feature","properties":{"osm_id":"12031041863","station_name":"","element_type":"node","station_id":"12031041863"},"geometry":{"type":"Point","coordinates":[121.48678,24.94317]}},{"type":"Feature","properties":{"osm_id":"10678684636","station_name":"雙城","element_type":"node","station_id":"10678684636"},"geometry":{"type":"Point","coordinates":[121.489682,24.946319]}},{"type":"Feature","properties":{"osm_id":"6794461155","station_name":"玫瑰中國城","element_type":"node","station_id":"6794461155"},"geometry":{"type":"Point","coordinates":[121.493738,24.950583]}},{"type":"Feature","properties":{"osm_id":"10678684635","station_name":"台北小城","element_type":"node","station_id":"10678684635"},"geometry":{"type":"Point","coordinates":[121.499373,24.953683]}},{"type":"Feature","properties":{"osm_id":"10679298298","station_name":"耕莘安康院區","element_type":"node","station_id":"10679298298"},"geometry":{"type":"Point","coordinates":[121.505117,24.954476]}},{"type":"Feature","properties":{"osm_id":"10679298296","station_name":"景文科大","element_type":"node","station_id":"10679298296"},"geometry":{"type":"Point","coordinates":[121.510425,24.955546]}},{"type":"Feature","properties":{"osm_id":"10678684639","station_name":"陽光運動公園","element_type":"node","station_id":"10678684639"},"geometry":{"type":"Point","coordinates":[121.519538,24.972304]}},{"type":"Feature","properties":{"osm_id":"10678684640","station_name":"新和國小","element_type":"node","station_id":"10678684640"},"geometry":{"type":"Point","coordinates":[121.518591,24.983421]}},{"type":"Feature","properties":{"osm_id":"13851870615","station_name":"安康","element_type":"node","station_id":"13851870615"},"geometry":{"type":"Point","coordinates":[121.51736,24.965144]}},{"type":"Feature","properties":{"osm_id":"269820830","station_name":"新北投","element_type":"node","station_id":"R22A"},"geometry":{"type":"Point","coordinates":[121.503169,25.136964]}},{"type":"Feature","properties":{"route_company":"","route_id":"1415861118","element_type":"way","color":"#808000","route_name":"捷運南港基隆線","osm_id":"1415861118","railway":"light_rail","status":"proposed"},"geometry":{"type":"LineString","coordinates":[[121.725664,25.104797],[121.724448,25.102258],[121.722246,25.100451],[121.700872,25.093932],[121.697375,25.091016],[121.692725,25.084784],[121.689084,25.083765],[121.686296,25.080334],[121.682284,25.072052],[121.680277,25.071149],[121.676918,25.071336],[121.671476,25.066913],[121.666935,25.067429],[121.661744,25.065775]]}},{"type":"Feature","properties":{"route_company":"","route_id":"LB","element_type":"way","color":"#e377c2","route_name":"捷運三鶯線","osm_id":"358741942","railway":"subway","status":"construction"},"geometry":{"type":"LineString","coordinates":[[121.32757,24.965399],[121.330969,24.967166],[121.334971,24.960242],[121.338249,24.958301],[121.342531,24.957923],[121.34209,24.955262],[121.343802,24.952185],[121.347663,24.952939],[121.353276,24.95148],[121.359233,24.953914],[121.366809,24.945799],[121.362332,24.940514],[121.36296,24.938849],[121.367997,24.939013],[121.369284,24.941183],[121.373494,24.940974],[121.377405,24.938216],[121.37851,24.939698],[121.385475,24.939903],[121.389389,24.936133],[121.396175,24.941033],[121.403451,24.944689],[121.407324,24.949165],[121.410344,24.950969],[121.41414,24.956132],[121.421075,24.96073]]}},{"type":"Feature","properties":{"route_company":"","route_id":"245658391","element_type":"way","color":"#7f7f7f","route_name":"捷運萬大-中和-樹林線","osm_id":"245658391","railway":"subway","status":"construction"},"geometry":{"type":"LineString","coordinates":[[121.469761,24.994985],[121.471859,24.990638],[121.472937,24.990337],[121.477193,24.992092],[121.479143,24.994521],[121.483814,24.996158],[121.493034,24.996796],[121.49792,25.001655],[121.502259,25.003183],[121.506774,25.007134],[121.497317,25.017539],[121.500472,25.025112],[121.500614,25.029239],[121.517844,25.032826]]}},{"type":"Feature","properties":{"route_company":"","route_id":"Y","element_type":"way","color":"#e6194b","route_name":"捷運環狀線北環段 (興建中)","osm_id":"665151386","railway":"subway","status":"construction"},"geometry":{"type":"LineString","coordinates":[[121.494187,25.08727],[121.489898,25.089613],[121.4853,25.08878],[121.482067,25.085815],[121.478904,25.079161],[121.469347,25.077244],[121.478834,25.079198],[121.481769,25.085453],[121.485214,25.088816],[121.4899,25.089669],[121.494229,25.087326]]}},{"type":"Feature","properties":{"route_company":"","route_id":"254647218","element_type":"way","color":"#3cb44b","route_name":"捷運民生汐止線","osm_id":"254647218","railway":"subway","status":"proposed"},"geometry":{"type":"LineString","coordinates":[[121.513765,25.05693],[121.524211,25.058078],[121.548428,25.057681],[121.568589,25.059216],[121.573743,25.058178],[121.580473,25.061005],[121.585141,25.064717],[121.590522,25.067396],[121.591445,25.068935],[121.594849,25.068702],[121.602018,25.065575],[121.603807,25.061147],[121.609998,25.064678]]}},{"type":"Feature","properties":{"route_company":"","route_id":"1095835400","element_type":"way","color":"#4363d8","route_name":"五股泰山輕軌","osm_id":"1095835400","railway":"light_rail","status":"proposed"},"geometry":{"type":"LineString","coordinates":[[121.437413,25.056708],[121.437621,25.055941],[121.432987,25.052269],[121.429945,25.046484],[121.432966,25.044849]]}},{"type":"Feature","properties":{"route_company":"","route_id":"Y","element_type":"way","color":"#f58231","route_name":"捷運環狀線南環段","osm_id":"198159381","railway":"subway","status":"construction"},"geometry":{"type":"LineString","coordinates":[[121.578615,24.997577],[121.576778,24.996107],[121.577176,24.986404],[121.57107,24.9877],[121.570976,24.991364],[121.56941,24.991744],[121.56296,24.989038],[121.550744,24.987603],[121.550086,24.983882],[121.543137,24.982949]]}},{"type":"Feature","properties":{"route_company":"","route_id":"247786563","element_type":"way","color":"#911eb4","route_name":"萬大樹林線","osm_id":"247786563","railway":"subway","status":"construction"},"geometry":{"type":"LineString","coordinates":[[121.412119,25.022058],[121.408584,25.018868],[121.409768,25.016286],[121.415461,25.009058],[121.422318,25.004365],[121.424846,25.000694],[121.415148,24.98813],[121.419847,24.98153],[121.426008,24.984551],[121.428387,24.980684],[121.433276,24.976616],[121.438455,24.975284],[121.437473,24.972372],[121.437824,24.96862],[121.441656,24.969895],[121.446974,24.975685],[121.457895,24.983901],[121.464589,24.986041],[121.473169,24.990411]]}},{"type":"Feature","properties":{"route_company":"","route_id":"453081584","element_type":"way","color":"#1ca8c9","route_name":"信義線東延段","osm_id":"453081584","railway":"subway","status":"construction"},"geometry":{"type":"LineString","coordinates":[[121.575191,25.034001],[121.57808,25.036109],[121.583771,25.038052],[121.585591,25.041668]]}},{"type":"Feature","properties":{"route_company":"","route_id":"Y","element_type":"way","color":"#f032e6","route_name":"捷運環狀線(東環段)","osm_id":"1345368533","railway":"subway","status":"construction"},"geometry":{"type":"LineString","coordinates":[[121.569571,25.024542],[121.580744,25.004035],[121.580826,24.999996],[121.578653,24.997525]]}},{"type":"Feature","properties":{"route_company":"","route_id":"1299717499","element_type":"way","color":"#9a6324","route_name":"泰山板橋輕軌","osm_id":"1299717499","railway":"light_rail","status":"proposed"},"geometry":{"type":"LineString","coordinates":[[121.446025,25.019268],[121.43801,25.019896],[121.437435,25.035408],[121.438537,25.042791],[121.432989,25.04488]]}},{"type":"Feature","properties":{"route_company":"","route_id":"254647216","element_type":"way","color":"#469990","route_name":"捷運汐止東湖線 (興建中)","osm_id":"254647216","railway":"subway","status":"construction"},"geometry":{"type":"LineString","coordinates":[[121.609998,25.064678],[121.631771,25.06709],[121.639224,25.059693],[121.651074,25.063631],[121.652912,25.061951],[121.661762,25.065734]]}},{"type":"Feature","properties":{"route_company":"","route_id":"Y","element_type":"way","color":"#800000","route_name":"環狀線東環段 (規劃中)","osm_id":"574422364","railway":"subway","status":"proposed"},"geometry":{"type":"LineString","coordinates":[[121.579447,25.072875],[121.577349,25.070867],[121.574736,25.071074],[121.574696,25.066625],[121.581656,25.056794],[121.583118,25.052717],[121.5826,25.051671],[121.577689,25.050826],[121.577717,25.039555],[121.573445,25.036511],[121.568419,25.036312],[121.568381,25.026663],[121.569539,25.024526]]}}]}