{"type":"FeatureCollection","generator":"metroOsmFetch (OpenStreetMap / Overpass, ODbL)","features":[{"type":"Feature","properties":{"route_company":"Dopravní podnik hl. m. Prahy","route_id":"B","element_type":"way","color":"#ffbd0e","route_name":"Linka B","osm_id":"58900","railway":"subway"},"geometry":{"type":"LineString","coordinates":[[14.575983,50.108849],[14.55985,50.106778],[14.535923,50.106826],[14.515705,50.110464],[14.500547,50.109978],[14.473814,50.103698],[14.462699,50.096721],[14.45057,50.092439],[14.437901,50.09009],[14.429861,50.088658],[14.423801,50.083219],[14.420127,50.079475],[14.416294,50.074354],[14.403641,50.069514],[14.409079,50.060729],[14.387155,50.058303],[14.369109,50.054098],[14.351448,50.050843],[14.342162,50.050016],[14.329768,50.044484],[14.320899,50.045974],[14.305377,50.046683],[14.290819,50.053696]]}},{"type":"Feature","properties":{"route_company":"Dopravní podnik hl. m. Prahy","route_id":"C","element_type":"way","color":"#ff0917","route_name":"Linka C","osm_id":"58898","railway":"subway"},"geometry":{"type":"LineString","coordinates":[[14.516099,50.124208],[14.49874,50.119203],[14.489136,50.126513],[14.468734,50.126631],[14.453357,50.123955],[14.440362,50.108562],[14.43842,50.099752],[14.437901,50.09009],[14.433864,50.083175],[14.43128,50.079528],[14.430277,50.073872],[14.430506,50.062681],[14.433761,50.056509],[14.439899,50.050598],[14.449249,50.044043],[14.459936,50.041686],[14.47763,50.037318],[14.491612,50.031292],[14.509791,50.027906],[14.527966,50.030868]]}},{"type":"Feature","properties":{"route_company":"Dopravní podnik hl. m. Prahy","route_id":"A","element_type":"way","color":"#02a848","route_name":"Linka A","osm_id":"58899","railway":"subway"},"geometry":{"type":"LineString","coordinates":[[14.341864,50.075482],[14.344818,50.087182],[14.349096,50.096119],[14.36359,50.098372],[14.393817,50.100442],[14.403752,50.097205],[14.409397,50.091055],[14.418142,50.087971],[14.423801,50.083219],[14.43128,50.079528],[14.43987,50.075212],[14.451458,50.077786],[14.47633,50.077954],[14.490867,50.072813],[14.508633,50.068408],[14.515029,50.074622]]}},{"type":"Feature","properties":{"osm_id":"24569616","station_name":"Černý Most","element_type":"node","station_id":"24569616"},"geometry":{"type":"Point","coordinates":[14.575983,50.108849]}},{"type":"Feature","properties":{"osm_id":"24569564","station_name":"Rajská zahrada","element_type":"node","station_id":"24569564"},"geometry":{"type":"Point","coordinates":[14.55985,50.106778]}},{"type":"Feature","properties":{"osm_id":"24569515","station_name":"Hloubětín","element_type":"node","station_id":"24569515"},"geometry":{"type":"Point","coordinates":[14.535923,50.106826]}},{"type":"Feature","properties":{"osm_id":"24569499","station_name":"Kolbenova","element_type":"node","station_id":"24569499"},"geometry":{"type":"Point","coordinates":[14.515705,50.110464]}},{"type":"Feature","properties":{"osm_id":"24569482","station_name":"Vysočanská","element_type":"node","station_id":"24569482"},"geometry":{"type":"Point","coordinates":[14.500547,50.109978]}},{"type":"Feature","properties":{"osm_id":"4832659574","station_name":"Palmovka","element_type":"node","station_id":"4832659574"},"geometry":{"type":"Point","coordinates":[14.473814,50.103698]}},{"type":"Feature","properties":{"osm_id":"24569342","station_name":"Invalidovna","element_type":"node","station_id":"24569342"},"geometry":{"type":"Point","coordinates":[14.462699,50.096721]}},{"type":"Feature","properties":{"osm_id":"24569287","station_name":"Křižíkova","element_type":"node","station_id":"24569287"},"geometry":{"type":"Point","coordinates":[14.45057,50.092439]}},{"type":"Feature","properties":{"osm_id":"24568519","station_name":"Florenc","element_type":"node","station_id":"24568519"},"geometry":{"type":"Point","coordinates":[14.437901,50.09009]}},{"type":"Feature","properties":{"osm_id":"24569186","station_name":"Náměstí Republiky","element_type":"node","station_id":"24569186"},"geometry":{"type":"Point","coordinates":[14.429861,50.088658]}},{"type":"Feature","properties":{"osm_id":"24569154","station_name":"Můstek","element_type":"node","station_id":"24569154"},"geometry":{"type":"Point","coordinates":[14.423801,50.083219]}},{"type":"Feature","properties":{"osm_id":"24569095","station_name":"Národní třída","element_type":"node","station_id":"24569095"},"geometry":{"type":"Point","coordinates":[14.420127,50.079475]}},{"type":"Feature","properties":{"osm_id":"4791532100","station_name":"Karlovo náměstí","element_type":"node","station_id":"4791532100"},"geometry":{"type":"Point","coordinates":[14.416294,50.074354]}},{"type":"Feature","properties":{"osm_id":"24568982","station_name":"Anděl","element_type":"node","station_id":"24568982"},"geometry":{"type":"Point","coordinates":[14.403641,50.069514]}},{"type":"Feature","properties":{"osm_id":"31793413","station_name":"Smíchovské nádraží","element_type":"node","station_id":"31793413"},"geometry":{"type":"Point","coordinates":[14.409079,50.060729]}},{"type":"Feature","properties":{"osm_id":"24568897","station_name":"Radlická","element_type":"node","station_id":"24568897"},"geometry":{"type":"Point","coordinates":[14.387155,50.058303]}},{"type":"Feature","properties":{"osm_id":"24568828","station_name":"Jinonice","element_type":"node","station_id":"24568828"},"geometry":{"type":"Point","coordinates":[14.369109,50.054098]}},{"type":"Feature","properties":{"osm_id":"24568810","station_name":"Nové Butovice","element_type":"node","station_id":"24568810"},"geometry":{"type":"Point","coordinates":[14.351448,50.050843]}},{"type":"Feature","properties":{"osm_id":"24568736","station_name":"Hůrka","element_type":"node","station_id":"24568736"},"geometry":{"type":"Point","coordinates":[14.342162,50.050016]}},{"type":"Feature","properties":{"osm_id":"24568701","station_name":"Lužiny","element_type":"node","station_id":"24568701"},"geometry":{"type":"Point","coordinates":[14.329768,50.044484]}},{"type":"Feature","properties":{"osm_id":"24568648","station_name":"Luka","element_type":"node","station_id":"24568648"},"geometry":{"type":"Point","coordinates":[14.320899,50.045974]}},{"type":"Feature","properties":{"osm_id":"24568568","station_name":"Stodůlky","element_type":"node","station_id":"24568568"},"geometry":{"type":"Point","coordinates":[14.305377,50.046683]}},{"type":"Feature","properties":{"osm_id":"4764278762","station_name":"Zličín","element_type":"node","station_id":"4764278762"},"geometry":{"type":"Point","coordinates":[14.290819,50.053696]}},{"type":"Feature","properties":{"osm_id":"5455261443","station_name":"Letňany","element_type":"node","station_id":"5455261443"},"geometry":{"type":"Point","coordinates":[14.516099,50.124208]}},{"type":"Feature","properties":{"osm_id":"5455261446","station_name":"Prosek","element_type":"node","station_id":"5455261446"},"geometry":{"type":"Point","coordinates":[14.49874,50.119203]}},{"type":"Feature","properties":{"osm_id":"5446812966","station_name":"Střížkov","element_type":"node","station_id":"5446812966"},"geometry":{"type":"Point","coordinates":[14.489136,50.126513]}},{"type":"Feature","properties":{"osm_id":"5446812964","station_name":"Ládví","element_type":"node","station_id":"5446812964"},"geometry":{"type":"Point","coordinates":[14.468734,50.126631]}},{"type":"Feature","properties":{"osm_id":"5446788858","station_name":"Kobylisy","element_type":"node","station_id":"5446788858"},"geometry":{"type":"Point","coordinates":[14.453357,50.123955]}},{"type":"Feature","properties":{"osm_id":"5257756515","station_name":"Nádraží Holešovice","element_type":"node","station_id":"5257756515"},"geometry":{"type":"Point","coordinates":[14.440362,50.108562]}},{"type":"Feature","properties":{"osm_id":"5257778143","station_name":"Vltavská","element_type":"node","station_id":"5257778143"},"geometry":{"type":"Point","coordinates":[14.43842,50.099752]}},{"type":"Feature","properties":{"osm_id":"4934141327","station_name":"Hlavní nádraží","element_type":"node","station_id":"4934141327"},"geometry":{"type":"Point","coordinates":[14.433864,50.083175]}},{"type":"Feature","properties":{"osm_id":"5455261456","station_name":"Muzeum","element_type":"node","station_id":"5455261456"},"geometry":{"type":"Point","coordinates":[14.43128,50.079528]}},{"type":"Feature","properties":{"osm_id":"5455261459","station_name":"I. P. Pavlova","element_type":"node","station_id":"5455261459"},"geometry":{"type":"Point","coordinates":[14.430277,50.073872]}},{"type":"Feature","properties":{"osm_id":"5451520561","station_name":"Vyšehrad","element_type":"node","station_id":"5451520561"},"geometry":{"type":"Point","coordinates":[14.430506,50.062681]}},{"type":"Feature","properties":{"osm_id":"5455198162","station_name":"Pražského povstání","element_type":"node","station_id":"5455198162"},"geometry":{"type":"Point","coordinates":[14.433761,50.056509]}},{"type":"Feature","properties":{"osm_id":"5455198169","station_name":"Pankrác","element_type":"node","station_id":"5455198169"},"geometry":{"type":"Point","coordinates":[14.439899,50.050598]}},{"type":"Feature","properties":{"osm_id":"5455198171","station_name":"Budějovická","element_type":"node","station_id":"5455198171"},"geometry":{"type":"Point","coordinates":[14.449249,50.044043]}},{"type":"Feature","properties":{"osm_id":"5455198174","station_name":"Kačerov","element_type":"node","station_id":"5455198174"},"geometry":{"type":"Point","coordinates":[14.459936,50.041686]}},{"type":"Feature","properties":{"osm_id":"5455158297","station_name":"Roztyly","element_type":"node","station_id":"5455158297"},"geometry":{"type":"Point","coordinates":[14.47763,50.037318]}},{"type":"Feature","properties":{"osm_id":"5452244450","station_name":"Chodov","element_type":"node","station_id":"5452244450"},"geometry":{"type":"Point","coordinates":[14.491612,50.031292]}},{"type":"Feature","properties":{"osm_id":"5455158303","station_name":"Opatov","element_type":"node","station_id":"5455158303"},"geometry":{"type":"Point","coordinates":[14.509791,50.027906]}},{"type":"Feature","properties":{"osm_id":"5452244432","station_name":"Háje","element_type":"node","station_id":"5452244432"},"geometry":{"type":"Point","coordinates":[14.527966,50.030868]}},{"type":"Feature","properties":{"osm_id":"4889699761","station_name":"Nemocnice Motol","element_type":"node","station_id":"4889699761"},"geometry":{"type":"Point","coordinates":[14.341864,50.075482]}},{"type":"Feature","properties":{"osm_id":"4892253681","station_name":"Petřiny","element_type":"node","station_id":"4892253681"},"geometry":{"type":"Point","coordinates":[14.344818,50.087182]}},{"type":"Feature","properties":{"osm_id":"5435688814","station_name":"Nádraží Veleslavín","element_type":"node","station_id":"5435688814"},"geometry":{"type":"Point","coordinates":[14.349096,50.096119]}},{"type":"Feature","properties":{"osm_id":"5435728425","station_name":"Bořislavka","element_type":"node","station_id":"5435728425"},"geometry":{"type":"Point","coordinates":[14.36359,50.098372]}},{"type":"Feature","properties":{"osm_id":"5435688797","station_name":"Dejvická","element_type":"node","station_id":"5435688797"},"geometry":{"type":"Point","coordinates":[14.393817,50.100442]}},{"type":"Feature","properties":{"osm_id":"5435688791","station_name":"Hradčanská","element_type":"node","station_id":"5435688791"},"geometry":{"type":"Point","coordinates":[14.403752,50.097205]}},{"type":"Feature","properties":{"osm_id":"5435688785","station_name":"Malostranská","element_type":"node","station_id":"5435688785"},"geometry":{"type":"Point","coordinates":[14.409397,50.091055]}},{"type":"Feature","properties":{"osm_id":"5435688782","station_name":"Staroměstská","element_type":"node","station_id":"5435688782"},"geometry":{"type":"Point","coordinates":[14.418142,50.087971]}},{"type":"Feature","properties":{"osm_id":"7711437116","station_name":"Náměstí Míru","element_type":"node","station_id":"7711437116"},"geometry":{"type":"Point","coordinates":[14.43987,50.075212]}},{"type":"Feature","properties":{"osm_id":"5435688761","station_name":"Jiřího z Poděbrad","element_type":"node","station_id":"5435688761"},"geometry":{"type":"Point","coordinates":[14.451458,50.077786]}},{"type":"Feature","properties":{"osm_id":"5435688750","station_name":"Želivského","element_type":"node","station_id":"5435688750"},"geometry":{"type":"Point","coordinates":[14.47633,50.077954]}},{"type":"Feature","properties":{"osm_id":"5435728422","station_name":"Strašnická","element_type":"node","station_id":"5435728422"},"geometry":{"type":"Point","coordinates":[14.490867,50.072813]}},{"type":"Feature","properties":{"osm_id":"5435726820","station_name":"Skalka","element_type":"node","station_id":"5435726820"},"geometry":{"type":"Point","coordinates":[14.508633,50.068408]}},{"type":"Feature","properties":{"osm_id":"24956708","station_name":"Depo Hostivař","element_type":"node","station_id":"24956708"},"geometry":{"type":"Point","coordinates":[14.515029,50.074622]}}]}