{"type":"FeatureCollection","generator":"metroOsmFetch (OpenStreetMap / Overpass, ODbL)","features":[{"type":"Feature","properties":{"osm_id":"24569616","station_name":"Černý Most","element_type":"node","station_id":""},"geometry":{"type":"Point","coordinates":[14.576761,50.10893]}},{"type":"Feature","properties":{"osm_id":"24569564","station_name":"Rajská zahrada","element_type":"node","station_id":""},"geometry":{"type":"Point","coordinates":[14.560524,50.106865]}},{"type":"Feature","properties":{"osm_id":"24569515","station_name":"Hloubětín","element_type":"node","station_id":""},"geometry":{"type":"Point","coordinates":[14.536638,50.106666]}},{"type":"Feature","properties":{"osm_id":"24569499","station_name":"Kolbenova","element_type":"node","station_id":""},"geometry":{"type":"Point","coordinates":[14.516441,50.11039]}},{"type":"Feature","properties":{"osm_id":"24569482","station_name":"Vysočanská","element_type":"node","station_id":""},"geometry":{"type":"Point","coordinates":[14.501271,50.110116]}},{"type":"Feature","properties":{"osm_id":"4832659574","station_name":"Palmovka","element_type":"node","station_id":""},"geometry":{"type":"Point","coordinates":[14.474554,50.103911]}},{"type":"Feature","properties":{"osm_id":"24569342","station_name":"Invalidovna","element_type":"node","station_id":""},"geometry":{"type":"Point","coordinates":[14.463414,50.096909]}},{"type":"Feature","properties":{"osm_id":"24569287","station_name":"Křižíkova","element_type":"node","station_id":""},"geometry":{"type":"Point","coordinates":[14.451338,50.092534]}},{"type":"Feature","properties":{"osm_id":"24568519","station_name":"Florenc","element_type":"node","station_id":""},"geometry":{"type":"Point","coordinates":[14.438407,50.090258]}},{"type":"Feature","properties":{"osm_id":"24569186","station_name":"Náměstí Republiky","element_type":"node","station_id":""},"geometry":{"type":"Point","coordinates":[14.430601,50.088821]}},{"type":"Feature","properties":{"osm_id":"24569154","station_name":"Můstek","element_type":"node","station_id":""},"geometry":{"type":"Point","coordinates":[14.423908,50.083515]}},{"type":"Feature","properties":{"osm_id":"24569095","station_name":"Národní třída","element_type":"node","station_id":""},"geometry":{"type":"Point","coordinates":[14.420292,50.079921]}},{"type":"Feature","properties":{"osm_id":"4791532100","station_name":"Karlovo náměstí","element_type":"node","station_id":""},"geometry":{"type":"Point","coordinates":[14.416931,50.074571]}},{"type":"Feature","properties":{"osm_id":"24568982","station_name":"Anděl","element_type":"node","station_id":""},"geometry":{"type":"Point","coordinates":[14.403843,50.069965]}},{"type":"Feature","properties":{"osm_id":"31793413","station_name":"Smíchovské nádraží","element_type":"node","station_id":""},"geometry":{"type":"Point","coordinates":[14.4091,50.061175]}},{"type":"Feature","properties":{"osm_id":"24568897","station_name":"Radlická","element_type":"node","station_id":""},"geometry":{"type":"Point","coordinates":[14.387744,50.058117]}},{"type":"Feature","properties":{"osm_id":"24568828","station_name":"Jinonice","element_type":"node","station_id":""},"geometry":{"type":"Point","coordinates":[14.369796,50.054184]}},{"type":"Feature","properties":{"osm_id":"24568810","station_name":"Nové Butovice","element_type":"node","station_id":""},"geometry":{"type":"Point","coordinates":[14.352143,50.050846]}},{"type":"Feature","properties":{"osm_id":"24568736","station_name":"Hůrka","element_type":"node","station_id":""},"geometry":{"type":"Point","coordinates":[14.342786,50.050013]}},{"type":"Feature","properties":{"osm_id":"24568701","station_name":"Lužiny","element_type":"node","station_id":""},"geometry":{"type":"Point","coordinates":[14.330475,50.044504]}},{"type":"Feature","properties":{"osm_id":"24568648","station_name":"Luka","element_type":"node","station_id":""},"geometry":{"type":"Point","coordinates":[14.321361,50.045672]}},{"type":"Feature","properties":{"osm_id":"24568568","station_name":"Stodůlky","element_type":"node","station_id":""},"geometry":{"type":"Point","coordinates":[14.306107,50.046662]}},{"type":"Feature","properties":{"osm_id":"4764278762","station_name":"Zličín","element_type":"node","station_id":""},"geometry":{"type":"Point","coordinates":[14.291163,50.053242]}},{"type":"Feature","properties":{"osm_id":"5455261443","station_name":"Letňany","element_type":"node","station_id":""},"geometry":{"type":"Point","coordinates":[14.516211,50.124659]}},{"type":"Feature","properties":{"osm_id":"5455261446","station_name":"Prosek","element_type":"node","station_id":""},"geometry":{"type":"Point","coordinates":[14.499149,50.118839]}},{"type":"Feature","properties":{"osm_id":"5446812966","station_name":"Střížkov","element_type":"node","station_id":""},"geometry":{"type":"Point","coordinates":[14.489555,50.126163]}},{"type":"Feature","properties":{"osm_id":"5446812964","station_name":"Ládví","element_type":"node","station_id":""},"geometry":{"type":"Point","coordinates":[14.469464,50.12663]}},{"type":"Feature","properties":{"osm_id":"5446788858","station_name":"Kobylisy","element_type":"node","station_id":""},"geometry":{"type":"Point","coordinates":[14.454215,50.124138]}},{"type":"Feature","properties":{"osm_id":"5257756515","station_name":"Nádraží Holešovice","element_type":"node","station_id":""},"geometry":{"type":"Point","coordinates":[14.44009,50.108991]}},{"type":"Feature","properties":{"osm_id":"5257778143","station_name":"Vltavská","element_type":"node","station_id":""},"geometry":{"type":"Point","coordinates":[14.438509,50.100193]}},{"type":"Feature","properties":{"osm_id":"4934141327","station_name":"Hlavní nádraží","element_type":"node","station_id":""},"geometry":{"type":"Point","coordinates":[14.434156,50.083534]}},{"type":"Feature","properties":{"osm_id":"5455261456","station_name":"Muzeum","element_type":"node","station_id":""},"geometry":{"type":"Point","coordinates":[14.431363,50.079874]}},{"type":"Feature","properties":{"osm_id":"5455261459","station_name":"I. P. Pavlova","element_type":"node","station_id":""},"geometry":{"type":"Point","coordinates":[14.430312,50.074337]}},{"type":"Feature","properties":{"osm_id":"5451520561","station_name":"Vyšehrad","element_type":"node","station_id":""},"geometry":{"type":"Point","coordinates":[14.430519,50.063141]}},{"type":"Feature","properties":{"osm_id":"5455198162","station_name":"Pražského povstání","element_type":"node","station_id":""},"geometry":{"type":"Point","coordinates":[14.433317,50.056871]}},{"type":"Feature","properties":{"osm_id":"5455198169","station_name":"Pankrác","element_type":"node","station_id":""},"geometry":{"type":"Point","coordinates":[14.439668,50.051038]}},{"type":"Feature","properties":{"osm_id":"5455198171","station_name":"Budějovická","element_type":"node","station_id":""},"geometry":{"type":"Point","coordinates":[14.448775,50.044412]}},{"type":"Feature","properties":{"osm_id":"5455198174","station_name":"Kačerov","element_type":"node","station_id":""},"geometry":{"type":"Point","coordinates":[14.459297,50.041846]}},{"type":"Feature","properties":{"osm_id":"5455158297","station_name":"Roztyly","element_type":"node","station_id":""},"geometry":{"type":"Point","coordinates":[14.477034,50.037577]}},{"type":"Feature","properties":{"osm_id":"5452244450","station_name":"Chodov","element_type":"node","station_id":""},"geometry":{"type":"Point","coordinates":[14.491097,50.031607]}},{"type":"Feature","properties":{"osm_id":"5455158303","station_name":"Opatov","element_type":"node","station_id":""},"geometry":{"type":"Point","coordinates":[14.509078,50.027892]}},{"type":"Feature","properties":{"osm_id":"5452244432","station_name":"Háje","element_type":"node","station_id":""},"geometry":{"type":"Point","coordinates":[14.527306,50.030841]}},{"type":"Feature","properties":{"osm_id":"4889699761","station_name":"Nemocnice Motol","element_type":"node","station_id":""},"geometry":{"type":"Point","coordinates":[14.341195,50.075294]}},{"type":"Feature","properties":{"osm_id":"4892253681","station_name":"Petřiny","element_type":"node","station_id":""},"geometry":{"type":"Point","coordinates":[14.345072,50.086574]}},{"type":"Feature","properties":{"osm_id":"5435688814","station_name":"Nádraží Veleslavín","element_type":"node","station_id":""},"geometry":{"type":"Point","coordinates":[14.348478,50.095932]}},{"type":"Feature","properties":{"osm_id":"5435728425","station_name":"Bořislavka","element_type":"node","station_id":""},"geometry":{"type":"Point","coordinates":[14.362919,50.098373]}},{"type":"Feature","properties":{"osm_id":"5435688797","station_name":"Dejvická","element_type":"node","station_id":""},"geometry":{"type":"Point","coordinates":[14.393204,50.100471]}},{"type":"Feature","properties":{"osm_id":"5435688791","station_name":"Hradčanská","element_type":"node","station_id":""},"geometry":{"type":"Point","coordinates":[14.40317,50.097442]}},{"type":"Feature","properties":{"osm_id":"5435688785","station_name":"Malostranská","element_type":"node","station_id":""},"geometry":{"type":"Point","coordinates":[14.409312,50.091547]}},{"type":"Feature","properties":{"osm_id":"5435688782","station_name":"Staroměstská","element_type":"node","station_id":""},"geometry":{"type":"Point","coordinates":[14.417662,50.088206]}},{"type":"Feature","properties":{"osm_id":"7711437116","station_name":"Náměstí Míru","element_type":"node","station_id":""},"geometry":{"type":"Point","coordinates":[14.439116,50.07531]}},{"type":"Feature","properties":{"osm_id":"5435688761","station_name":"Jiřího z Poděbrad","element_type":"node","station_id":""},"geometry":{"type":"Point","coordinates":[14.450748,50.077719]}},{"type":"Feature","properties":{"osm_id":"5435688750","station_name":"Želivského","element_type":"node","station_id":""},"geometry":{"type":"Point","coordinates":[14.475652,50.07824]}},{"type":"Feature","properties":{"osm_id":"5435728422","station_name":"Strašnická","element_type":"node","station_id":""},"geometry":{"type":"Point","coordinates":[14.490349,50.073155]}},{"type":"Feature","properties":{"osm_id":"5435726820","station_name":"Skalka","element_type":"node","station_id":""},"geometry":{"type":"Point","coordinates":[14.507929,50.068439]}},{"type":"Feature","properties":{"osm_id":"24956708","station_name":"Depo Hostivař","element_type":"node","station_id":""},"geometry":{"type":"Point","coordinates":[14.514962,50.074636]}},{"type":"Feature","properties":{"route_company":"Dopravní podnik hl. m. Prahy","route_id":"B","element_type":"way","color":"#fcc400","route_name":"Metro linka B: Černý Most → Zličín","osm_id":"58900","railway":"subway","status":"open"},"geometry":{"type":"LineString","coordinates":[[14.576761,50.10893],[14.560524,50.106865],[14.536638,50.106666],[14.516441,50.11039],[14.501271,50.110116],[14.474554,50.103911],[14.463414,50.096909],[14.451338,50.092534],[14.438407,50.090258]]}},{"type":"Feature","properties":{"route_company":"Dopravní podnik hl. m. Prahy","route_id":"B","element_type":"way","color":"#fcc400","route_name":"Metro linka B: Černý Most → Zličín","osm_id":"58900","railway":"subway","status":"open"},"geometry":{"type":"LineString","coordinates":[[14.438407,50.090258],[14.430601,50.088821],[14.423908,50.083515]]}},{"type":"Feature","properties":{"route_company":"Dopravní podnik hl. m. Prahy","route_id":"B","element_type":"way","color":"#fcc400","route_name":"Metro linka B: Černý Most → Zličín","osm_id":"58900","railway":"subway","status":"open"},"geometry":{"type":"LineString","coordinates":[[14.423908,50.083515],[14.420292,50.079921],[14.416931,50.074571],[14.403843,50.069965],[14.4091,50.061175],[14.387744,50.058117],[14.369796,50.054184],[14.352143,50.050846],[14.342786,50.050013],[14.330475,50.044504],[14.321361,50.045672],[14.306107,50.046662],[14.291163,50.053242]]}},{"type":"Feature","properties":{"route_company":"Dopravní podnik hl. m. Prahy","route_id":"C","element_type":"way","color":"#cf003d","route_name":"Metro linka C: Letňany → Háje","osm_id":"58898","railway":"subway","status":"open"},"geometry":{"type":"LineString","coordinates":[[14.516211,50.124659],[14.499149,50.118839],[14.489555,50.126163],[14.469464,50.12663],[14.454215,50.124138],[14.44009,50.108991],[14.438509,50.100193],[14.438407,50.090258]]}},{"type":"Feature","properties":{"route_company":"Dopravní podnik hl. m. Prahy","route_id":"C","element_type":"way","color":"#cf003d","route_name":"Metro linka C: Letňany → Háje","osm_id":"58898","railway":"subway","status":"open"},"geometry":{"type":"LineString","coordinates":[[14.438407,50.090258],[14.434156,50.083534],[14.431363,50.079874]]}},{"type":"Feature","properties":{"route_company":"Dopravní podnik hl. m. Prahy","route_id":"C","element_type":"way","color":"#cf003d","route_name":"Metro linka C: Letňany → Háje","osm_id":"58898","railway":"subway","status":"open"},"geometry":{"type":"LineString","coordinates":[[14.431363,50.079874],[14.430312,50.074337],[14.430519,50.063141],[14.433317,50.056871],[14.439668,50.051038],[14.448775,50.044412],[14.459297,50.041846],[14.477034,50.037577],[14.491097,50.031607],[14.509078,50.027892],[14.527306,50.030841]]}},{"type":"Feature","properties":{"route_company":"Dopravní podnik hl. m. Prahy","route_id":"A","element_type":"way","color":"#00a562","route_name":"Metro linka A: Nemocnice Motol → Depo Hostivař","osm_id":"58899","railway":"subway","status":"open"},"geometry":{"type":"LineString","coordinates":[[14.341195,50.075294],[14.345072,50.086574],[14.348478,50.095932],[14.362919,50.098373],[14.393204,50.100471],[14.40317,50.097442],[14.409312,50.091547],[14.417662,50.088206],[14.423908,50.083515]]}},{"type":"Feature","properties":{"route_company":"Dopravní podnik hl. m. Prahy","route_id":"A","element_type":"way","color":"#00a562","route_name":"Metro linka A: Nemocnice Motol → Depo Hostivař","osm_id":"58899","railway":"subway","status":"open"},"geometry":{"type":"LineString","coordinates":[[14.423908,50.083515],[14.431363,50.079874]]}},{"type":"Feature","properties":{"route_company":"Dopravní podnik hl. m. Prahy","route_id":"A","element_type":"way","color":"#00a562","route_name":"Metro linka A: Nemocnice Motol → Depo Hostivař","osm_id":"58899","railway":"subway","status":"open"},"geometry":{"type":"LineString","coordinates":[[14.431363,50.079874],[14.439116,50.07531],[14.450748,50.077719],[14.475652,50.07824],[14.490349,50.073155],[14.507929,50.068439],[14.514962,50.074636]]}}]}