{"type":"FeatureCollection","generator":"metroOsmFetch (OpenStreetMap / Overpass, ODbL)","features":[{"type":"Feature","properties":{"route_company":"Wiener Lokalbahnen","route_id":"WLB","element_type":"way","color":"#00589a","route_name":"WLB: Baden Josefsplatz => Wien Oper","osm_id":"2024981","railway":"light_rail","status":"open"},"geometry":{"type":"LineString","coordinates":[[16.233754,48.005851],[16.240806,48.003831],[16.251457,47.999566],[16.255946,47.999553],[16.258391,48.00356],[16.26134,48.008294],[16.269676,48.007825],[16.290765,48.015341],[16.300176,48.027803],[16.30417,48.039541],[16.312353,48.048658],[16.313778,48.063941],[16.312606,48.077523],[16.314062,48.087306],[16.314782,48.096292],[16.315633,48.111663],[16.319385,48.125771],[16.324972,48.13562],[16.328061,48.141608],[16.334146,48.149668],[16.335761,48.159395],[16.32926,48.164519],[16.331078,48.173757],[16.336456,48.175612],[16.338806,48.178855],[16.343939,48.180386],[16.349624,48.180479],[16.358601,48.180541],[16.364057,48.182673],[16.363006,48.185861],[16.36568,48.189435],[16.366956,48.192627],[16.367065,48.19562],[16.36786,48.199057],[16.369577,48.201072]]}},{"type":"Feature","properties":{"route_company":"Wiener Linien","route_id":"U1","element_type":"way","color":"#e3000f","route_name":"U1: Oberlaa => Leopoldau","osm_id":"22494","railway":"subway","status":"open"},"geometry":{"type":"LineString","coordinates":[[16.399906,48.142369],[16.385639,48.145815],[16.382433,48.15377],[16.383442,48.162336],[16.38047,48.169047],[16.377972,48.17497],[16.376182,48.179362],[16.373612,48.187126],[16.370499,48.193666],[16.369577,48.201072],[16.371876,48.208205],[16.378176,48.211736],[16.385498,48.215221],[16.39344,48.21907],[16.401065,48.223614],[16.411427,48.229186],[16.416484,48.232841],[16.424787,48.23826],[16.432986,48.242942],[16.443359,48.250216],[16.449719,48.257582],[16.451707,48.263424],[16.447936,48.271112],[16.452076,48.277523]]}},{"type":"Feature","properties":{"route_company":"Wiener Linien","route_id":"U6","element_type":"way","color":"#9d6830","route_name":"U6: Siebenhirten => Floridsdorf","osm_id":"2853012","railway":"subway","status":"open"},"geometry":{"type":"LineString","coordinates":[[16.309861,48.130498],[16.31327,48.136611],[16.316561,48.141989],[16.316918,48.1505],[16.324229,48.160672],[16.32926,48.164519],[16.331078,48.173757],[16.331238,48.180765],[16.335069,48.184824],[16.337577,48.190737],[16.338851,48.196313],[16.337235,48.203289],[16.33803,48.207792],[16.339194,48.211469],[16.34186,48.216798],[16.344304,48.221208],[16.349537,48.225585],[16.352466,48.231312],[16.358379,48.235191],[16.368682,48.235168],[16.380159,48.237198],[16.385679,48.241832],[16.39473,48.246293],[16.400563,48.256184]]}},{"type":"Feature","properties":{"route_company":"Wiener Linien","route_id":"U3","element_type":"way","color":"#ef7c00","route_name":"U3: Ottakring => Simmering","osm_id":"20309","railway":"subway","status":"open"},"geometry":{"type":"LineString","coordinates":[[16.311322,48.210994],[16.309052,48.204582],[16.310965,48.200049],[16.320244,48.197569],[16.328728,48.197478],[16.338851,48.196313],[16.346302,48.197119],[16.352584,48.19923],[16.358558,48.205355],[16.365136,48.209224],[16.371876,48.208205],[16.379182,48.206894],[16.385288,48.206303],[16.392215,48.202055],[16.399816,48.197564],[16.406566,48.194434],[16.414072,48.191402],[16.417246,48.184901],[16.411699,48.180341],[16.41457,48.17464],[16.420455,48.169729]]}},{"type":"Feature","properties":{"route_company":"Wiener Linien","route_id":"U2","element_type":"way","color":"#a862a4","route_name":"U2: Karlsplatz => Seestadt","osm_id":"27114","railway":"subway","status":"open"},"geometry":{"type":"LineString","coordinates":[[16.369577,48.201072],[16.361086,48.202817],[16.358558,48.205355],[16.355359,48.209824],[16.363072,48.215076],[16.372369,48.216966],[16.381425,48.219088],[16.39344,48.21907],[16.404929,48.217728],[16.413684,48.21465],[16.420365,48.210416],[16.431482,48.206364],[16.440187,48.211791],[16.449614,48.219713],[16.457732,48.220834],[16.46663,48.219367],[16.475,48.222548],[16.478641,48.228424],[16.485773,48.233365],[16.504505,48.234433],[16.508326,48.226283]]}},{"type":"Feature","properties":{"route_company":"Wiener Linien","route_id":"U4","element_type":"way","color":"#00963f","route_name":"U4: Hütteldorf => Heiligenstadt","osm_id":"2852864","railway":"subway","status":"open"},"geometry":{"type":"LineString","coordinates":[[16.260806,48.196902],[16.276164,48.192224],[16.285985,48.191108],[16.29581,48.189394],[16.304573,48.187569],[16.318933,48.186034],[16.327914,48.183562],[16.335069,48.184824],[16.343035,48.188472],[16.354302,48.192123],[16.358066,48.196615],[16.369577,48.201072],[16.379739,48.202876],[16.385288,48.206303],[16.378176,48.211736],[16.372369,48.216966],[16.367594,48.222337],[16.364058,48.227881],[16.358379,48.235191],[16.365634,48.248143]]}},{"type":"Feature","properties":{"osm_id":"1731709171","station_name":"Baden Josefsplatz","element_type":"node","station_id":"1731709171"},"geometry":{"type":"Point","coordinates":[16.233754,48.005851]}},{"type":"Feature","properties":{"osm_id":"248792256","station_name":"Baden Viadukt","element_type":"node","station_id":"248792256"},"geometry":{"type":"Point","coordinates":[16.240806,48.003831]}},{"type":"Feature","properties":{"osm_id":"336566126","station_name":"Baden Leesdorf","element_type":"node","station_id":"336566126"},"geometry":{"type":"Point","coordinates":[16.251457,47.999566]}},{"type":"Feature","properties":{"osm_id":"1814239522","station_name":"Baden Landesklinikum","element_type":"node","station_id":"1814239522"},"geometry":{"type":"Point","coordinates":[16.255946,47.999553]}},{"type":"Feature","properties":{"osm_id":"1814239491","station_name":"Baden Melkergründe","element_type":"node","station_id":"1814239491"},"geometry":{"type":"Point","coordinates":[16.258391,48.00356]}},{"type":"Feature","properties":{"osm_id":"1814239502","station_name":"Pfaffstätten Rennplatz","element_type":"node","station_id":"1814239502"},"geometry":{"type":"Point","coordinates":[16.26134,48.008294]}},{"type":"Feature","properties":{"osm_id":"1814239994","station_name":"Tribuswinkel-Josefsthal","element_type":"node","station_id":"1814239994"},"geometry":{"type":"Point","coordinates":[16.269676,48.007825]}},{"type":"Feature","properties":{"osm_id":"1814239993","station_name":"Traiskirchen Lokalbahn","element_type":"node","station_id":"1814239993"},"geometry":{"type":"Point","coordinates":[16.290765,48.015341]}},{"type":"Feature","properties":{"osm_id":"1814239492","station_name":"Möllersdorf","element_type":"node","station_id":"1814239492"},"geometry":{"type":"Point","coordinates":[16.300176,48.027803]}},{"type":"Feature","properties":{"osm_id":"1814239496","station_name":"Eigenheimsiedlung","element_type":"node","station_id":"1814239496"},"geometry":{"type":"Point","coordinates":[16.30417,48.039541]}},{"type":"Feature","properties":{"osm_id":"1814239488","station_name":"Guntramsdorf Lokalbahn","element_type":"node","station_id":"1814239488"},"geometry":{"type":"Point","coordinates":[16.312353,48.048658]}},{"type":"Feature","properties":{"osm_id":"1814239499","station_name":"Neu Guntramsdorf","element_type":"node","station_id":"1814239499"},"geometry":{"type":"Point","coordinates":[16.313778,48.063941]}},{"type":"Feature","properties":{"osm_id":"1814239465","station_name":"Griesfeld","element_type":"node","station_id":"1814239465"},"geometry":{"type":"Point","coordinates":[16.312606,48.077523]}},{"type":"Feature","properties":{"osm_id":"1812299748","station_name":"Wiener Neudorf","element_type":"node","station_id":"1812299748"},"geometry":{"type":"Point","coordinates":[16.314062,48.087306]}},{"type":"Feature","properties":{"osm_id":"1812299596","station_name":"Maria Enzersdorf-Südstadt","element_type":"node","station_id":"1812299596"},"geometry":{"type":"Point","coordinates":[16.314782,48.096292]}},{"type":"Feature","properties":{"osm_id":"1812299740","station_name":"Vösendorf Shopping City Süd","element_type":"node","station_id":"1812299740"},"geometry":{"type":"Point","coordinates":[16.315633,48.111663]}},{"type":"Feature","properties":{"osm_id":"1812299745","station_name":"Vösendorf-Siebenhirten","element_type":"node","station_id":"1812299745"},"geometry":{"type":"Point","coordinates":[16.319385,48.125771]}},{"type":"Feature","properties":{"osm_id":"1812299737","station_name":"Schönbrunner Allee","element_type":"node","station_id":"1812299737"},"geometry":{"type":"Point","coordinates":[16.324972,48.13562]}},{"type":"Feature","properties":{"osm_id":"8727755272","station_name":"Wien Neu Erlaa","element_type":"node","station_id":"8727755272"},"geometry":{"type":"Point","coordinates":[16.328061,48.141608]}},{"type":"Feature","properties":{"osm_id":"2960931515","station_name":"Inzersdorf Lokalbahn","element_type":"node","station_id":"2960931515"},"geometry":{"type":"Point","coordinates":[16.334146,48.149668]}},{"type":"Feature","properties":{"osm_id":"1606447022","station_name":"Wien Gutheil-Schoder-Gasse","element_type":"node","station_id":"1"},"geometry":{"type":"Point","coordinates":[16.335761,48.159395]}},{"type":"Feature","properties":{"osm_id":"1378094222","station_name":"Wien Schöpfwerk","element_type":"node","station_id":"1"},"geometry":{"type":"Point","coordinates":[16.32926,48.164519]}},{"type":"Feature","properties":{"osm_id":"1378094307","station_name":"Bahnhof Meidling","element_type":"node","station_id":"5900"},"geometry":{"type":"Point","coordinates":[16.331078,48.173757]}},{"type":"Feature","properties":{"osm_id":"2208558389","station_name":"Dörfelstraße","element_type":"node","station_id":"471"},"geometry":{"type":"Point","coordinates":[16.336456,48.175612]}},{"type":"Feature","properties":{"osm_id":"1630527820","station_name":"Aßmayergasse","element_type":"node","station_id":"1748"},"geometry":{"type":"Point","coordinates":[16.338806,48.178855]}},{"type":"Feature","properties":{"osm_id":"2210383837","station_name":"Marx-Meidlinger-Straße","element_type":"node","station_id":"1750"},"geometry":{"type":"Point","coordinates":[16.343939,48.180386]}},{"type":"Feature","properties":{"osm_id":"2206792167","station_name":"Eichenstraße","element_type":"node","station_id":"399"},"geometry":{"type":"Point","coordinates":[16.349624,48.180479]}},{"type":"Feature","properties":{"osm_id":"2206792118","station_name":"Matzleinsdorfer Platz","element_type":"node","station_id":"400"},"geometry":{"type":"Point","coordinates":[16.358601,48.180541]}},{"type":"Feature","properties":{"osm_id":"2206792132","station_name":"Kliebergasse","element_type":"node","station_id":"831"},"geometry":{"type":"Point","coordinates":[16.364057,48.182673]}},{"type":"Feature","properties":{"osm_id":"2213363753","station_name":"Laurenzgasse","element_type":"node","station_id":"1751"},"geometry":{"type":"Point","coordinates":[16.363006,48.185861]}},{"type":"Feature","properties":{"osm_id":"2206818030","station_name":"Johann-Strauß-Gasse","element_type":"node","station_id":"1752"},"geometry":{"type":"Point","coordinates":[16.36568,48.189435]}},{"type":"Feature","properties":{"osm_id":"2297169719","station_name":"Mayerhofgasse","element_type":"node","station_id":"1753"},"geometry":{"type":"Point","coordinates":[16.366956,48.192627]}},{"type":"Feature","properties":{"osm_id":"2297169772","station_name":"Paulanergasse","element_type":"node","station_id":"1754"},"geometry":{"type":"Point","coordinates":[16.367065,48.19562]}},{"type":"Feature","properties":{"osm_id":"2049552776","station_name":"Resselgasse","element_type":"node","station_id":"4843"},"geometry":{"type":"Point","coordinates":[16.36786,48.199057]}},{"type":"Feature","properties":{"osm_id":"271334053","station_name":"Karlsplatz","element_type":"node","station_id":"1756"},"geometry":{"type":"Point","coordinates":[16.369577,48.201072]}},{"type":"Feature","properties":{"osm_id":"4725643935","station_name":"Oberlaa","element_type":"node","station_id":"4134"},"geometry":{"type":"Point","coordinates":[16.399906,48.142369]}},{"type":"Feature","properties":{"osm_id":"5016149162","station_name":"Neulaa","element_type":"node","station_id":"4135"},"geometry":{"type":"Point","coordinates":[16.385639,48.145815]}},{"type":"Feature","properties":{"osm_id":"5018582556","station_name":"Alaudagasse","element_type":"node","station_id":"4136"},"geometry":{"type":"Point","coordinates":[16.382433,48.15377]}},{"type":"Feature","properties":{"osm_id":"5057951095","station_name":"Altes Landgut","element_type":"node","station_id":"4137"},"geometry":{"type":"Point","coordinates":[16.383442,48.162336]}},{"type":"Feature","properties":{"osm_id":"5057951093","station_name":"Troststraße","element_type":"node","station_id":"4138"},"geometry":{"type":"Point","coordinates":[16.38047,48.169047]}},{"type":"Feature","properties":{"osm_id":"1862342812","station_name":"Reumannplatz","element_type":"node","station_id":"4101"},"geometry":{"type":"Point","coordinates":[16.377972,48.17497]}},{"type":"Feature","properties":{"osm_id":"60825796","station_name":"Keplerplatz","element_type":"node","station_id":"4103"},"geometry":{"type":"Point","coordinates":[16.376182,48.179362]}},{"type":"Feature","properties":{"osm_id":"1010572279","station_name":"Südtiroler Platz-Hauptbahnhof","element_type":"node","station_id":"4105"},"geometry":{"type":"Point","coordinates":[16.373612,48.187126]}},{"type":"Feature","properties":{"osm_id":"59838615","station_name":"Taubstummengasse","element_type":"node","station_id":"4107"},"geometry":{"type":"Point","coordinates":[16.370499,48.193666]}},{"type":"Feature","properties":{"osm_id":"1993538250","station_name":"Stephansplatz","element_type":"node","station_id":"4111"},"geometry":{"type":"Point","coordinates":[16.371876,48.208205]}},{"type":"Feature","properties":{"osm_id":"1399692389","station_name":"Schwedenplatz","element_type":"node","station_id":"4113"},"geometry":{"type":"Point","coordinates":[16.378176,48.211736]}},{"type":"Feature","properties":{"osm_id":"4169992592","station_name":"Nestroyplatz","element_type":"node","station_id":"4115"},"geometry":{"type":"Point","coordinates":[16.385498,48.215221]}},{"type":"Feature","properties":{"osm_id":"3725915785","station_name":"Praterstern","element_type":"node","station_id":"4117"},"geometry":{"type":"Point","coordinates":[16.39344,48.21907]}},{"type":"Feature","properties":{"osm_id":"4169762802","station_name":"Vorgartenstraße","element_type":"node","station_id":"4119"},"geometry":{"type":"Point","coordinates":[16.401065,48.223614]}},{"type":"Feature","properties":{"osm_id":"4169472789","station_name":"Donauinsel","element_type":"node","station_id":"4121"},"geometry":{"type":"Point","coordinates":[16.411427,48.229186]}},{"type":"Feature","properties":{"osm_id":"57592307","station_name":"Kaisermühlen - VIC","element_type":"node","station_id":"4123"},"geometry":{"type":"Point","coordinates":[16.416484,48.232841]}},{"type":"Feature","properties":{"osm_id":"57592312","station_name":"Alte Donau","element_type":"node","station_id":"4125"},"geometry":{"type":"Point","coordinates":[16.424787,48.23826]}},{"type":"Feature","properties":{"osm_id":"57592315","station_name":"Kagran","element_type":"node","station_id":"4127"},"geometry":{"type":"Point","coordinates":[16.432986,48.242942]}},{"type":"Feature","properties":{"osm_id":"61077005","station_name":"Kagraner Platz","element_type":"node","station_id":"4181"},"geometry":{"type":"Point","coordinates":[16.443359,48.250216]}},{"type":"Feature","properties":{"osm_id":"2781801317","station_name":"Rennbahnweg","element_type":"node","station_id":"4182"},"geometry":{"type":"Point","coordinates":[16.449719,48.257582]}},{"type":"Feature","properties":{"osm_id":"2781800961","station_name":"Aderklaaer Straße","element_type":"node","station_id":"4183"},"geometry":{"type":"Point","coordinates":[16.451707,48.263424]}},{"type":"Feature","properties":{"osm_id":"4140676594","station_name":"Großfeldsiedlung","element_type":"node","station_id":"4184"},"geometry":{"type":"Point","coordinates":[16.447936,48.271112]}},{"type":"Feature","properties":{"osm_id":"4140441195","station_name":"Leopoldau","element_type":"node","station_id":"4185"},"geometry":{"type":"Point","coordinates":[16.452076,48.277523]}},{"type":"Feature","properties":{"osm_id":"61688602","station_name":"Siebenhirten","element_type":"node","station_id":"4635"},"geometry":{"type":"Point","coordinates":[16.309861,48.130498]}},{"type":"Feature","properties":{"osm_id":"61688600","station_name":"Perfektastraße","element_type":"node","station_id":"4636"},"geometry":{"type":"Point","coordinates":[16.31327,48.136611]}},{"type":"Feature","properties":{"osm_id":"61688597","station_name":"Erlaaer Straße","element_type":"node","station_id":"4637"},"geometry":{"type":"Point","coordinates":[16.316561,48.141989]}},{"type":"Feature","properties":{"osm_id":"61688590","station_name":"Alterlaa","element_type":"node","station_id":"4638"},"geometry":{"type":"Point","coordinates":[16.316918,48.1505]}},{"type":"Feature","properties":{"osm_id":"1378094193","station_name":"Am Schöpfwerk","element_type":"node","station_id":"4639"},"geometry":{"type":"Point","coordinates":[16.324229,48.160672]}},{"type":"Feature","properties":{"osm_id":"2211901245","station_name":"Niederhofstraße","element_type":"node","station_id":"4616"},"geometry":{"type":"Point","coordinates":[16.331238,48.180765]}},{"type":"Feature","properties":{"osm_id":"624231459","station_name":"Längenfeldgasse","element_type":"node","station_id":"4617"},"geometry":{"type":"Point","coordinates":[16.335069,48.184824]}},{"type":"Feature","properties":{"osm_id":"60092321","station_name":"Gumpendorfer Straße","element_type":"node","station_id":"4618"},"geometry":{"type":"Point","coordinates":[16.337577,48.190737]}},{"type":"Feature","properties":{"osm_id":"446005361","station_name":"Westbahnhof","element_type":"node","station_id":"4619"},"geometry":{"type":"Point","coordinates":[16.338851,48.196313]}},{"type":"Feature","properties":{"osm_id":"60091791","station_name":"Burggasse-Stadthalle","element_type":"node","station_id":"4620"},"geometry":{"type":"Point","coordinates":[16.337235,48.203289]}},{"type":"Feature","properties":{"osm_id":"60091638","station_name":"Thaliastraße","element_type":"node","station_id":"4621"},"geometry":{"type":"Point","coordinates":[16.33803,48.207792]}},{"type":"Feature","properties":{"osm_id":"60091642","station_name":"Josefstädter Straße","element_type":"node","station_id":"4622"},"geometry":{"type":"Point","coordinates":[16.339194,48.211469]}},{"type":"Feature","properties":{"osm_id":"60091648","station_name":"Alser Straße","element_type":"node","station_id":"4623"},"geometry":{"type":"Point","coordinates":[16.34186,48.216798]}},{"type":"Feature","properties":{"osm_id":"60091653","station_name":"Michelbeuern-AKH","element_type":"node","station_id":"4624"},"geometry":{"type":"Point","coordinates":[16.344304,48.221208]}},{"type":"Feature","properties":{"osm_id":"60091661","station_name":"Währinger Straße-Volksoper","element_type":"node","station_id":"4625"},"geometry":{"type":"Point","coordinates":[16.349537,48.225585]}},{"type":"Feature","properties":{"osm_id":"60091400","station_name":"Nußdorfer Straße","element_type":"node","station_id":"4626"},"geometry":{"type":"Point","coordinates":[16.352466,48.231312]}},{"type":"Feature","properties":{"osm_id":"140052877","station_name":"Spittelau","element_type":"node","station_id":"4627"},"geometry":{"type":"Point","coordinates":[16.358379,48.235191]}},{"type":"Feature","properties":{"osm_id":"2211799763","station_name":"Jägerstraße","element_type":"node","station_id":"4641"},"geometry":{"type":"Point","coordinates":[16.368682,48.235168]}},{"type":"Feature","properties":{"osm_id":"2211799727","station_name":"Dresdner Straße","element_type":"node","station_id":"4642"},"geometry":{"type":"Point","coordinates":[16.380159,48.237198]}},{"type":"Feature","properties":{"osm_id":"2211815196","station_name":"Handelskai","element_type":"node","station_id":"4643"},"geometry":{"type":"Point","coordinates":[16.385679,48.241832]}},{"type":"Feature","properties":{"osm_id":"2211815211","station_name":"Neue Donau","element_type":"node","station_id":"4644"},"geometry":{"type":"Point","coordinates":[16.39473,48.246293]}},{"type":"Feature","properties":{"osm_id":"2211799784","station_name":"Floridsdorf","element_type":"node","station_id":"4645"},"geometry":{"type":"Point","coordinates":[16.400563,48.256184]}},{"type":"Feature","properties":{"osm_id":"2440606392","station_name":"Ottakring","element_type":"node","station_id":"4931"},"geometry":{"type":"Point","coordinates":[16.311322,48.210994]}},{"type":"Feature","properties":{"osm_id":"2440652906","station_name":"Kendlerstraße","element_type":"node","station_id":"4932"},"geometry":{"type":"Point","coordinates":[16.309052,48.204582]}},{"type":"Feature","properties":{"osm_id":"2962398854","station_name":"Hütteldorfer Straße","element_type":"node","station_id":"4933"},"geometry":{"type":"Point","coordinates":[16.310965,48.200049]}},{"type":"Feature","properties":{"osm_id":"2440684754","station_name":"Johnstraße","element_type":"node","station_id":"4926"},"geometry":{"type":"Point","coordinates":[16.320244,48.197569]}},{"type":"Feature","properties":{"osm_id":"2440681196","station_name":"Schweglerstraße","element_type":"node","station_id":"4927"},"geometry":{"type":"Point","coordinates":[16.328728,48.197478]}},{"type":"Feature","properties":{"osm_id":"4348437230","station_name":"Zieglergasse","element_type":"node","station_id":"4922"},"geometry":{"type":"Point","coordinates":[16.346302,48.197119]}},{"type":"Feature","properties":{"osm_id":"4348437214","station_name":"Neubaugasse","element_type":"node","station_id":"4923"},"geometry":{"type":"Point","coordinates":[16.352584,48.19923]}},{"type":"Feature","properties":{"osm_id":"2443041093","station_name":"Volkstheater","element_type":"node","station_id":"4909"},"geometry":{"type":"Point","coordinates":[16.358558,48.205355]}},{"type":"Feature","properties":{"osm_id":"2769169147","station_name":"Herrengasse","element_type":"node","station_id":"4910"},"geometry":{"type":"Point","coordinates":[16.365136,48.209224]}},{"type":"Feature","properties":{"osm_id":"2784233504","station_name":"Stubentor","element_type":"node","station_id":"4912"},"geometry":{"type":"Point","coordinates":[16.379182,48.206894]}},{"type":"Feature","properties":{"osm_id":"4348401659","station_name":"Landstraße","element_type":"node","station_id":"4913"},"geometry":{"type":"Point","coordinates":[16.385288,48.206303]}},{"type":"Feature","properties":{"osm_id":"4348402507","station_name":"Rochusgasse","element_type":"node","station_id":"4914"},"geometry":{"type":"Point","coordinates":[16.392215,48.202055]}},{"type":"Feature","properties":{"osm_id":"4348401657","station_name":"Kardinal-Nagl-Platz","element_type":"node","station_id":"4915"},"geometry":{"type":"Point","coordinates":[16.399816,48.197564]}},{"type":"Feature","properties":{"osm_id":"4348402509","station_name":"Schlachthausgasse","element_type":"node","station_id":"4916"},"geometry":{"type":"Point","coordinates":[16.406566,48.194434]}},{"type":"Feature","properties":{"osm_id":"2323609149","station_name":"Erdberg","element_type":"node","station_id":"4917"},"geometry":{"type":"Point","coordinates":[16.414072,48.191402]}},{"type":"Feature","properties":{"osm_id":"4348361652","station_name":"Gasometer","element_type":"node","station_id":"4934"},"geometry":{"type":"Point","coordinates":[16.417246,48.184901]}},{"type":"Feature","properties":{"osm_id":"4348361821","station_name":"Zippererstraße","element_type":"node","station_id":"4935"},"geometry":{"type":"Point","coordinates":[16.411699,48.180341]}},{"type":"Feature","properties":{"osm_id":"4348361649","station_name":"Enkplatz","element_type":"node","station_id":"4936"},"geometry":{"type":"Point","coordinates":[16.41457,48.17464]}},{"type":"Feature","properties":{"osm_id":"4348361818","station_name":"Simmering","element_type":"node","station_id":"4937"},"geometry":{"type":"Point","coordinates":[16.420455,48.169729]}},{"type":"Feature","properties":{"osm_id":"4123328189","station_name":"Museumsquartier","element_type":"node","station_id":"4204"},"geometry":{"type":"Point","coordinates":[16.361086,48.202817]}},{"type":"Feature","properties":{"osm_id":"2216387623","station_name":"Rathaus","element_type":"node","station_id":"4210"},"geometry":{"type":"Point","coordinates":[16.355359,48.209824]}},{"type":"Feature","properties":{"osm_id":"2216387644","station_name":"Schottentor","element_type":"node","station_id":"4212"},"geometry":{"type":"Point","coordinates":[16.363072,48.215076]}},{"type":"Feature","properties":{"osm_id":"2525338265","station_name":"Schottenring","element_type":"node","station_id":"4214"},"geometry":{"type":"Point","coordinates":[16.372369,48.216966]}},{"type":"Feature","properties":{"osm_id":"62667240","station_name":"Taborstraße","element_type":"node","station_id":"4262"},"geometry":{"type":"Point","coordinates":[16.381425,48.219088]}},{"type":"Feature","properties":{"osm_id":"2525408826","station_name":"Messe-Prater","element_type":"node","station_id":"4264"},"geometry":{"type":"Point","coordinates":[16.404929,48.217728]}},{"type":"Feature","properties":{"osm_id":"62671827","station_name":"Krieau","element_type":"node","station_id":"4265"},"geometry":{"type":"Point","coordinates":[16.413684,48.21465]}},{"type":"Feature","properties":{"osm_id":"1570802247","station_name":"Stadion","element_type":"node","station_id":"4266"},"geometry":{"type":"Point","coordinates":[16.420365,48.210416]}},{"type":"Feature","properties":{"osm_id":"62671836","station_name":"Donaumarina","element_type":"node","station_id":"4268"},"geometry":{"type":"Point","coordinates":[16.431482,48.206364]}},{"type":"Feature","properties":{"osm_id":"69389284","station_name":"Donaustadtbrücke","element_type":"node","station_id":"4267"},"geometry":{"type":"Point","coordinates":[16.440187,48.211791]}},{"type":"Feature","properties":{"osm_id":"69391819","station_name":"Stadlau","element_type":"node","station_id":"4269"},"geometry":{"type":"Point","coordinates":[16.449614,48.219713]}},{"type":"Feature","properties":{"osm_id":"69393189","station_name":"Hardeggasse","element_type":"node","station_id":"4270"},"geometry":{"type":"Point","coordinates":[16.457732,48.220834]}},{"type":"Feature","properties":{"osm_id":"68187430","station_name":"Donauspital","element_type":"node","station_id":"4271"},"geometry":{"type":"Point","coordinates":[16.46663,48.219367]}},{"type":"Feature","properties":{"osm_id":"68187437","station_name":"Aspernstraße","element_type":"node","station_id":"4272"},"geometry":{"type":"Point","coordinates":[16.475,48.222548]}},{"type":"Feature","properties":{"osm_id":"13155134491","station_name":"Lina-Loos-Platz","element_type":"node","station_id":"4273"},"geometry":{"type":"Point","coordinates":[16.478641,48.228424]}},{"type":"Feature","properties":{"osm_id":"486237352","station_name":"Hausfeldstraße","element_type":"node","station_id":"4274"},"geometry":{"type":"Point","coordinates":[16.485773,48.233365]}},{"type":"Feature","properties":{"osm_id":"2012172246","station_name":"Aspern Nord","element_type":"node","station_id":"4275"},"geometry":{"type":"Point","coordinates":[16.504505,48.234433]}},{"type":"Feature","properties":{"osm_id":"2012172250","station_name":"Seestadt","element_type":"node","station_id":"4276"},"geometry":{"type":"Point","coordinates":[16.508326,48.226283]}},{"type":"Feature","properties":{"osm_id":"1740822565","station_name":"Hütteldorf","element_type":"node","station_id":"4401"},"geometry":{"type":"Point","coordinates":[16.260806,48.196902]}},{"type":"Feature","properties":{"osm_id":"1243190451","station_name":"Ober St. Veit","element_type":"node","station_id":"4403"},"geometry":{"type":"Point","coordinates":[16.276164,48.192224]}},{"type":"Feature","properties":{"osm_id":"1243190167","station_name":"Unter St. Veit","element_type":"node","station_id":"4405"},"geometry":{"type":"Point","coordinates":[16.285985,48.191108]}},{"type":"Feature","properties":{"osm_id":"1243189782","station_name":"Braunschweiggasse","element_type":"node","station_id":"4407"},"geometry":{"type":"Point","coordinates":[16.29581,48.189394]}},{"type":"Feature","properties":{"osm_id":"1243190081","station_name":"Hietzing","element_type":"node","station_id":"4409"},"geometry":{"type":"Point","coordinates":[16.304573,48.187569]}},{"type":"Feature","properties":{"osm_id":"1243189796","station_name":"Schönbrunn","element_type":"node","station_id":"4411"},"geometry":{"type":"Point","coordinates":[16.318933,48.186034]}},{"type":"Feature","properties":{"osm_id":"1243190224","station_name":"Meidling Hauptstraße","element_type":"node","station_id":"4413"},"geometry":{"type":"Point","coordinates":[16.327914,48.183562]}},{"type":"Feature","properties":{"osm_id":"2214978287","station_name":"Margaretengürtel","element_type":"node","station_id":"4415"},"geometry":{"type":"Point","coordinates":[16.343035,48.188472]}},{"type":"Feature","properties":{"osm_id":"2241739000","station_name":"Pilgramgasse","element_type":"node","station_id":"4417"},"geometry":{"type":"Point","coordinates":[16.354302,48.192123]}},{"type":"Feature","properties":{"osm_id":"2241738995","station_name":"Kettenbrückengasse","element_type":"node","station_id":"4419"},"geometry":{"type":"Point","coordinates":[16.358066,48.196615]}},{"type":"Feature","properties":{"osm_id":"3966904573","station_name":"Stadtpark","element_type":"node","station_id":"4423"},"geometry":{"type":"Point","coordinates":[16.379739,48.202876]}},{"type":"Feature","properties":{"osm_id":"2525501991","station_name":"Roßauer Lände","element_type":"node","station_id":"4431"},"geometry":{"type":"Point","coordinates":[16.367594,48.222337]}},{"type":"Feature","properties":{"osm_id":"60291628","station_name":"Friedensbrücke","element_type":"node","station_id":"4433"},"geometry":{"type":"Point","coordinates":[16.364058,48.227881]}},{"type":"Feature","properties":{"osm_id":"105411815","station_name":"Heiligenstadt","element_type":"node","station_id":"4435"},"geometry":{"type":"Point","coordinates":[16.365634,48.248143]}}]}