{"type":"FeatureCollection","generator":"metroOsmFetch (OpenStreetMap / Overpass, ODbL)","features":[{"type":"Feature","properties":{"route_company":"Wiener Linien","route_id":"U1","element_type":"way","color":"#e3000f","route_name":"U1: Oberlaa => Leopoldau","osm_id":"22494","railway":"subway","status":"open"},"geometry":{"type":"LineString","coordinates":[[16.399879,48.142318],[16.385612,48.145769],[16.382353,48.153768],[16.383244,48.1623],[16.380283,48.169017],[16.377904,48.174958],[16.376121,48.179351],[16.373446,48.187104],[16.370437,48.193654],[16.369283,48.20098],[16.371825,48.208229],[16.37814,48.211752],[16.385455,48.215255],[16.393436,48.219133],[16.401052,48.223625],[16.411393,48.229214],[16.416468,48.232854],[16.424768,48.23827],[16.43291,48.242994],[16.443273,48.250248],[16.449647,48.257603],[16.451627,48.263428],[16.447861,48.271097],[16.452125,48.27759]]}},{"type":"Feature","properties":{"route_company":"Wiener Linien","route_id":"U6","element_type":"way","color":"#9d6830","route_name":"U6: Siebenhirten => Floridsdorf","osm_id":"2853012","railway":"subway","status":"open"},"geometry":{"type":"LineString","coordinates":[[16.309839,48.130502],[16.313248,48.136618],[16.316535,48.14199],[16.316845,48.150505],[16.324206,48.160679],[16.327793,48.164983],[16.331418,48.173527],[16.331151,48.18077],[16.335006,48.184866],[16.337548,48.190735],[16.338804,48.196308],[16.337207,48.203288],[16.338005,48.207797],[16.339164,48.211471],[16.341835,48.216804],[16.344245,48.221242],[16.349508,48.225588],[16.352451,48.23133],[16.358337,48.235194],[16.368682,48.235225],[16.380108,48.237244],[16.385664,48.241848],[16.394706,48.246299],[16.400454,48.256223]]}},{"type":"Feature","properties":{"route_company":"Wiener Linien","route_id":"U3","element_type":"way","color":"#ef7c00","route_name":"U3: Ottakring => Simmering","osm_id":"20309","railway":"subway","status":"open"},"geometry":{"type":"LineString","coordinates":[[16.311344,48.210991],[16.309142,48.204569],[16.311042,48.200093],[16.320253,48.197627],[16.328627,48.197692],[16.338804,48.196308],[16.346302,48.197119],[16.352584,48.19923],[16.358448,48.205419],[16.365102,48.209321],[16.371825,48.208229],[16.379198,48.206943],[16.385258,48.20634],[16.392263,48.202095],[16.399858,48.197596],[16.406605,48.194479],[16.414128,48.191439],[16.417265,48.184895],[16.411958,48.18025],[16.414748,48.174731],[16.420534,48.169777]]}},{"type":"Feature","properties":{"route_company":"Wiener Linien","route_id":"U2","element_type":"way","color":"#a862a4","route_name":"U2: Karlsplatz => Seestadt","osm_id":"27114","railway":"subway","status":"open"},"geometry":{"type":"LineString","coordinates":[[16.369283,48.20098],[16.361217,48.202713],[16.358448,48.205419],[16.355448,48.210325],[16.363034,48.215113],[16.372201,48.216989],[16.381321,48.219218],[16.393436,48.219133],[16.404936,48.217784],[16.413738,48.214695],[16.420515,48.210485],[16.431463,48.206382],[16.440163,48.211802],[16.449562,48.219772],[16.457748,48.220896],[16.466647,48.219418],[16.474914,48.222569],[16.478569,48.228438],[16.485625,48.233407],[16.504495,48.2345],[16.50841,48.226266]]}},{"type":"Feature","properties":{"route_company":"Wiener Linien","route_id":"U4","element_type":"way","color":"#319f49","route_name":"U4: Hütteldorf => Heiligenstadt","osm_id":"2852864","railway":"subway","status":"open"},"geometry":{"type":"LineString","coordinates":[[16.260841,48.196968],[16.276165,48.192239],[16.28599,48.191122],[16.295818,48.189407],[16.304578,48.187583],[16.318941,48.186047],[16.32792,48.183644],[16.335006,48.184866],[16.343033,48.188486],[16.354281,48.192129],[16.35806,48.196629],[16.369283,48.20098],[16.379724,48.202887],[16.385258,48.20634],[16.37814,48.211752],[16.372201,48.216989],[16.367573,48.222337],[16.363975,48.227838],[16.358337,48.235194],[16.365603,48.248151]]}},{"type":"Feature","properties":{"osm_id":"4725643935","station_name":"Oberlaa","element_type":"node","station_id":"4134"},"geometry":{"type":"Point","coordinates":[16.399879,48.142318]}},{"type":"Feature","properties":{"osm_id":"5016149162","station_name":"Neulaa","element_type":"node","station_id":"4135"},"geometry":{"type":"Point","coordinates":[16.385612,48.145769]}},{"type":"Feature","properties":{"osm_id":"5018582556","station_name":"Alaudagasse","element_type":"node","station_id":"4136"},"geometry":{"type":"Point","coordinates":[16.382353,48.153768]}},{"type":"Feature","properties":{"osm_id":"5057951095","station_name":"Altes Landgut","element_type":"node","station_id":"4137"},"geometry":{"type":"Point","coordinates":[16.383244,48.1623]}},{"type":"Feature","properties":{"osm_id":"5057951093","station_name":"Troststraße","element_type":"node","station_id":"4138"},"geometry":{"type":"Point","coordinates":[16.380283,48.169017]}},{"type":"Feature","properties":{"osm_id":"1862342812","station_name":"Reumannplatz","element_type":"node","station_id":"4101"},"geometry":{"type":"Point","coordinates":[16.377904,48.174958]}},{"type":"Feature","properties":{"osm_id":"60825796","station_name":"Keplerplatz","element_type":"node","station_id":"4103"},"geometry":{"type":"Point","coordinates":[16.376121,48.179351]}},{"type":"Feature","properties":{"osm_id":"1010572279","station_name":"Südtiroler Platz-Hauptbahnhof","element_type":"node","station_id":"4105"},"geometry":{"type":"Point","coordinates":[16.373446,48.187104]}},{"type":"Feature","properties":{"osm_id":"59838615","station_name":"Taubstummengasse","element_type":"node","station_id":"4107"},"geometry":{"type":"Point","coordinates":[16.370437,48.193654]}},{"type":"Feature","properties":{"osm_id":"2525543991","station_name":"Karlsplatz","element_type":"node","station_id":"4109"},"geometry":{"type":"Point","coordinates":[16.369283,48.20098]}},{"type":"Feature","properties":{"osm_id":"1993538250","station_name":"Stephansplatz","element_type":"node","station_id":"4111"},"geometry":{"type":"Point","coordinates":[16.371825,48.208229]}},{"type":"Feature","properties":{"osm_id":"1399692389","station_name":"Schwedenplatz","element_type":"node","station_id":"4113"},"geometry":{"type":"Point","coordinates":[16.37814,48.211752]}},{"type":"Feature","properties":{"osm_id":"4169992592","station_name":"Nestroyplatz","element_type":"node","station_id":"4115"},"geometry":{"type":"Point","coordinates":[16.385455,48.215255]}},{"type":"Feature","properties":{"osm_id":"3725915785","station_name":"Praterstern","element_type":"node","station_id":"4117"},"geometry":{"type":"Point","coordinates":[16.393436,48.219133]}},{"type":"Feature","properties":{"osm_id":"4169762802","station_name":"Vorgartenstraße","element_type":"node","station_id":"4119"},"geometry":{"type":"Point","coordinates":[16.401052,48.223625]}},{"type":"Feature","properties":{"osm_id":"4169472789","station_name":"Donauinsel","element_type":"node","station_id":"4121"},"geometry":{"type":"Point","coordinates":[16.411393,48.229214]}},{"type":"Feature","properties":{"osm_id":"57592307","station_name":"Kaisermühlen - VIC","element_type":"node","station_id":"4123"},"geometry":{"type":"Point","coordinates":[16.416468,48.232854]}},{"type":"Feature","properties":{"osm_id":"57592312","station_name":"Alte Donau","element_type":"node","station_id":"4125"},"geometry":{"type":"Point","coordinates":[16.424768,48.23827]}},{"type":"Feature","properties":{"osm_id":"57592315","station_name":"Kagran","element_type":"node","station_id":"4127"},"geometry":{"type":"Point","coordinates":[16.43291,48.242994]}},{"type":"Feature","properties":{"osm_id":"61077005","station_name":"Kagraner Platz","element_type":"node","station_id":"4181"},"geometry":{"type":"Point","coordinates":[16.443273,48.250248]}},{"type":"Feature","properties":{"osm_id":"2781801317","station_name":"Rennbahnweg","element_type":"node","station_id":"4182"},"geometry":{"type":"Point","coordinates":[16.449647,48.257603]}},{"type":"Feature","properties":{"osm_id":"2781800961","station_name":"Aderklaaer Straße","element_type":"node","station_id":"4183"},"geometry":{"type":"Point","coordinates":[16.451627,48.263428]}},{"type":"Feature","properties":{"osm_id":"4140676594","station_name":"Großfeldsiedlung","element_type":"node","station_id":"4184"},"geometry":{"type":"Point","coordinates":[16.447861,48.271097]}},{"type":"Feature","properties":{"osm_id":"4140441195","station_name":"Leopoldau","element_type":"node","station_id":"4185"},"geometry":{"type":"Point","coordinates":[16.452125,48.27759]}},{"type":"Feature","properties":{"osm_id":"61688602","station_name":"Siebenhirten","element_type":"node","station_id":"4635"},"geometry":{"type":"Point","coordinates":[16.309839,48.130502]}},{"type":"Feature","properties":{"osm_id":"61688600","station_name":"Perfektastraße","element_type":"node","station_id":"4636"},"geometry":{"type":"Point","coordinates":[16.313248,48.136618]}},{"type":"Feature","properties":{"osm_id":"61688597","station_name":"Erlaaer Straße","element_type":"node","station_id":"4637"},"geometry":{"type":"Point","coordinates":[16.316535,48.14199]}},{"type":"Feature","properties":{"osm_id":"61688590","station_name":"Alterlaa","element_type":"node","station_id":"4638"},"geometry":{"type":"Point","coordinates":[16.316845,48.150505]}},{"type":"Feature","properties":{"osm_id":"1378094193","station_name":"Am Schöpfwerk","element_type":"node","station_id":"4639"},"geometry":{"type":"Point","coordinates":[16.324206,48.160679]}},{"type":"Feature","properties":{"osm_id":"1378094234","station_name":"Tscherttegasse","element_type":"node","station_id":"4640"},"geometry":{"type":"Point","coordinates":[16.327793,48.164983]}},{"type":"Feature","properties":{"osm_id":"2211901255","station_name":"Bahnhof Meidling","element_type":"node","station_id":"4615"},"geometry":{"type":"Point","coordinates":[16.331418,48.173527]}},{"type":"Feature","properties":{"osm_id":"2211901245","station_name":"Niederhofstraße","element_type":"node","station_id":"4616"},"geometry":{"type":"Point","coordinates":[16.331151,48.18077]}},{"type":"Feature","properties":{"osm_id":"624231459","station_name":"Längenfeldgasse","element_type":"node","station_id":"4617"},"geometry":{"type":"Point","coordinates":[16.335006,48.184866]}},{"type":"Feature","properties":{"osm_id":"60092321","station_name":"Gumpendorfer Straße","element_type":"node","station_id":"4618"},"geometry":{"type":"Point","coordinates":[16.337548,48.190735]}},{"type":"Feature","properties":{"osm_id":"446005361","station_name":"Westbahnhof","element_type":"node","station_id":"4619"},"geometry":{"type":"Point","coordinates":[16.338804,48.196308]}},{"type":"Feature","properties":{"osm_id":"60091791","station_name":"Burggasse-Stadthalle","element_type":"node","station_id":"4620"},"geometry":{"type":"Point","coordinates":[16.337207,48.203288]}},{"type":"Feature","properties":{"osm_id":"60091638","station_name":"Thaliastraße","element_type":"node","station_id":"4621"},"geometry":{"type":"Point","coordinates":[16.338005,48.207797]}},{"type":"Feature","properties":{"osm_id":"60091642","station_name":"Josefstädter Straße","element_type":"node","station_id":"4622"},"geometry":{"type":"Point","coordinates":[16.339164,48.211471]}},{"type":"Feature","properties":{"osm_id":"60091648","station_name":"Alser Straße","element_type":"node","station_id":"4623"},"geometry":{"type":"Point","coordinates":[16.341835,48.216804]}},{"type":"Feature","properties":{"osm_id":"60091653","station_name":"Michelbeuern-AKH","element_type":"node","station_id":"4624"},"geometry":{"type":"Point","coordinates":[16.344245,48.221242]}},{"type":"Feature","properties":{"osm_id":"60091661","station_name":"Währinger Straße-Volksoper","element_type":"node","station_id":"4625"},"geometry":{"type":"Point","coordinates":[16.349508,48.225588]}},{"type":"Feature","properties":{"osm_id":"60091400","station_name":"Nußdorfer Straße","element_type":"node","station_id":"4626"},"geometry":{"type":"Point","coordinates":[16.352451,48.23133]}},{"type":"Feature","properties":{"osm_id":"140052877","station_name":"Spittelau","element_type":"node","station_id":"4627"},"geometry":{"type":"Point","coordinates":[16.358337,48.235194]}},{"type":"Feature","properties":{"osm_id":"2211799763","station_name":"Jägerstraße","element_type":"node","station_id":"4641"},"geometry":{"type":"Point","coordinates":[16.368682,48.235225]}},{"type":"Feature","properties":{"osm_id":"2211799727","station_name":"Dresdner Straße","element_type":"node","station_id":"4642"},"geometry":{"type":"Point","coordinates":[16.380108,48.237244]}},{"type":"Feature","properties":{"osm_id":"2211815196","station_name":"Handelskai","element_type":"node","station_id":"4643"},"geometry":{"type":"Point","coordinates":[16.385664,48.241848]}},{"type":"Feature","properties":{"osm_id":"2211815211","station_name":"Neue Donau","element_type":"node","station_id":"4644"},"geometry":{"type":"Point","coordinates":[16.394706,48.246299]}},{"type":"Feature","properties":{"osm_id":"2211799784","station_name":"Floridsdorf","element_type":"node","station_id":"4645"},"geometry":{"type":"Point","coordinates":[16.400454,48.256223]}},{"type":"Feature","properties":{"osm_id":"2440606392","station_name":"Ottakring","element_type":"node","station_id":"4931"},"geometry":{"type":"Point","coordinates":[16.311344,48.210991]}},{"type":"Feature","properties":{"osm_id":"2440652906","station_name":"Kendlerstraße","element_type":"node","station_id":"4932"},"geometry":{"type":"Point","coordinates":[16.309142,48.204569]}},{"type":"Feature","properties":{"osm_id":"2962398854","station_name":"Hütteldorfer Straße","element_type":"node","station_id":"4933"},"geometry":{"type":"Point","coordinates":[16.311042,48.200093]}},{"type":"Feature","properties":{"osm_id":"2440684754","station_name":"Johnstraße","element_type":"node","station_id":"4926"},"geometry":{"type":"Point","coordinates":[16.320253,48.197627]}},{"type":"Feature","properties":{"osm_id":"2440681196","station_name":"Schweglerstraße","element_type":"node","station_id":"4927"},"geometry":{"type":"Point","coordinates":[16.328627,48.197692]}},{"type":"Feature","properties":{"osm_id":"4348437230","station_name":"Zieglergasse","element_type":"node","station_id":"4922"},"geometry":{"type":"Point","coordinates":[16.346302,48.197119]}},{"type":"Feature","properties":{"osm_id":"4348437214","station_name":"Neubaugasse","element_type":"node","station_id":"4923"},"geometry":{"type":"Point","coordinates":[16.352584,48.19923]}},{"type":"Feature","properties":{"osm_id":"2443041093","station_name":"Volkstheater","element_type":"node","station_id":"4909"},"geometry":{"type":"Point","coordinates":[16.358448,48.205419]}},{"type":"Feature","properties":{"osm_id":"2769169147","station_name":"Herrengasse","element_type":"node","station_id":"4910"},"geometry":{"type":"Point","coordinates":[16.365102,48.209321]}},{"type":"Feature","properties":{"osm_id":"2784233504","station_name":"Stubentor","element_type":"node","station_id":"4912"},"geometry":{"type":"Point","coordinates":[16.379198,48.206943]}},{"type":"Feature","properties":{"osm_id":"4348401659","station_name":"Landstraße","element_type":"node","station_id":"4913"},"geometry":{"type":"Point","coordinates":[16.385258,48.20634]}},{"type":"Feature","properties":{"osm_id":"4348402507","station_name":"Rochusgasse","element_type":"node","station_id":"4914"},"geometry":{"type":"Point","coordinates":[16.392263,48.202095]}},{"type":"Feature","properties":{"osm_id":"4348401657","station_name":"Kardinal-Nagl-Platz","element_type":"node","station_id":"4915"},"geometry":{"type":"Point","coordinates":[16.399858,48.197596]}},{"type":"Feature","properties":{"osm_id":"4348402509","station_name":"Schlachthausgasse","element_type":"node","station_id":"4916"},"geometry":{"type":"Point","coordinates":[16.406605,48.194479]}},{"type":"Feature","properties":{"osm_id":"2323609149","station_name":"Erdberg","element_type":"node","station_id":"4917"},"geometry":{"type":"Point","coordinates":[16.414128,48.191439]}},{"type":"Feature","properties":{"osm_id":"4348361652","station_name":"Gasometer","element_type":"node","station_id":"4934"},"geometry":{"type":"Point","coordinates":[16.417265,48.184895]}},{"type":"Feature","properties":{"osm_id":"4348361821","station_name":"Zippererstraße","element_type":"node","station_id":"4935"},"geometry":{"type":"Point","coordinates":[16.411958,48.18025]}},{"type":"Feature","properties":{"osm_id":"4348361649","station_name":"Enkplatz","element_type":"node","station_id":"4936"},"geometry":{"type":"Point","coordinates":[16.414748,48.174731]}},{"type":"Feature","properties":{"osm_id":"4348361818","station_name":"Simmering","element_type":"node","station_id":"4937"},"geometry":{"type":"Point","coordinates":[16.420534,48.169777]}},{"type":"Feature","properties":{"osm_id":"4123328189","station_name":"Museumsquartier","element_type":"node","station_id":"4204"},"geometry":{"type":"Point","coordinates":[16.361217,48.202713]}},{"type":"Feature","properties":{"osm_id":"2216387623","station_name":"Rathaus","element_type":"node","station_id":"4210"},"geometry":{"type":"Point","coordinates":[16.355448,48.210325]}},{"type":"Feature","properties":{"osm_id":"2216387644","station_name":"Schottentor","element_type":"node","station_id":"4212"},"geometry":{"type":"Point","coordinates":[16.363034,48.215113]}},{"type":"Feature","properties":{"osm_id":"2525338265","station_name":"Schottenring","element_type":"node","station_id":"4214"},"geometry":{"type":"Point","coordinates":[16.372201,48.216989]}},{"type":"Feature","properties":{"osm_id":"62667240","station_name":"Taborstraße","element_type":"node","station_id":"4262"},"geometry":{"type":"Point","coordinates":[16.381321,48.219218]}},{"type":"Feature","properties":{"osm_id":"2525408826","station_name":"Messe-Prater","element_type":"node","station_id":"4264"},"geometry":{"type":"Point","coordinates":[16.404936,48.217784]}},{"type":"Feature","properties":{"osm_id":"62671827","station_name":"Krieau","element_type":"node","station_id":"4265"},"geometry":{"type":"Point","coordinates":[16.413738,48.214695]}},{"type":"Feature","properties":{"osm_id":"1570802247","station_name":"Stadion","element_type":"node","station_id":"4266"},"geometry":{"type":"Point","coordinates":[16.420515,48.210485]}},{"type":"Feature","properties":{"osm_id":"62671836","station_name":"Donaumarina","element_type":"node","station_id":"4268"},"geometry":{"type":"Point","coordinates":[16.431463,48.206382]}},{"type":"Feature","properties":{"osm_id":"69389284","station_name":"Donaustadtbrücke","element_type":"node","station_id":"4267"},"geometry":{"type":"Point","coordinates":[16.440163,48.211802]}},{"type":"Feature","properties":{"osm_id":"69391819","station_name":"Stadlau","element_type":"node","station_id":"4269"},"geometry":{"type":"Point","coordinates":[16.449562,48.219772]}},{"type":"Feature","properties":{"osm_id":"69393189","station_name":"Hardeggasse","element_type":"node","station_id":"4270"},"geometry":{"type":"Point","coordinates":[16.457748,48.220896]}},{"type":"Feature","properties":{"osm_id":"68187430","station_name":"Donauspital","element_type":"node","station_id":"4271"},"geometry":{"type":"Point","coordinates":[16.466647,48.219418]}},{"type":"Feature","properties":{"osm_id":"68187437","station_name":"Aspernstraße","element_type":"node","station_id":"4272"},"geometry":{"type":"Point","coordinates":[16.474914,48.222569]}},{"type":"Feature","properties":{"osm_id":"13155134491","station_name":"Lina-Loos-Platz","element_type":"node","station_id":"4273"},"geometry":{"type":"Point","coordinates":[16.478569,48.228438]}},{"type":"Feature","properties":{"osm_id":"486237352","station_name":"Hausfeldstraße","element_type":"node","station_id":"4274"},"geometry":{"type":"Point","coordinates":[16.485625,48.233407]}},{"type":"Feature","properties":{"osm_id":"2012172246","station_name":"Aspern Nord","element_type":"node","station_id":"4275"},"geometry":{"type":"Point","coordinates":[16.504495,48.2345]}},{"type":"Feature","properties":{"osm_id":"2012172250","station_name":"Seestadt","element_type":"node","station_id":"4276"},"geometry":{"type":"Point","coordinates":[16.50841,48.226266]}},{"type":"Feature","properties":{"osm_id":"1740822565","station_name":"Hütteldorf","element_type":"node","station_id":"4401"},"geometry":{"type":"Point","coordinates":[16.260841,48.196968]}},{"type":"Feature","properties":{"osm_id":"1243190451","station_name":"Ober St. Veit","element_type":"node","station_id":"4403"},"geometry":{"type":"Point","coordinates":[16.276165,48.192239]}},{"type":"Feature","properties":{"osm_id":"1243190167","station_name":"Unter St. Veit","element_type":"node","station_id":"4405"},"geometry":{"type":"Point","coordinates":[16.28599,48.191122]}},{"type":"Feature","properties":{"osm_id":"1243189782","station_name":"Braunschweiggasse","element_type":"node","station_id":"4407"},"geometry":{"type":"Point","coordinates":[16.295818,48.189407]}},{"type":"Feature","properties":{"osm_id":"1243190081","station_name":"Hietzing","element_type":"node","station_id":"4409"},"geometry":{"type":"Point","coordinates":[16.304578,48.187583]}},{"type":"Feature","properties":{"osm_id":"1243189796","station_name":"Schönbrunn","element_type":"node","station_id":"4411"},"geometry":{"type":"Point","coordinates":[16.318941,48.186047]}},{"type":"Feature","properties":{"osm_id":"1243190224","station_name":"Meidling Hauptstraße","element_type":"node","station_id":"4413"},"geometry":{"type":"Point","coordinates":[16.32792,48.183644]}},{"type":"Feature","properties":{"osm_id":"2214978287","station_name":"Margaretengürtel","element_type":"node","station_id":"4415"},"geometry":{"type":"Point","coordinates":[16.343033,48.188486]}},{"type":"Feature","properties":{"osm_id":"2241739000","station_name":"Pilgramgasse","element_type":"node","station_id":"4417"},"geometry":{"type":"Point","coordinates":[16.354281,48.192129]}},{"type":"Feature","properties":{"osm_id":"2241738995","station_name":"Kettenbrückengasse","element_type":"node","station_id":"4419"},"geometry":{"type":"Point","coordinates":[16.35806,48.196629]}},{"type":"Feature","properties":{"osm_id":"3966904573","station_name":"Stadtpark","element_type":"node","station_id":"4423"},"geometry":{"type":"Point","coordinates":[16.379724,48.202887]}},{"type":"Feature","properties":{"osm_id":"2525501991","station_name":"Roßauer Lände","element_type":"node","station_id":"4431"},"geometry":{"type":"Point","coordinates":[16.367573,48.222337]}},{"type":"Feature","properties":{"osm_id":"60291628","station_name":"Friedensbrücke","element_type":"node","station_id":"4433"},"geometry":{"type":"Point","coordinates":[16.363975,48.227838]}},{"type":"Feature","properties":{"osm_id":"105411815","station_name":"Heiligenstadt","element_type":"node","station_id":"4435"},"geometry":{"type":"Point","coordinates":[16.365603,48.248151]}}]}