{"type":"FeatureCollection","generator":"metroOsmFetch (OpenStreetMap / Overpass, ODbL)","features":[{"type":"Feature","properties":{"route_company":"","route_id":"1","element_type":"way","color":"#e6194b","route_name":"Chilonzor yoʻnalishi: Chinor => Buyuk ipak yoʻli","osm_id":"2254096","railway":"subway","status":"open"},"geometry":{"type":"LineString","coordinates":[[69.218748,41.207061],[69.213789,41.213874],[69.208604,41.221053],[69.203739,41.227739],[69.19586,41.238581],[69.196218,41.257112],[69.205169,41.274437],[69.212657,41.281995],[69.224168,41.292264],[69.235984,41.303637],[69.243378,41.312086],[69.254954,41.318004],[69.271679,41.31476],[69.283949,41.313254],[69.296297,41.318364],[69.311809,41.322136],[69.328542,41.326076]]}},{"type":"Feature","properties":{"route_company":"Ташкентский метрополитен","route_id":"4","element_type":"way","color":"#9933ff","route_name":"Circle Line: Qipchok - Texnopark","osm_id":"11649095","railway":"subway","status":"open"},"geometry":{"type":"LineString","coordinates":[[69.221957,41.205592],[69.234649,41.210858],[69.261022,41.221803],[69.270675,41.230311],[69.285558,41.244471],[69.300245,41.244423],[69.308833,41.24444],[69.327496,41.237481],[69.35903,41.256858],[69.365045,41.265608],[69.360319,41.282069],[69.356408,41.291864],[69.349438,41.297854],[69.322691,41.29399]]}},{"type":"Feature","properties":{"route_company":"","route_id":"2","element_type":"way","color":"#3cb44b","route_name":"Узбекистанская линия Беруни - Дустлик","osm_id":"2255159","railway":"subway","status":"open"},"geometry":{"type":"LineString","coordinates":[[69.206186,41.34464],[69.219441,41.332067],[69.237228,41.3259],[69.246197,41.32773],[69.254954,41.318004],[69.253357,41.311775],[69.265407,41.30492],[69.274102,41.298592],[69.288057,41.293431],[69.30559,41.298856],[69.322691,41.29399]]}},{"type":"Feature","properties":{"route_company":"","route_id":"3","element_type":"way","color":"#4363d8","route_name":"Юнусабадская линия Туркистон - Мингурюк","osm_id":"2458135","railway":"subway","status":"open"},"geometry":{"type":"LineString","coordinates":[[69.295857,41.377149],[69.291708,41.366349],[69.287958,41.352588],[69.284425,41.336609],[69.283365,41.326388],[69.281584,41.319472],[69.283949,41.313254],[69.274102,41.298592]]}},{"type":"Feature","properties":{"osm_id":"10541839546","station_name":"Chinor","element_type":"node","station_id":"10541839546"},"geometry":{"type":"Point","coordinates":[69.218748,41.207061]}},{"type":"Feature","properties":{"osm_id":"10541839551","station_name":"Yangihayot","element_type":"node","station_id":"10541839551"},"geometry":{"type":"Point","coordinates":[69.213789,41.213874]}},{"type":"Feature","properties":{"osm_id":"10541839549","station_name":"Sergeli","element_type":"node","station_id":"10541839549"},"geometry":{"type":"Point","coordinates":[69.208604,41.221053]}},{"type":"Feature","properties":{"osm_id":"10541839542","station_name":"O‘zgarish","element_type":"node","station_id":"10541839542"},"geometry":{"type":"Point","coordinates":[69.203739,41.227739]}},{"type":"Feature","properties":{"osm_id":"10541839544","station_name":"Choshtepa","element_type":"node","station_id":"10541839544"},"geometry":{"type":"Point","coordinates":[69.19586,41.238581]}},{"type":"Feature","properties":{"osm_id":"5185726875","station_name":"Olmazor","element_type":"node","station_id":"5185726875"},"geometry":{"type":"Point","coordinates":[69.196218,41.257112]}},{"type":"Feature","properties":{"osm_id":"5185726872","station_name":"Chilonzor","element_type":"node","station_id":"5185726872"},"geometry":{"type":"Point","coordinates":[69.205169,41.274437]}},{"type":"Feature","properties":{"osm_id":"5185753357","station_name":"Mirzo Ulugʻbek","element_type":"node","station_id":"5185753357"},"geometry":{"type":"Point","coordinates":[69.212657,41.281995]}},{"type":"Feature","properties":{"osm_id":"5185753354","station_name":"Novza","element_type":"node","station_id":"5185753354"},"geometry":{"type":"Point","coordinates":[69.224168,41.292264]}},{"type":"Feature","properties":{"osm_id":"5185753352","station_name":"Milliy bogʻ","element_type":"node","station_id":"5185753352"},"geometry":{"type":"Point","coordinates":[69.235984,41.303637]}},{"type":"Feature","properties":{"osm_id":"5185753350","station_name":"Xalqlar Do'stligi","element_type":"node","station_id":"5185753350"},"geometry":{"type":"Point","coordinates":[69.243378,41.312086]}},{"type":"Feature","properties":{"osm_id":"5185753348","station_name":"Paxtakor","element_type":"node","station_id":"5185753348"},"geometry":{"type":"Point","coordinates":[69.254954,41.318004]}},{"type":"Feature","properties":{"osm_id":"5184193364","station_name":"Mustaqillik maydoni","element_type":"node","station_id":"5184193364"},"geometry":{"type":"Point","coordinates":[69.271679,41.31476]}},{"type":"Feature","properties":{"osm_id":"5174795717","station_name":"Amir Temur xiyoboni","element_type":"node","station_id":"5174795717"},"geometry":{"type":"Point","coordinates":[69.283949,41.313254]}},{"type":"Feature","properties":{"osm_id":"5184193373","station_name":"Hamid Olimjon","element_type":"node","station_id":"5184193373"},"geometry":{"type":"Point","coordinates":[69.296297,41.318364]}},{"type":"Feature","properties":{"osm_id":"5184193367","station_name":"Pushkin","element_type":"node","station_id":"5184193367"},"geometry":{"type":"Point","coordinates":[69.311809,41.322136]}},{"type":"Feature","properties":{"osm_id":"1950953609","station_name":"Buyuk Ipak Yo'li","element_type":"node","station_id":"1950953609"},"geometry":{"type":"Point","coordinates":[69.328542,41.326076]}},{"type":"Feature","properties":{"osm_id":"11534936797","station_name":"Qipchok","element_type":"node","station_id":"11534936797"},"geometry":{"type":"Point","coordinates":[69.221957,41.205592]}},{"type":"Feature","properties":{"osm_id":"11534936799","station_name":"Turon","element_type":"node","station_id":"11534936799"},"geometry":{"type":"Point","coordinates":[69.234649,41.210858]}},{"type":"Feature","properties":{"osm_id":"9209214732","station_name":"Quruvchilar","element_type":"node","station_id":"9209214732"},"geometry":{"type":"Point","coordinates":[69.261022,41.221803]}},{"type":"Feature","properties":{"osm_id":"10846611077","station_name":"Xonobod","element_type":"node","station_id":"10846611077"},"geometry":{"type":"Point","coordinates":[69.270675,41.230311]}},{"type":"Feature","properties":{"osm_id":"10846611079","station_name":"Tolarik","element_type":"node","station_id":"10846611079"},"geometry":{"type":"Point","coordinates":[69.285558,41.244471]}},{"type":"Feature","properties":{"osm_id":"8962013669","station_name":"Qiyot","element_type":"node","station_id":"8962013669"},"geometry":{"type":"Point","coordinates":[69.300245,41.244423]}},{"type":"Feature","properties":{"osm_id":"10846611080","station_name":"Matonat","element_type":"node","station_id":"10846611080"},"geometry":{"type":"Point","coordinates":[69.308833,41.24444]}},{"type":"Feature","properties":{"osm_id":"7910174393","station_name":"Qo‘yliq","element_type":"node","station_id":"7910174393"},"geometry":{"type":"Point","coordinates":[69.327496,41.237481]}},{"type":"Feature","properties":{"osm_id":"7926229125","station_name":"Yangiobod","element_type":"node","station_id":"7926229125"},"geometry":{"type":"Point","coordinates":[69.35903,41.256858]}},{"type":"Feature","properties":{"osm_id":"7597627323","station_name":"Rohat","element_type":"node","station_id":"7597627323"},"geometry":{"type":"Point","coordinates":[69.365045,41.265608]}},{"type":"Feature","properties":{"osm_id":"7597594278","station_name":"Алмас","element_type":"node","station_id":"7597594278"},"geometry":{"type":"Point","coordinates":[69.360319,41.282069]}},{"type":"Feature","properties":{"osm_id":"7596256675","station_name":"Tuzel","element_type":"node","station_id":"7596256675"},"geometry":{"type":"Point","coordinates":[69.356408,41.291864]}},{"type":"Feature","properties":{"osm_id":"6902085593","station_name":"Yashnobod","element_type":"node","station_id":"6902085593"},"geometry":{"type":"Point","coordinates":[69.349438,41.297854]}},{"type":"Feature","properties":{"osm_id":"6923918549","station_name":"Texnopark","element_type":"node","station_id":"6923918549"},"geometry":{"type":"Point","coordinates":[69.322691,41.29399]}},{"type":"Feature","properties":{"osm_id":"5194171822","station_name":"Beruniy","element_type":"node","station_id":"5194171822"},"geometry":{"type":"Point","coordinates":[69.206186,41.34464]}},{"type":"Feature","properties":{"osm_id":"5194171825","station_name":"Tinchlik","element_type":"node","station_id":"5194171825"},"geometry":{"type":"Point","coordinates":[69.219441,41.332067]}},{"type":"Feature","properties":{"osm_id":"5194171826","station_name":"Chorsu","element_type":"node","station_id":"5194171826"},"geometry":{"type":"Point","coordinates":[69.237228,41.3259]}},{"type":"Feature","properties":{"osm_id":"5194171828","station_name":"Gʻafur Gʻulom","element_type":"node","station_id":"5194171828"},"geometry":{"type":"Point","coordinates":[69.246197,41.32773]}},{"type":"Feature","properties":{"osm_id":"5185762196","station_name":"Oʻzbekiston","element_type":"node","station_id":"5185762196"},"geometry":{"type":"Point","coordinates":[69.253357,41.311775]}},{"type":"Feature","properties":{"osm_id":"5185762194","station_name":"Kosmonavtlar","element_type":"node","station_id":"5185762194"},"geometry":{"type":"Point","coordinates":[69.265407,41.30492]}},{"type":"Feature","properties":{"osm_id":"5174740624","station_name":"Oybek","element_type":"node","station_id":"5174740624"},"geometry":{"type":"Point","coordinates":[69.274102,41.298592]}},{"type":"Feature","properties":{"osm_id":"5185798526","station_name":"Toshkent","element_type":"node","station_id":"5185798526"},"geometry":{"type":"Point","coordinates":[69.288057,41.293431]}},{"type":"Feature","properties":{"osm_id":"5194171830","station_name":"Mashinasozlar","element_type":"node","station_id":"5194171830"},"geometry":{"type":"Point","coordinates":[69.30559,41.298856]}},{"type":"Feature","properties":{"osm_id":"7862012477","station_name":"Turkiston","element_type":"node","station_id":"7862012477"},"geometry":{"type":"Point","coordinates":[69.295857,41.377149]}},{"type":"Feature","properties":{"osm_id":"6761195240","station_name":"Yunusobod","element_type":"node","station_id":"6761195240"},"geometry":{"type":"Point","coordinates":[69.291708,41.366349]}},{"type":"Feature","properties":{"osm_id":"5174795708","station_name":"Shahriston","element_type":"node","station_id":"5174795708"},"geometry":{"type":"Point","coordinates":[69.287958,41.352588]}},{"type":"Feature","properties":{"osm_id":"5174795710","station_name":"Bodomzor","element_type":"node","station_id":"5174795710"},"geometry":{"type":"Point","coordinates":[69.284425,41.336609]}},{"type":"Feature","properties":{"osm_id":"5174795712","station_name":"Минор","element_type":"node","station_id":"5174795712"},"geometry":{"type":"Point","coordinates":[69.283365,41.326388]}},{"type":"Feature","properties":{"osm_id":"5174795714","station_name":"Abdulla Qodiriy","element_type":"node","station_id":"5174795714"},"geometry":{"type":"Point","coordinates":[69.281584,41.319472]}}]}