{"type":"FeatureCollection","generator":"metroOsmFetch (OpenStreetMap / Overpass, ODbL)","features":[{"type":"Feature","properties":{"route_company":"Delhi Metro Rail Corporation Limited","route_id":"3","element_type":"way","color":"#4169e1","route_name":"Blue Line (Noida Electronic City → Dwarka Sector 21)","osm_id":"447209","railway":"subway"},"geometry":{"type":"LineString","coordinates":[[77.375096,28.62826],[77.373622,28.616983],[77.372721,28.606525],[77.372309,28.597579],[77.372802,28.586735],[77.363522,28.580228],[77.35625,28.574785],[77.346399,28.567427],[77.334115,28.56392],[77.326147,28.570789],[77.317829,28.578107],[77.311681,28.584926],[77.301583,28.589105],[77.294428,28.594467],[77.290088,28.603777],[77.279526,28.617879],[77.267998,28.623224],[77.249545,28.620583],[77.242512,28.623459],[77.234193,28.625542],[77.224996,28.629753],[77.219556,28.632751],[77.208568,28.639225],[77.199905,28.6443],[77.188528,28.643991],[77.178279,28.642477],[77.169266,28.644995],[77.158243,28.651566],[77.15065,28.655729],[77.142443,28.657842],[77.131657,28.652725],[77.122743,28.649037],[77.11287,28.643729],[77.105235,28.640463],[77.096482,28.636527],[77.086727,28.632989],[77.078009,28.629258],[77.065297,28.62483],[77.055719,28.621737],[77.045084,28.620256],[77.033284,28.619291],[77.022576,28.615423],[77.025994,28.602234],[77.033556,28.597025],[77.040746,28.592252],[77.049455,28.586462],[77.057515,28.581073],[77.065351,28.574282],[77.067062,28.565608],[77.058557,28.551912]]}},{"type":"Feature","properties":{"route_company":"Delhi Metro Rail Corporation Limited","route_id":"7","element_type":"way","color":"#fc8eac","route_name":"Pink Line (Shiv Vihar → Maujpur - Babarpur)","osm_id":"8241298","railway":"subway"},"geometry":{"type":"LineString","coordinates":[[77.289457,28.721431],[77.290156,28.712887],[77.286131,28.702422],[77.279607,28.692121],[77.274872,28.682711],[77.277376,28.672135],[77.28486,28.664686],[77.290163,28.657795],[77.295788,28.653646],[77.305833,28.648872],[77.316058,28.647032],[77.31076,28.631898],[77.304479,28.624961],[77.30542,28.620097],[77.30888,28.613435],[77.298042,28.605631],[77.290088,28.603777],[77.257744,28.588751],[77.258122,28.572003],[77.248735,28.565794],[77.237342,28.570056],[77.22056,28.568543],[77.208455,28.573893],[77.198077,28.575794],[77.18786,28.570239],[77.175709,28.578525],[77.169438,28.589282],[77.140378,28.6086],[77.136413,28.624373],[77.129701,28.637166],[77.124224,28.651176],[77.12723,28.658081],[77.139864,28.673395],[77.149475,28.68591],[77.153352,28.6954],[77.165429,28.701988],[77.181164,28.706444],[77.181817,28.724605],[77.199837,28.729798],[77.213683,28.724905],[77.223944,28.721169],[77.227534,28.710249],[77.242523,28.708759],[77.254483,28.70522],[77.262644,28.70362],[77.277308,28.7024],[77.279607,28.692121]]}},{"type":"Feature","properties":{"route_company":"Delhi Metro Rail Corporation Limited","route_id":"2","element_type":"way","color":"#ffdf00","route_name":"Yellow Line (Samaypur Badli → Millennium City Centre)","osm_id":"447210","railway":"subway"},"geometry":{"type":"LineString","coordinates":[[77.138299,28.744639],[77.139864,28.738344],[77.148872,28.729917],[77.162683,28.725987],[77.170447,28.716598],[77.181164,28.706444],[77.194006,28.702739],[77.206423,28.698156],[77.214748,28.695099],[77.221758,28.686327],[77.225057,28.676857],[77.22818,28.667897],[77.230366,28.658421],[77.226544,28.649251],[77.222933,28.642981],[77.219556,28.632751],[77.214059,28.622954],[77.212352,28.615876],[77.211825,28.609512],[77.211127,28.597355],[77.212564,28.586594],[77.208455,28.573893],[77.207832,28.566854],[77.206821,28.558002],[77.20588,28.543805],[77.204855,28.529067],[77.201898,28.520873],[77.186472,28.51293],[77.174936,28.506755],[77.16091,28.498971],[77.149198,28.493728],[77.125784,28.480716],[77.102272,28.481998],[77.09396,28.481079],[77.079899,28.479524],[77.072452,28.472331],[77.072686,28.459331]]}},{"type":"Feature","properties":{"route_company":"Delhi Metro Rail Corporation Limited","route_id":"6","element_type":"way","color":"#553592","route_name":"Violet Line (Kashmere Gate → Raja Nahar Singh)","osm_id":"2535797","railway":"subway"},"geometry":{"type":"LineString","coordinates":[[77.22818,28.667897],[77.236728,28.65748],[77.237686,28.650045],[77.24081,28.639221],[77.241073,28.628191],[77.234193,28.625542],[77.219288,28.624047],[77.212352,28.615876],[77.229142,28.602264],[77.233808,28.588249],[77.239346,28.583041],[77.237342,28.570056],[77.234278,28.564404],[77.241984,28.555344],[77.251739,28.551441],[77.257897,28.549787],[77.264266,28.544377],[77.275668,28.543282],[77.283038,28.538425],[77.288316,28.528588],[77.29448,28.519725],[77.29924,28.50236],[77.303024,28.49317],[77.304918,28.47797],[77.307393,28.457779],[77.308095,28.44862],[77.309063,28.43816],[77.310377,28.422714],[77.311462,28.410836],[77.312435,28.397488],[77.313462,28.385836],[77.31492,28.370234],[77.316226,28.354651],[77.316479,28.340005]]}},{"type":"Feature","properties":{"route_company":"Delhi Metro Rail Corporation Limited","route_id":"1","element_type":"way","color":"#ff4040","route_name":"Red Line (Rithala → Shaheed Sthal)","osm_id":"447214","railway":"subway"},"geometry":{"type":"LineString","coordinates":[[77.107161,28.720788],[77.115385,28.714957],[77.126022,28.707597],[77.13225,28.703268],[77.140539,28.698042],[77.153352,28.6954],[77.161683,28.688926],[77.164775,28.682408],[77.169743,28.673111],[77.181859,28.670089],[77.198897,28.666718],[77.207416,28.666407],[77.216631,28.667163],[77.22818,28.667897],[77.250539,28.668455],[77.266763,28.669917],[77.277376,28.672135],[77.289882,28.67346],[77.300869,28.675415],[77.312394,28.675751],[77.321514,28.675885],[77.333915,28.676691],[77.346863,28.677119],[77.358138,28.677641],[77.370485,28.678239],[77.383902,28.678563],[77.391894,28.677027],[77.406548,28.673456],[77.41539,28.670706]]}},{"type":"Feature","properties":{"route_company":"Delhi Metro Rail Corporation Limited","route_id":"8","element_type":"way","color":"#cc338b","route_name":"Magenta Line (Botanical Garden → Krishna Park Extension)","osm_id":"8385429","railway":"subway"},"geometry":{"type":"LineString","coordinates":[[77.334115,28.56392],[77.321614,28.552924],[77.310131,28.542898],[77.296635,28.545819],[77.291848,28.561302],[77.286359,28.563034],[77.274969,28.559784],[77.264837,28.554448],[77.257897,28.549787],[77.251518,28.546037],[77.238464,28.541872],[77.230291,28.541091],[77.221092,28.542353],[77.20588,28.543805],[77.194515,28.547003],[77.185505,28.550363],[77.175041,28.556881],[77.16109,28.557808],[77.140254,28.560828],[77.122621,28.56486],[77.111125,28.57709],[77.083049,28.58891],[77.082356,28.601875],[77.085178,28.615756],[77.078009,28.629258],[77.08431,28.647802]]}},{"type":"Feature","properties":{"route_company":"Delhi Metro Rail Corporation Limited","route_id":"5","element_type":"way","color":"#008000","route_name":"Green Line (Kirti Nagar => Ashok Park Main)","osm_id":"2535796","railway":"subway"},"geometry":{"type":"LineString","coordinates":[[77.169743,28.673111],[77.155281,28.671537],[77.146115,28.672927],[77.139864,28.673395],[77.130457,28.67496],[77.119345,28.676405],[77.112278,28.677329],[77.102211,28.678585],[77.092658,28.679712],[77.080842,28.681039],[77.074004,28.681828],[77.064726,28.682334],[77.056237,28.68213],[77.043936,28.682241],[77.030571,28.682351],[77.017114,28.683353],[76.996122,28.685233],[76.977201,28.686819],[76.964068,28.687898],[76.951161,28.689211],[76.93544,28.690658],[76.919144,28.697343]]}},{"type":"Feature","properties":{"route_company":"NMRC","route_id":"Aqua Line","element_type":"way","color":"#808000","route_name":"Aqua Line: Depot → Noida Sector 51","osm_id":"9268568","railway":"subway"},"geometry":{"type":"LineString","coordinates":[[77.544014,28.488985],[77.536513,28.484656],[77.525727,28.478446],[77.512741,28.471005],[77.50837,28.463378],[77.500335,28.457031],[77.476571,28.44805],[77.466155,28.459294],[77.455152,28.468821],[77.44238,28.478984],[77.433048,28.486273],[77.422352,28.494241],[77.412846,28.49897],[77.403577,28.51076],[77.396414,28.522258],[77.394722,28.53241],[77.389911,28.549288],[77.384917,28.556041],[77.379627,28.56533],[77.378212,28.574347],[77.37524,28.585716]]}},{"type":"Feature","properties":{"route_company":"National Capital Region Transport Corporation","route_id":"Delhi–Meerut RapidX","element_type":"way","color":"#f0631e","route_name":"Delhi–Meerut RRTS (Sarai Kale Khan → Modipuram)","osm_id":"17337287","railway":"subway"},"geometry":{"type":"LineString","coordinates":[[77.257744,28.588751],[77.302453,28.591303],[77.316058,28.647032],[77.368172,28.667673],[77.41372,28.672575],[77.445733,28.699558],[77.471436,28.72699],[77.510684,28.770375],[77.556726,28.817744],[77.58318,28.8435],[77.632715,28.904675],[77.67385,28.947764],[77.705578,28.996738],[77.70886,29.072325]]}},{"type":"Feature","properties":{"route_company":"Rapid Metro Gurgaon Ltd.","route_id":"RMGL","element_type":"way","color":"#469990","route_name":"Rapid MetroRail Gurgaon: S55 → Sikandarpur","osm_id":"4481323","railway":"subway"},"geometry":{"type":"LineString","coordinates":[[77.105089,28.423299],[77.10481,28.432964],[77.100441,28.446379],[77.096929,28.457423],[77.093937,28.471426],[77.09396,28.481079],[77.092989,28.487561],[77.088132,28.491702],[77.08916,28.498061],[77.094631,28.500778],[77.093661,28.493568],[77.092989,28.487561],[77.09396,28.481079]]}},{"type":"Feature","properties":{"route_company":"Delhi Metro Rail Corporation Limited","route_id":"4","element_type":"way","color":"#4169e1","route_name":"Blue Line (Yamuna Bank → Vaishali)","osm_id":"2535795","railway":"subway"},"geometry":{"type":"LineString","coordinates":[[77.267998,28.623224],[77.277502,28.630622],[77.286752,28.636558],[77.295259,28.641441],[77.305833,28.648872],[77.316058,28.647032],[77.324339,28.645408],[77.339506,28.649765]]}},{"type":"Feature","properties":{"route_company":"Delhi Metro Rail Corporation Limited","route_id":"AEx","element_type":"way","color":"#ff8c00","route_name":"Airport Express Line (Dwarka Sector 25 → New Delhi Airport Express Terminal)","osm_id":"2535798","railway":"subway"},"geometry":{"type":"LineString","coordinates":[[77.045329,28.550852],[77.058557,28.551912],[77.086724,28.55649],[77.120809,28.5488],[77.161684,28.591914],[77.211311,28.628914],[77.222933,28.642981]]}},{"type":"Feature","properties":{"route_company":"Delhi Metro Rail Corporation Limited","route_id":"9","element_type":"way","color":"#838996","route_name":"Grey Line (Dwarka → Dhansa Bus Stand)","osm_id":"3537978","railway":"subway"},"geometry":{"type":"LineString","coordinates":[[77.022576,28.615423],[77.010452,28.617278],[76.986563,28.612426],[76.97855,28.611883]]}},{"type":"Feature","properties":{"osm_id":"6325711755","station_name":"Noida Electronic City","element_type":"node","station_id":"6325711755"},"geometry":{"type":"Point","coordinates":[77.375096,28.62826]}},{"type":"Feature","properties":{"osm_id":"5777613716","station_name":"Noida Sector 62","element_type":"node","station_id":"5777613716"},"geometry":{"type":"Point","coordinates":[77.373622,28.616983]}},{"type":"Feature","properties":{"osm_id":"5777613718","station_name":"Noida Sector 59","element_type":"node","station_id":"5777613718"},"geometry":{"type":"Point","coordinates":[77.372721,28.606525]}},{"type":"Feature","properties":{"osm_id":"5777613720","station_name":"Noida Sector 61","element_type":"node","station_id":"5777613720"},"geometry":{"type":"Point","coordinates":[77.372309,28.597579]}},{"type":"Feature","properties":{"osm_id":"5777613736","station_name":"Noida Sector 52","element_type":"node","station_id":"5777613736"},"geometry":{"type":"Point","coordinates":[77.372802,28.586735]}},{"type":"Feature","properties":{"osm_id":"5777613740","station_name":"Noida Sector 34","element_type":"node","station_id":"5777613740"},"geometry":{"type":"Point","coordinates":[77.363522,28.580228]}},{"type":"Feature","properties":{"osm_id":"5777613746","station_name":"Noida City Centre","element_type":"node","station_id":"5777613746"},"geometry":{"type":"Point","coordinates":[77.35625,28.574785]}},{"type":"Feature","properties":{"osm_id":"5777613749","station_name":"Noida Golf Course","element_type":"node","station_id":"5777613749"},"geometry":{"type":"Point","coordinates":[77.346399,28.567427]}},{"type":"Feature","properties":{"osm_id":"5777613864","station_name":"Botanical Garden","element_type":"node","station_id":"BCGN"},"geometry":{"type":"Point","coordinates":[77.334115,28.56392]}},{"type":"Feature","properties":{"osm_id":"5777613870","station_name":"Noida Sector 18","element_type":"node","station_id":"NSET"},"geometry":{"type":"Point","coordinates":[77.326147,28.570789]}},{"type":"Feature","properties":{"osm_id":"5777613877","station_name":"Noida Sector 16","element_type":"node","station_id":"NSST"},"geometry":{"type":"Point","coordinates":[77.317829,28.578107]}},{"type":"Feature","properties":{"osm_id":"5777613883","station_name":"Noida Sector 15","element_type":"node","station_id":"NSFT"},"geometry":{"type":"Point","coordinates":[77.311681,28.584926]}},{"type":"Feature","properties":{"osm_id":"5777613898","station_name":"New Ashok Nagar","element_type":"node","station_id":"NAGR"},"geometry":{"type":"Point","coordinates":[77.301583,28.589105]}},{"type":"Feature","properties":{"osm_id":"5777613909","station_name":"Mayur Vihar Extension","element_type":"node","station_id":"MVE"},"geometry":{"type":"Point","coordinates":[77.294428,28.594467]}},{"type":"Feature","properties":{"osm_id":"5777613919","station_name":"Mayur Vihar - I (Blue Line)","element_type":"node","station_id":"5777613919"},"geometry":{"type":"Point","coordinates":[77.290088,28.603777]}},{"type":"Feature","properties":{"osm_id":"5777613940","station_name":"Akshardham","element_type":"node","station_id":"5777613940"},"geometry":{"type":"Point","coordinates":[77.279526,28.617879]}},{"type":"Feature","properties":{"osm_id":"6537317882","station_name":"Yamuna Bank","element_type":"node","station_id":"6537317882"},"geometry":{"type":"Point","coordinates":[77.267998,28.623224]}},{"type":"Feature","properties":{"osm_id":"554257831","station_name":"Indraprastha","element_type":"node","station_id":"554257831"},"geometry":{"type":"Point","coordinates":[77.249545,28.620583]}},{"type":"Feature","properties":{"osm_id":"554257824","station_name":"Supreme Court","element_type":"node","station_id":"554257824"},"geometry":{"type":"Point","coordinates":[77.242512,28.623459]}},{"type":"Feature","properties":{"osm_id":"554257827","station_name":"Mandi House","element_type":"node","station_id":"MDHS"},"geometry":{"type":"Point","coordinates":[77.234193,28.625542]}},{"type":"Feature","properties":{"osm_id":"554257839","station_name":"Barakhambha Road","element_type":"node","station_id":"554257839"},"geometry":{"type":"Point","coordinates":[77.224996,28.629753]}},{"type":"Feature","properties":{"osm_id":"939091076","station_name":"Rajiv Chowk","element_type":"node","station_id":"RCK"},"geometry":{"type":"Point","coordinates":[77.219556,28.632751]}},{"type":"Feature","properties":{"osm_id":"554257820","station_name":"Ramakrishna Ashram Marg","element_type":"node","station_id":"554257820"},"geometry":{"type":"Point","coordinates":[77.208568,28.639225]}},{"type":"Feature","properties":{"osm_id":"345234443","station_name":"Jhandewalan","element_type":"node","station_id":"345234443"},"geometry":{"type":"Point","coordinates":[77.199905,28.6443]}},{"type":"Feature","properties":{"osm_id":"6547772123","station_name":"Karol Bagh","element_type":"node","station_id":"6547772123"},"geometry":{"type":"Point","coordinates":[77.188528,28.643991]}},{"type":"Feature","properties":{"osm_id":"345234440","station_name":"Rajendra Place","element_type":"node","station_id":"345234440"},"geometry":{"type":"Point","coordinates":[77.178279,28.642477]}},{"type":"Feature","properties":{"osm_id":"6547772115","station_name":"Patel Nagar","element_type":"node","station_id":"6547772115"},"geometry":{"type":"Point","coordinates":[77.169266,28.644995]}},{"type":"Feature","properties":{"osm_id":"6547772114","station_name":"Shadipur","element_type":"node","station_id":"6547772114"},"geometry":{"type":"Point","coordinates":[77.158243,28.651566]}},{"type":"Feature","properties":{"osm_id":"6547772113","station_name":"Kirti Nagar (Blue Line)","element_type":"node","station_id":"6547772113"},"geometry":{"type":"Point","coordinates":[77.15065,28.655729]}},{"type":"Feature","properties":{"osm_id":"6547772112","station_name":"Moti Nagar","element_type":"node","station_id":"6547772112"},"geometry":{"type":"Point","coordinates":[77.142443,28.657842]}},{"type":"Feature","properties":{"osm_id":"6547772111","station_name":"Ramesh Nagar","element_type":"node","station_id":"6547772111"},"geometry":{"type":"Point","coordinates":[77.131657,28.652725]}},{"type":"Feature","properties":{"osm_id":"249823630","station_name":"Rajouri Garden (Blue Line)","element_type":"node","station_id":"249823630"},"geometry":{"type":"Point","coordinates":[77.122743,28.649037]}},{"type":"Feature","properties":{"osm_id":"663798999","station_name":"Tagore Garden","element_type":"node","station_id":"663798999"},"geometry":{"type":"Point","coordinates":[77.11287,28.643729]}},{"type":"Feature","properties":{"osm_id":"610886106","station_name":"Subhash Nagar","element_type":"node","station_id":"610886106"},"geometry":{"type":"Point","coordinates":[77.105235,28.640463]}},{"type":"Feature","properties":{"osm_id":"347677816","station_name":"Tilak Nagar","element_type":"node","station_id":"347677816"},"geometry":{"type":"Point","coordinates":[77.096482,28.636527]}},{"type":"Feature","properties":{"osm_id":"913550169","station_name":"Janakpuri East","element_type":"node","station_id":"913550169"},"geometry":{"type":"Point","coordinates":[77.086727,28.632989]}},{"type":"Feature","properties":{"osm_id":"347685192","station_name":"Janakpuri West","element_type":"node","station_id":"JPW"},"geometry":{"type":"Point","coordinates":[77.078009,28.629258]}},{"type":"Feature","properties":{"osm_id":"347685176","station_name":"Uttam Nagar East","element_type":"node","station_id":"347685176"},"geometry":{"type":"Point","coordinates":[77.065297,28.62483]}},{"type":"Feature","properties":{"osm_id":"249823566","station_name":"Uttam Nagar West","element_type":"node","station_id":"249823566"},"geometry":{"type":"Point","coordinates":[77.055719,28.621737]}},{"type":"Feature","properties":{"osm_id":"249823558","station_name":"Nawada","element_type":"node","station_id":"249823558"},"geometry":{"type":"Point","coordinates":[77.045084,28.620256]}},{"type":"Feature","properties":{"osm_id":"249823552","station_name":"Dwarka Mor","element_type":"node","station_id":"DM"},"geometry":{"type":"Point","coordinates":[77.033284,28.619291]}},{"type":"Feature","properties":{"osm_id":"249235048","station_name":"Dwarka - Kakrola (Blue Line)","element_type":"node","station_id":"DW"},"geometry":{"type":"Point","coordinates":[77.022576,28.615423]}},{"type":"Feature","properties":{"osm_id":"249823531","station_name":"Dwarka Sector 14","element_type":"node","station_id":"DSFN"},"geometry":{"type":"Point","coordinates":[77.025994,28.602234]}},{"type":"Feature","properties":{"osm_id":"249235042","station_name":"Dwarka Sector 13","element_type":"node","station_id":"DSTN"},"geometry":{"type":"Point","coordinates":[77.033556,28.597025]}},{"type":"Feature","properties":{"osm_id":"249235041","station_name":"Dwarka Sector 12","element_type":"node","station_id":"DSW"},"geometry":{"type":"Point","coordinates":[77.040746,28.592252]}},{"type":"Feature","properties":{"osm_id":"347688420","station_name":"Dwarka Sector 11","element_type":"node","station_id":"DSE"},"geometry":{"type":"Point","coordinates":[77.049455,28.586462]}},{"type":"Feature","properties":{"osm_id":"347688434","station_name":"Dwarka Sector 10","element_type":"node","station_id":"DST"},"geometry":{"type":"Point","coordinates":[77.057515,28.581073]}},{"type":"Feature","properties":{"osm_id":"347688615","station_name":"Dwarka Sector 9","element_type":"node","station_id":"DSN"},"geometry":{"type":"Point","coordinates":[77.065351,28.574282]}},{"type":"Feature","properties":{"osm_id":"347688730","station_name":"Dwarka Sector 8","element_type":"node","station_id":"DSET"},"geometry":{"type":"Point","coordinates":[77.067062,28.565608]}},{"type":"Feature","properties":{"osm_id":"347688731","station_name":"Dwarka Sector 21","element_type":"node","station_id":"347688731"},"geometry":{"type":"Point","coordinates":[77.058557,28.551912]}},{"type":"Feature","properties":{"osm_id":"2833971930","station_name":"Shiv Vihar","element_type":"node","station_id":"2833971930"},"geometry":{"type":"Point","coordinates":[77.289457,28.721431]}},{"type":"Feature","properties":{"osm_id":"2833971929","station_name":"Johri Enclave","element_type":"node","station_id":"2833971929"},"geometry":{"type":"Point","coordinates":[77.290156,28.712887]}},{"type":"Feature","properties":{"osm_id":"2833971922","station_name":"Gokulpuri","element_type":"node","station_id":"2833971922"},"geometry":{"type":"Point","coordinates":[77.286131,28.702422]}},{"type":"Feature","properties":{"osm_id":"2833971918","station_name":"Maujpur-Babarpur","element_type":"node","station_id":"2833971918"},"geometry":{"type":"Point","coordinates":[77.279607,28.692121]}},{"type":"Feature","properties":{"osm_id":"2833971914","station_name":"Jaffrabad","element_type":"node","station_id":"2833971914"},"geometry":{"type":"Point","coordinates":[77.274872,28.682711]}},{"type":"Feature","properties":{"osm_id":"2833971906","station_name":"Welcome (Pink Line)","element_type":"node","station_id":"2833971906"},"geometry":{"type":"Point","coordinates":[77.277376,28.672135]}},{"type":"Feature","properties":{"osm_id":"2833971903","station_name":"East Azad Nagar","element_type":"node","station_id":"2833971903"},"geometry":{"type":"Point","coordinates":[77.28486,28.664686]}},{"type":"Feature","properties":{"osm_id":"2833971901","station_name":"Krishna Nagar","element_type":"node","station_id":"2833971901"},"geometry":{"type":"Point","coordinates":[77.290163,28.657795]}},{"type":"Feature","properties":{"osm_id":"6049373299","station_name":"Karkarduma Court","element_type":"node","station_id":"6049373299"},"geometry":{"type":"Point","coordinates":[77.295788,28.653646]}},{"type":"Feature","properties":{"osm_id":"6049373300","station_name":"Karkarduma (Pink Line)","element_type":"node","station_id":"6049373300"},"geometry":{"type":"Point","coordinates":[77.305833,28.648872]}},{"type":"Feature","properties":{"osm_id":"6049373301","station_name":"Anand Vihar (Pink Line)","element_type":"node","station_id":"A02"},"geometry":{"type":"Point","coordinates":[77.316058,28.647032]}},{"type":"Feature","properties":{"osm_id":"6049373302","station_name":"IP Extension","element_type":"node","station_id":"6049373302"},"geometry":{"type":"Point","coordinates":[77.31076,28.631898]}},{"type":"Feature","properties":{"osm_id":"6049373345","station_name":"Mandawali - West Vinod Nagar","element_type":"node","station_id":"6049373345"},"geometry":{"type":"Point","coordinates":[77.304479,28.624961]}},{"type":"Feature","properties":{"osm_id":"6049373346","station_name":"East Vinod Nagar - Mayur Vihar - II","element_type":"node","station_id":"6049373346"},"geometry":{"type":"Point","coordinates":[77.30542,28.620097]}},{"type":"Feature","properties":{"osm_id":"6049373347","station_name":"Trilokpuri Sanjay Lake","element_type":"node","station_id":"6049373347"},"geometry":{"type":"Point","coordinates":[77.30888,28.613435]}},{"type":"Feature","properties":{"osm_id":"6196100473","station_name":"Shree Ram Mandir Mayur Vihar","element_type":"node","station_id":"6196100473"},"geometry":{"type":"Point","coordinates":[77.298042,28.605631]}},{"type":"Feature","properties":{"osm_id":"6196100471","station_name":"Sarai Kale Khan - Nizamuddin","element_type":"node","station_id":"NIZM"},"geometry":{"type":"Point","coordinates":[77.257744,28.588751]}},{"type":"Feature","properties":{"osm_id":"4676940460","station_name":"Ashram","element_type":"node","station_id":"AHRM"},"geometry":{"type":"Point","coordinates":[77.258122,28.572003]}},{"type":"Feature","properties":{"osm_id":"6196100470","station_name":"Vinobapuri","element_type":"node","station_id":"VNPR"},"geometry":{"type":"Point","coordinates":[77.248735,28.565794]}},{"type":"Feature","properties":{"osm_id":"2833526623","station_name":"Lajpat Nagar (Pink Line)","element_type":"node","station_id":"LPNR"},"geometry":{"type":"Point","coordinates":[77.237342,28.570056]}},{"type":"Feature","properties":{"osm_id":"2833526616","station_name":"South Extension","element_type":"node","station_id":"2833526616"},"geometry":{"type":"Point","coordinates":[77.22056,28.568543]}},{"type":"Feature","properties":{"osm_id":"2833526634","station_name":"Dilli Haat - INA","element_type":"node","station_id":"INA"},"geometry":{"type":"Point","coordinates":[77.208455,28.573893]}},{"type":"Feature","properties":{"osm_id":"2833526638","station_name":"Sarojini Nagar","element_type":"node","station_id":"SOJI"},"geometry":{"type":"Point","coordinates":[77.198077,28.575794]}},{"type":"Feature","properties":{"osm_id":"2833526619","station_name":"Bhikaji Cama Place","element_type":"node","station_id":"BKCP"},"geometry":{"type":"Point","coordinates":[77.18786,28.570239]}},{"type":"Feature","properties":{"osm_id":"2833526642","station_name":"Sir M. Vishweshwaraiah Moti Bagh","element_type":"node","station_id":"SVMB"},"geometry":{"type":"Point","coordinates":[77.175709,28.578525]}},{"type":"Feature","properties":{"osm_id":"2833526656","station_name":"Durgabai Deshmukh South Campus","element_type":"node","station_id":"2833526656"},"geometry":{"type":"Point","coordinates":[77.169438,28.589282]}},{"type":"Feature","properties":{"osm_id":"2833526696","station_name":"Delhi Cantt","element_type":"node","station_id":"2833526696"},"geometry":{"type":"Point","coordinates":[77.140378,28.6086]}},{"type":"Feature","properties":{"osm_id":"2833531915","station_name":"Naraina Vihar","element_type":"node","station_id":"NAVR"},"geometry":{"type":"Point","coordinates":[77.136413,28.624373]}},{"type":"Feature","properties":{"osm_id":"2833531922","station_name":"Mayapuri","element_type":"node","station_id":"2833531922"},"geometry":{"type":"Point","coordinates":[77.129701,28.637166]}},{"type":"Feature","properties":{"osm_id":"2833531928","station_name":"Rajouri Garden (Pink Line)","element_type":"node","station_id":"2833531928"},"geometry":{"type":"Point","coordinates":[77.124224,28.651176]}},{"type":"Feature","properties":{"osm_id":"2833531935","station_name":"ESI - Basaidarapur","element_type":"node","station_id":"ESIH"},"geometry":{"type":"Point","coordinates":[77.12723,28.658081]}},{"type":"Feature","properties":{"osm_id":"2833531944","station_name":"Punjabi Bagh West","element_type":"node","station_id":"PBGW"},"geometry":{"type":"Point","coordinates":[77.139864,28.673395]}},{"type":"Feature","properties":{"osm_id":"2833531954","station_name":"Shakurpur","element_type":"node","station_id":"2833531954"},"geometry":{"type":"Point","coordinates":[77.149475,28.68591]}},{"type":"Feature","properties":{"osm_id":"2833531964","station_name":"Netaji Subhash Place (Pink Line)","element_type":"node","station_id":"2833531964"},"geometry":{"type":"Point","coordinates":[77.153352,28.6954]}},{"type":"Feature","properties":{"osm_id":"2833526614","station_name":"Shalimar Bagh","element_type":"node","station_id":"SMBG"},"geometry":{"type":"Point","coordinates":[77.165429,28.701988]}},{"type":"Feature","properties":{"osm_id":"2833531971","station_name":"Azadpur (Pink Line)","element_type":"node","station_id":"AZU"},"geometry":{"type":"Point","coordinates":[77.181164,28.706444]}},{"type":"Feature","properties":{"osm_id":"6196100474","station_name":"Majlis Park","element_type":"node","station_id":"6196100474"},"geometry":{"type":"Point","coordinates":[77.181817,28.724605]}},{"type":"Feature","properties":{"osm_id":"13238880328","station_name":"Burari","element_type":"node","station_id":"13238880328"},"geometry":{"type":"Point","coordinates":[77.199837,28.729798]}},{"type":"Feature","properties":{"osm_id":"13628489721","station_name":"Jharoda Majra","element_type":"node","station_id":"13628489721"},"geometry":{"type":"Point","coordinates":[77.213683,28.724905]}},{"type":"Feature","properties":{"osm_id":"13628489718","station_name":"Jagatpur - Wazirabad","element_type":"node","station_id":"13628489718"},"geometry":{"type":"Point","coordinates":[77.223944,28.721169]}},{"type":"Feature","properties":{"osm_id":"13628489715","station_name":"Soorghat","element_type":"node","station_id":"13628489715"},"geometry":{"type":"Point","coordinates":[77.227534,28.710249]}},{"type":"Feature","properties":{"osm_id":"13628489713","station_name":"Nanaksar - Sonia Vihar","element_type":"node","station_id":"13628489713"},"geometry":{"type":"Point","coordinates":[77.242523,28.708759]}},{"type":"Feature","properties":{"osm_id":"13628489710","station_name":"Khajuri Khas","element_type":"node","station_id":"13628489710"},"geometry":{"type":"Point","coordinates":[77.254483,28.70522]}},{"type":"Feature","properties":{"osm_id":"13628489708","station_name":"Bhajanpura","element_type":"node","station_id":"13628489708"},"geometry":{"type":"Point","coordinates":[77.262644,28.70362]}},{"type":"Feature","properties":{"osm_id":"13628489707","station_name":"Yamuna Vihar","element_type":"node","station_id":"13628489707"},"geometry":{"type":"Point","coordinates":[77.277308,28.7024]}},{"type":"Feature","properties":{"osm_id":"9945617506","station_name":"Samaypur Badli","element_type":"node","station_id":"SPBI"},"geometry":{"type":"Point","coordinates":[77.138299,28.744639]}},{"type":"Feature","properties":{"osm_id":"9945617504","station_name":"Rohini Sector 18, 19","element_type":"node","station_id":"RISE"},"geometry":{"type":"Point","coordinates":[77.139864,28.738344]}},{"type":"Feature","properties":{"osm_id":"2837147021","station_name":"Haiderpur Badli Mor","element_type":"node","station_id":"BIMR"},"geometry":{"type":"Point","coordinates":[77.148872,28.729917]}},{"type":"Feature","properties":{"osm_id":"913486465","station_name":"Jahangirpuri","element_type":"node","station_id":"913486465"},"geometry":{"type":"Point","coordinates":[77.162683,28.725987]}},{"type":"Feature","properties":{"osm_id":"663781793","station_name":"Adarsh Nagar","element_type":"node","station_id":"663781793"},"geometry":{"type":"Point","coordinates":[77.170447,28.716598]}},{"type":"Feature","properties":{"osm_id":"663780748","station_name":"Model Town","element_type":"node","station_id":"663780748"},"geometry":{"type":"Point","coordinates":[77.194006,28.702739]}},{"type":"Feature","properties":{"osm_id":"9944540105","station_name":"GTB Nagar","element_type":"node","station_id":"GTBR"},"geometry":{"type":"Point","coordinates":[77.206423,28.698156]}},{"type":"Feature","properties":{"osm_id":"663777967","station_name":"Vishwa Vidyalaya","element_type":"node","station_id":"VW"},"geometry":{"type":"Point","coordinates":[77.214748,28.695099]}},{"type":"Feature","properties":{"osm_id":"663777956","station_name":"Vidhan Sabha","element_type":"node","station_id":"VS"},"geometry":{"type":"Point","coordinates":[77.221758,28.686327]}},{"type":"Feature","properties":{"osm_id":"561300694","station_name":"Civil Lines","element_type":"node","station_id":"CL"},"geometry":{"type":"Point","coordinates":[77.225057,28.676857]}},{"type":"Feature","properties":{"osm_id":"6547772099","station_name":"Kashmere Gate","element_type":"node","station_id":"6547772099"},"geometry":{"type":"Point","coordinates":[77.22818,28.667897]}},{"type":"Feature","properties":{"osm_id":"554257862","station_name":"Chandni Chowk","element_type":"node","station_id":"CHK"},"geometry":{"type":"Point","coordinates":[77.230366,28.658421]}},{"type":"Feature","properties":{"osm_id":"554257842","station_name":"Chawri Bazaar","element_type":"node","station_id":"CWBR"},"geometry":{"type":"Point","coordinates":[77.226544,28.649251]}},{"type":"Feature","properties":{"osm_id":"6547772097","station_name":"New Delhi","element_type":"node","station_id":"NDLS"},"geometry":{"type":"Point","coordinates":[77.222933,28.642981]}},{"type":"Feature","properties":{"osm_id":"554257818","station_name":"Patel Chowk","element_type":"node","station_id":"PTCK"},"geometry":{"type":"Point","coordinates":[77.214059,28.622954]}},{"type":"Feature","properties":{"osm_id":"6547772108","station_name":"Central Secretariat","element_type":"node","station_id":"CTST"},"geometry":{"type":"Point","coordinates":[77.212352,28.615876]}},{"type":"Feature","properties":{"osm_id":"554257800","station_name":"Seva Teerth","element_type":"node","station_id":"554257800"},"geometry":{"type":"Point","coordinates":[77.211825,28.609512]}},{"type":"Feature","properties":{"osm_id":"554257797","station_name":"Lok Kalyan Marg","element_type":"node","station_id":"LKM"},"geometry":{"type":"Point","coordinates":[77.211127,28.597355]}},{"type":"Feature","properties":{"osm_id":"554257805","station_name":"Jor Bagh","element_type":"node","station_id":"JB"},"geometry":{"type":"Point","coordinates":[77.212564,28.586594]}},{"type":"Feature","properties":{"osm_id":"7018301884","station_name":"A.I.I.M.S.","element_type":"node","station_id":"AIIMS"},"geometry":{"type":"Point","coordinates":[77.207832,28.566854]}},{"type":"Feature","properties":{"osm_id":"554257789","station_name":"Green Park","element_type":"node","station_id":"GNPK"},"geometry":{"type":"Point","coordinates":[77.206821,28.558002]}},{"type":"Feature","properties":{"osm_id":"6547772107","station_name":"Hauz Khas (Yellow Line)","element_type":"node","station_id":"HKS"},"geometry":{"type":"Point","coordinates":[77.20588,28.543805]}},{"type":"Feature","properties":{"osm_id":"554257785","station_name":"Malviya Nagar","element_type":"node","station_id":"MVNR"},"geometry":{"type":"Point","coordinates":[77.204855,28.529067]}},{"type":"Feature","properties":{"osm_id":"922910160","station_name":"Saket","element_type":"node","station_id":"SAKT"},"geometry":{"type":"Point","coordinates":[77.201898,28.520873]}},{"type":"Feature","properties":{"osm_id":"939284656","station_name":"Qutab Minar","element_type":"node","station_id":"QM"},"geometry":{"type":"Point","coordinates":[77.186472,28.51293]}},{"type":"Feature","properties":{"osm_id":"554257781","station_name":"Chhatarpur","element_type":"node","station_id":"CHTP"},"geometry":{"type":"Point","coordinates":[77.174936,28.506755]}},{"type":"Feature","properties":{"osm_id":"554257755","station_name":"Sultanpur","element_type":"node","station_id":"SLN"},"geometry":{"type":"Point","coordinates":[77.16091,28.498971]}},{"type":"Feature","properties":{"osm_id":"271335970","station_name":"Ghitorni","element_type":"node","station_id":"271335970"},"geometry":{"type":"Point","coordinates":[77.149198,28.493728]}},{"type":"Feature","properties":{"osm_id":"271335980","station_name":"Arjan Garh","element_type":"node","station_id":"271335980"},"geometry":{"type":"Point","coordinates":[77.125784,28.480716]}},{"type":"Feature","properties":{"osm_id":"271335545","station_name":"Guru Dronacharya","element_type":"node","station_id":"271335545"},"geometry":{"type":"Point","coordinates":[77.102272,28.481998]}},{"type":"Feature","properties":{"osm_id":"6547772094","station_name":"Sikanderpur","element_type":"node","station_id":"SKRP"},"geometry":{"type":"Point","coordinates":[77.09396,28.481079]}},{"type":"Feature","properties":{"osm_id":"271335327","station_name":"M G Road","element_type":"node","station_id":"271335327"},"geometry":{"type":"Point","coordinates":[77.079899,28.479524]}},{"type":"Feature","properties":{"osm_id":"413317779","station_name":"IFFCO Chowk","element_type":"node","station_id":"IFOC"},"geometry":{"type":"Point","coordinates":[77.072452,28.472331]}},{"type":"Feature","properties":{"osm_id":"922909980","station_name":"Millennium City Centre Gurugram","element_type":"node","station_id":"HCC"},"geometry":{"type":"Point","coordinates":[77.072686,28.459331]}},{"type":"Feature","properties":{"osm_id":"2722924227","station_name":"Lal Quila","element_type":"node","station_id":"2722924227"},"geometry":{"type":"Point","coordinates":[77.236728,28.65748]}},{"type":"Feature","properties":{"osm_id":"1988668281","station_name":"Jama Masjid","element_type":"node","station_id":"JAMD"},"geometry":{"type":"Point","coordinates":[77.237686,28.650045]}},{"type":"Feature","properties":{"osm_id":"2837165876","station_name":"Delhi Gate","element_type":"node","station_id":"DLIG"},"geometry":{"type":"Point","coordinates":[77.24081,28.639221]}},{"type":"Feature","properties":{"osm_id":"3580369626","station_name":"ITO","element_type":"node","station_id":"ITO"},"geometry":{"type":"Point","coordinates":[77.241073,28.628191]}},{"type":"Feature","properties":{"osm_id":"1988668271","station_name":"Janpath","element_type":"node","station_id":"JNPH"},"geometry":{"type":"Point","coordinates":[77.219288,28.624047]}},{"type":"Feature","properties":{"osm_id":"927873481","station_name":"Khan Market","element_type":"node","station_id":"927873481"},"geometry":{"type":"Point","coordinates":[77.229142,28.602264]}},{"type":"Feature","properties":{"osm_id":"562620239","station_name":"Jawaharlal Nehru Stadium","element_type":"node","station_id":"562620239"},"geometry":{"type":"Point","coordinates":[77.233808,28.588249]}},{"type":"Feature","properties":{"osm_id":"562620241","station_name":"Jangpura","element_type":"node","station_id":"562620241"},"geometry":{"type":"Point","coordinates":[77.239346,28.583041]}},{"type":"Feature","properties":{"osm_id":"562620810","station_name":"Moolchand","element_type":"node","station_id":"562620810"},"geometry":{"type":"Point","coordinates":[77.234278,28.564404]}},{"type":"Feature","properties":{"osm_id":"927873489","station_name":"Kailash Colony","element_type":"node","station_id":"927873489"},"geometry":{"type":"Point","coordinates":[77.241984,28.555344]}},{"type":"Feature","properties":{"osm_id":"1135153141","station_name":"Nehru Place","element_type":"node","station_id":"1135153141"},"geometry":{"type":"Point","coordinates":[77.251739,28.551441]}},{"type":"Feature","properties":{"osm_id":"6547772101","station_name":"Kalkaji Mandir","element_type":"node","station_id":"KJMD"},"geometry":{"type":"Point","coordinates":[77.257897,28.549787]}},{"type":"Feature","properties":{"osm_id":"927873461","station_name":"Govind Puri","element_type":"node","station_id":"927873461"},"geometry":{"type":"Point","coordinates":[77.264266,28.544377]}},{"type":"Feature","properties":{"osm_id":"856302882","station_name":"Harkesh Nagar Okhla","element_type":"node","station_id":"OKA"},"geometry":{"type":"Point","coordinates":[77.275668,28.543282]}},{"type":"Feature","properties":{"osm_id":"562622101","station_name":"Jasola Apollo","element_type":"node","station_id":"562622101"},"geometry":{"type":"Point","coordinates":[77.283038,28.538425]}},{"type":"Feature","properties":{"osm_id":"562622242","station_name":"Sarita Vihar","element_type":"node","station_id":"562622242"},"geometry":{"type":"Point","coordinates":[77.288316,28.528588]}},{"type":"Feature","properties":{"osm_id":"1706019482","station_name":"Mohan Estate","element_type":"node","station_id":"1706019482"},"geometry":{"type":"Point","coordinates":[77.29448,28.519725]}},{"type":"Feature","properties":{"osm_id":"562622248","station_name":"Tughlakabad","element_type":"node","station_id":"562622248"},"geometry":{"type":"Point","coordinates":[77.29924,28.50236]}},{"type":"Feature","properties":{"osm_id":"562722447","station_name":"Badarpur","element_type":"node","station_id":"562722447"},"geometry":{"type":"Point","coordinates":[77.303024,28.49317]}},{"type":"Feature","properties":{"osm_id":"2837194690","station_name":"Sarai","element_type":"node","station_id":"SAI"},"geometry":{"type":"Point","coordinates":[77.304918,28.47797]}},{"type":"Feature","properties":{"osm_id":"2837246578","station_name":"N.H.P.C. Chowk","element_type":"node","station_id":"2837246578"},"geometry":{"type":"Point","coordinates":[77.307393,28.457779]}},{"type":"Feature","properties":{"osm_id":"2837246577","station_name":"Mewala Maharajpur","element_type":"node","station_id":"2837246577"},"geometry":{"type":"Point","coordinates":[77.308095,28.44862]}},{"type":"Feature","properties":{"osm_id":"2837246580","station_name":"Sector 28","element_type":"node","station_id":"2837246580"},"geometry":{"type":"Point","coordinates":[77.309063,28.43816]}},{"type":"Feature","properties":{"osm_id":"2837246576","station_name":"Badhkal Mor","element_type":"node","station_id":"2837246576"},"geometry":{"type":"Point","coordinates":[77.310377,28.422714]}},{"type":"Feature","properties":{"osm_id":"2837246579","station_name":"Old Faridabad","element_type":"node","station_id":"2837246579"},"geometry":{"type":"Point","coordinates":[77.311462,28.410836]}},{"type":"Feature","properties":{"osm_id":"8575372986","station_name":"Neelam Chowk Ajronda","element_type":"node","station_id":"8575372986"},"geometry":{"type":"Point","coordinates":[77.312435,28.397488]}},{"type":"Feature","properties":{"osm_id":"3284150025","station_name":"Bata Chowk","element_type":"node","station_id":"3284150025"},"geometry":{"type":"Point","coordinates":[77.313462,28.385836]}},{"type":"Feature","properties":{"osm_id":"2837246581","station_name":"Escorts Mujesar","element_type":"node","station_id":"2837246581"},"geometry":{"type":"Point","coordinates":[77.31492,28.370234]}},{"type":"Feature","properties":{"osm_id":"4335296791","station_name":"Sant Surdas (Sihi)","element_type":"node","station_id":"4335296791"},"geometry":{"type":"Point","coordinates":[77.316226,28.354651]}},{"type":"Feature","properties":{"osm_id":"4678405308","station_name":"Raja Nahar Singh","element_type":"node","station_id":"4678405308"},"geometry":{"type":"Point","coordinates":[77.316479,28.340005]}},{"type":"Feature","properties":{"osm_id":"5777614209","station_name":"Rithala","element_type":"node","station_id":"5777614209"},"geometry":{"type":"Point","coordinates":[77.107161,28.720788]}},{"type":"Feature","properties":{"osm_id":"1988598418","station_name":"Rohini West","element_type":"node","station_id":"RHW"},"geometry":{"type":"Point","coordinates":[77.115385,28.714957]}},{"type":"Feature","properties":{"osm_id":"5777614216","station_name":"Rohini East","element_type":"node","station_id":"5777614216"},"geometry":{"type":"Point","coordinates":[77.126022,28.707597]}},{"type":"Feature","properties":{"osm_id":"663765153","station_name":"Madhuban Chowk","element_type":"node","station_id":"663765153"},"geometry":{"type":"Point","coordinates":[77.13225,28.703268]}},{"type":"Feature","properties":{"osm_id":"311963955","station_name":"Kohat Enclave","element_type":"node","station_id":"311963955"},"geometry":{"type":"Point","coordinates":[77.140539,28.698042]}},{"type":"Feature","properties":{"osm_id":"663762151","station_name":"Keshav Puram","element_type":"node","station_id":"KP"},"geometry":{"type":"Point","coordinates":[77.161683,28.688926]}},{"type":"Feature","properties":{"osm_id":"663761505","station_name":"Kanhaiya Nagar","element_type":"node","station_id":"KN"},"geometry":{"type":"Point","coordinates":[77.164775,28.682408]}},{"type":"Feature","properties":{"osm_id":"663761428","station_name":"Inderlok (Red Line)","element_type":"node","station_id":"ILOK"},"geometry":{"type":"Point","coordinates":[77.169743,28.673111]}},{"type":"Feature","properties":{"osm_id":"663761411","station_name":"Shastri Nagar","element_type":"node","station_id":"SHT"},"geometry":{"type":"Point","coordinates":[77.181859,28.670089]}},{"type":"Feature","properties":{"osm_id":"268381457","station_name":"Pratap Nagar","element_type":"node","station_id":"PRA"},"geometry":{"type":"Point","coordinates":[77.198897,28.666718]}},{"type":"Feature","properties":{"osm_id":"268381463","station_name":"Pul Bangash","element_type":"node","station_id":"268381463"},"geometry":{"type":"Point","coordinates":[77.207416,28.666407]}},{"type":"Feature","properties":{"osm_id":"561316983","station_name":"Tis Hazari","element_type":"node","station_id":"561316983"},"geometry":{"type":"Point","coordinates":[77.216631,28.667163]}},{"type":"Feature","properties":{"osm_id":"5777614244","station_name":"Shastri Park","element_type":"node","station_id":"5777614244"},"geometry":{"type":"Point","coordinates":[77.250539,28.668455]}},{"type":"Feature","properties":{"osm_id":"5777614225","station_name":"Seelampur","element_type":"node","station_id":"5777614225"},"geometry":{"type":"Point","coordinates":[77.266763,28.669917]}},{"type":"Feature","properties":{"osm_id":"5777614202","station_name":"Shahdara","element_type":"node","station_id":"5777614202"},"geometry":{"type":"Point","coordinates":[77.289882,28.67346]}},{"type":"Feature","properties":{"osm_id":"663759674","station_name":"Mansarovar Park","element_type":"node","station_id":"663759674"},"geometry":{"type":"Point","coordinates":[77.300869,28.675415]}},{"type":"Feature","properties":{"osm_id":"5777614183","station_name":"Jhilmil","element_type":"node","station_id":"5777614183"},"geometry":{"type":"Point","coordinates":[77.312394,28.675751]}},{"type":"Feature","properties":{"osm_id":"5777614174","station_name":"Dilshad Garden","element_type":"node","station_id":"5777614174"},"geometry":{"type":"Point","coordinates":[77.321514,28.675885]}},{"type":"Feature","properties":{"osm_id":"9631141565","station_name":"Shaheed Nagar","element_type":"node","station_id":"9631141565"},"geometry":{"type":"Point","coordinates":[77.333915,28.676691]}},{"type":"Feature","properties":{"osm_id":"9631141566","station_name":"Raj Bagh","element_type":"node","station_id":"9631141566"},"geometry":{"type":"Point","coordinates":[77.346863,28.677119]}},{"type":"Feature","properties":{"osm_id":"9631141567","station_name":"Rajendra Nagar","element_type":"node","station_id":"9631141567"},"geometry":{"type":"Point","coordinates":[77.358138,28.677641]}},{"type":"Feature","properties":{"osm_id":"9631141568","station_name":"Shyam Park","element_type":"node","station_id":"9631141568"},"geometry":{"type":"Point","coordinates":[77.370485,28.678239]}},{"type":"Feature","properties":{"osm_id":"9631141569","station_name":"Mohan Nagar","element_type":"node","station_id":"9631141569"},"geometry":{"type":"Point","coordinates":[77.383902,28.678563]}},{"type":"Feature","properties":{"osm_id":"9631141570","station_name":"Arthala","element_type":"node","station_id":"9631141570"},"geometry":{"type":"Point","coordinates":[77.391894,28.677027]}},{"type":"Feature","properties":{"osm_id":"5777614041","station_name":"Hindon River","element_type":"node","station_id":"5777614041"},"geometry":{"type":"Point","coordinates":[77.406548,28.673456]}},{"type":"Feature","properties":{"osm_id":"9631141572","station_name":"Shaheed Sthal","element_type":"node","station_id":"9631141572"},"geometry":{"type":"Point","coordinates":[77.41539,28.670706]}},{"type":"Feature","properties":{"osm_id":"6547772121","station_name":"Okhla Bird Sanctuary","element_type":"node","station_id":"6547772121"},"geometry":{"type":"Point","coordinates":[77.321614,28.552924]}},{"type":"Feature","properties":{"osm_id":"6547772120","station_name":"Kalindi Kunj","element_type":"node","station_id":"KIKJ"},"geometry":{"type":"Point","coordinates":[77.310131,28.542898]}},{"type":"Feature","properties":{"osm_id":"6547772119","station_name":"Jasola Vihar Shaheen Bagh","element_type":"node","station_id":"JLA8"},"geometry":{"type":"Point","coordinates":[77.296635,28.545819]}},{"type":"Feature","properties":{"osm_id":"6547772118","station_name":"Okhla Vihar","element_type":"node","station_id":"OVA"},"geometry":{"type":"Point","coordinates":[77.291848,28.561302]}},{"type":"Feature","properties":{"osm_id":"6547772117","station_name":"Jamia Millia Islamia","element_type":"node","station_id":"JANR"},"geometry":{"type":"Point","coordinates":[77.286359,28.563034]}},{"type":"Feature","properties":{"osm_id":"6547772116","station_name":"Sukhdev Vihar","element_type":"node","station_id":"IWNR"},"geometry":{"type":"Point","coordinates":[77.274969,28.559784]}},{"type":"Feature","properties":{"osm_id":"9937948255","station_name":"Okhla NSIC","element_type":"node","station_id":"9937948255"},"geometry":{"type":"Point","coordinates":[77.264837,28.554448]}},{"type":"Feature","properties":{"osm_id":"2832938174","station_name":"Nehru Enclave","element_type":"node","station_id":"2832938174"},"geometry":{"type":"Point","coordinates":[77.251518,28.546037]}},{"type":"Feature","properties":{"osm_id":"9937948268","station_name":"Greater Kailash","element_type":"node","station_id":"GKEI"},"geometry":{"type":"Point","coordinates":[77.238464,28.541872]}},{"type":"Feature","properties":{"osm_id":"9937948269","station_name":"Chirag Delhi","element_type":"node","station_id":"CDLI"},"geometry":{"type":"Point","coordinates":[77.230291,28.541091]}},{"type":"Feature","properties":{"osm_id":"6547772105","station_name":"Panchsheel Park","element_type":"node","station_id":"PSPK"},"geometry":{"type":"Point","coordinates":[77.221092,28.542353]}},{"type":"Feature","properties":{"osm_id":"2832938176","station_name":"IIT Delhi","element_type":"node","station_id":"IIT"},"geometry":{"type":"Point","coordinates":[77.194515,28.547003]}},{"type":"Feature","properties":{"osm_id":"6547772104","station_name":"R. K. Puram","element_type":"node","station_id":"RKPM"},"geometry":{"type":"Point","coordinates":[77.185505,28.550363]}},{"type":"Feature","properties":{"osm_id":"6547772103","station_name":"Munirka","element_type":"node","station_id":"MIRK"},"geometry":{"type":"Point","coordinates":[77.175041,28.556881]}},{"type":"Feature","properties":{"osm_id":"9937092491","station_name":"Vasant Vihar","element_type":"node","station_id":"VTVR"},"geometry":{"type":"Point","coordinates":[77.16109,28.557808]}},{"type":"Feature","properties":{"osm_id":"9937092490","station_name":"Shankar Vihar","element_type":"node","station_id":"SKVR"},"geometry":{"type":"Point","coordinates":[77.140254,28.560828]}},{"type":"Feature","properties":{"osm_id":"9937092489","station_name":"Terminal 1 IGI Airport","element_type":"node","station_id":"IGDA"},"geometry":{"type":"Point","coordinates":[77.122621,28.56486]}},{"type":"Feature","properties":{"osm_id":"9937092488","station_name":"Sadar Bazar Cantonment","element_type":"node","station_id":"SABR"},"geometry":{"type":"Point","coordinates":[77.111125,28.57709]}},{"type":"Feature","properties":{"osm_id":"9937092487","station_name":"Palam","element_type":"node","station_id":"PALM"},"geometry":{"type":"Point","coordinates":[77.083049,28.58891]}},{"type":"Feature","properties":{"osm_id":"9937092486","station_name":"Dashrath Puri","element_type":"node","station_id":"DSHP"},"geometry":{"type":"Point","coordinates":[77.082356,28.601875]}},{"type":"Feature","properties":{"osm_id":"2832938325","station_name":"Dabri Mor - Janakpuri South","element_type":"node","station_id":"DBMR"},"geometry":{"type":"Point","coordinates":[77.085178,28.615756]}},{"type":"Feature","properties":{"osm_id":"12478112132","station_name":"Krishna Park Extension","element_type":"node","station_id":"12478112132"},"geometry":{"type":"Point","coordinates":[77.08431,28.647802]}},{"type":"Feature","properties":{"osm_id":"1886793206","station_name":"Ashok Park Main","element_type":"node","station_id":"1886793206"},"geometry":{"type":"Point","coordinates":[77.155281,28.671537]}},{"type":"Feature","properties":{"osm_id":"1665772918","station_name":"Punjabi Bagh","element_type":"node","station_id":"1665772918"},"geometry":{"type":"Point","coordinates":[77.146115,28.672927]}},{"type":"Feature","properties":{"osm_id":"600644865","station_name":"Shivaji Park","element_type":"node","station_id":"600644865"},"geometry":{"type":"Point","coordinates":[77.130457,28.67496]}},{"type":"Feature","properties":{"osm_id":"600644828","station_name":"Madipur","element_type":"node","station_id":"600644828"},"geometry":{"type":"Point","coordinates":[77.119345,28.676405]}},{"type":"Feature","properties":{"osm_id":"600645512","station_name":"Paschim Vihar East","element_type":"node","station_id":"600645512"},"geometry":{"type":"Point","coordinates":[77.112278,28.677329]}},{"type":"Feature","properties":{"osm_id":"610889203","station_name":"Paschim Vihar West","element_type":"node","station_id":"610889203"},"geometry":{"type":"Point","coordinates":[77.102211,28.678585]}},{"type":"Feature","properties":{"osm_id":"941120352","station_name":"Peeragarhi","element_type":"node","station_id":"941120352"},"geometry":{"type":"Point","coordinates":[77.092658,28.679712]}},{"type":"Feature","properties":{"osm_id":"1787431976","station_name":"Udyog Nagar","element_type":"node","station_id":"1787431976"},"geometry":{"type":"Point","coordinates":[77.080842,28.681039]}},{"type":"Feature","properties":{"osm_id":"915473442","station_name":"Surajmal Stadium","element_type":"node","station_id":"915473442"},"geometry":{"type":"Point","coordinates":[77.074004,28.681828]}},{"type":"Feature","properties":{"osm_id":"915472875","station_name":"Nangloi","element_type":"node","station_id":"915472875"},"geometry":{"type":"Point","coordinates":[77.064726,28.682334]}},{"type":"Feature","properties":{"osm_id":"915474404","station_name":"Nangloi Railway Station","element_type":"node","station_id":"915474404"},"geometry":{"type":"Point","coordinates":[77.056237,28.68213]}},{"type":"Feature","properties":{"osm_id":"915472696","station_name":"Rajdhani Park","element_type":"node","station_id":"915472696"},"geometry":{"type":"Point","coordinates":[77.043936,28.682241]}},{"type":"Feature","properties":{"osm_id":"915473851","station_name":"Mundka","element_type":"node","station_id":"MQC"},"geometry":{"type":"Point","coordinates":[77.030571,28.682351]}},{"type":"Feature","properties":{"osm_id":"5719817431","station_name":"Mundka Industrial Area","element_type":"node","station_id":"5719817431"},"geometry":{"type":"Point","coordinates":[77.017114,28.683353]}},{"type":"Feature","properties":{"osm_id":"3689250982","station_name":"Ghevra","element_type":"node","station_id":"3689250982"},"geometry":{"type":"Point","coordinates":[76.996122,28.685233]}},{"type":"Feature","properties":{"osm_id":"3689250981","station_name":"Tikri Kalan","element_type":"node","station_id":"3689250981"},"geometry":{"type":"Point","coordinates":[76.977201,28.686819]}},{"type":"Feature","properties":{"osm_id":"5066137687","station_name":"Tikri Border","element_type":"node","station_id":"5066137687"},"geometry":{"type":"Point","coordinates":[76.964068,28.687898]}},{"type":"Feature","properties":{"osm_id":"5066137686","station_name":"Pandit Shree Ram Sharma","element_type":"node","station_id":"MIEE"},"geometry":{"type":"Point","coordinates":[76.951161,28.689211]}},{"type":"Feature","properties":{"osm_id":"3689250979","station_name":"Bahadurgarh City","element_type":"node","station_id":"3689250979"},"geometry":{"type":"Point","coordinates":[76.93544,28.690658]}},{"type":"Feature","properties":{"osm_id":"3689250980","station_name":"Brigadier Hoshiyar Singh","element_type":"node","station_id":"3689250980"},"geometry":{"type":"Point","coordinates":[76.919144,28.697343]}},{"type":"Feature","properties":{"osm_id":"5777613712","station_name":"Depot Station","element_type":"node","station_id":"5777613712"},"geometry":{"type":"Point","coordinates":[77.544014,28.488985]}},{"type":"Feature","properties":{"osm_id":"5777613710","station_name":"GNIDA Office","element_type":"node","station_id":"5777613710"},"geometry":{"type":"Point","coordinates":[77.536513,28.484656]}},{"type":"Feature","properties":{"osm_id":"5777613706","station_name":"Delta 1","element_type":"node","station_id":"5777613706"},"geometry":{"type":"Point","coordinates":[77.525727,28.478446]}},{"type":"Feature","properties":{"osm_id":"5777613702","station_name":"Alpha 1","element_type":"node","station_id":"5777613702"},"geometry":{"type":"Point","coordinates":[77.512741,28.471005]}},{"type":"Feature","properties":{"osm_id":"5777613688","station_name":"Pari Chowk","element_type":"node","station_id":"5777613688"},"geometry":{"type":"Point","coordinates":[77.50837,28.463378]}},{"type":"Feature","properties":{"osm_id":"5777613685","station_name":"Knowledge Park II","element_type":"node","station_id":"5777613685"},"geometry":{"type":"Point","coordinates":[77.500335,28.457031]}},{"type":"Feature","properties":{"osm_id":"5777613662","station_name":"Noida Sector 148","element_type":"node","station_id":"5777613662"},"geometry":{"type":"Point","coordinates":[77.476571,28.44805]}},{"type":"Feature","properties":{"osm_id":"5777613652","station_name":"Noida Sector 147","element_type":"node","station_id":"5777613652"},"geometry":{"type":"Point","coordinates":[77.466155,28.459294]}},{"type":"Feature","properties":{"osm_id":"5777613645","station_name":"Noida Sector 146","element_type":"node","station_id":"5777613645"},"geometry":{"type":"Point","coordinates":[77.455152,28.468821]}},{"type":"Feature","properties":{"osm_id":"5777613636","station_name":"Noida Sector 145","element_type":"node","station_id":"5777613636"},"geometry":{"type":"Point","coordinates":[77.44238,28.478984]}},{"type":"Feature","properties":{"osm_id":"5777613630","station_name":"Noida Sector 144","element_type":"node","station_id":"5777613630"},"geometry":{"type":"Point","coordinates":[77.433048,28.486273]}},{"type":"Feature","properties":{"osm_id":"5777613624","station_name":"Noida Sector 143","element_type":"node","station_id":"5777613624"},"geometry":{"type":"Point","coordinates":[77.422352,28.494241]}},{"type":"Feature","properties":{"osm_id":"5777613618","station_name":"Noida Sector 142","element_type":"node","station_id":"5777613618"},"geometry":{"type":"Point","coordinates":[77.412846,28.49897]}},{"type":"Feature","properties":{"osm_id":"5777613604","station_name":"Noida Sector 137","element_type":"node","station_id":"5777613604"},"geometry":{"type":"Point","coordinates":[77.403577,28.51076]}},{"type":"Feature","properties":{"osm_id":"5777613593","station_name":"Noida Sector 83","element_type":"node","station_id":"5777613593"},"geometry":{"type":"Point","coordinates":[77.396414,28.522258]}},{"type":"Feature","properties":{"osm_id":"5777613583","station_name":"NSEZ","element_type":"node","station_id":"5777613583"},"geometry":{"type":"Point","coordinates":[77.394722,28.53241]}},{"type":"Feature","properties":{"osm_id":"5777613567","station_name":"Noida Sector 81","element_type":"node","station_id":"5777613567"},"geometry":{"type":"Point","coordinates":[77.389911,28.549288]}},{"type":"Feature","properties":{"osm_id":"5777613556","station_name":"Noida Sector 101","element_type":"node","station_id":"5777613556"},"geometry":{"type":"Point","coordinates":[77.384917,28.556041]}},{"type":"Feature","properties":{"osm_id":"5777613345","station_name":"Noida Sector 76","element_type":"node","station_id":"5777613345"},"geometry":{"type":"Point","coordinates":[77.379627,28.56533]}},{"type":"Feature","properties":{"osm_id":"5777613343","station_name":"Rainbow Metro Station","element_type":"node","station_id":"5777613343"},"geometry":{"type":"Point","coordinates":[77.378212,28.574347]}},{"type":"Feature","properties":{"osm_id":"10074914485","station_name":"Noida Sector 51","element_type":"node","station_id":"10074914485"},"geometry":{"type":"Point","coordinates":[77.37524,28.585716]}},{"type":"Feature","properties":{"osm_id":"12478188645","station_name":"New Ashok Nagar","element_type":"node","station_id":"A01"},"geometry":{"type":"Point","coordinates":[77.302453,28.591303]}},{"type":"Feature","properties":{"osm_id":"11278972691","station_name":"Sahibabad","element_type":"node","station_id":"A03"},"geometry":{"type":"Point","coordinates":[77.368172,28.667673]}},{"type":"Feature","properties":{"osm_id":"11278972683","station_name":"Ghaziabad","element_type":"node","station_id":"A04"},"geometry":{"type":"Point","coordinates":[77.41372,28.672575]}},{"type":"Feature","properties":{"osm_id":"10700089581","station_name":"Guldhar","element_type":"node","station_id":"A05"},"geometry":{"type":"Point","coordinates":[77.445733,28.699558]}},{"type":"Feature","properties":{"osm_id":"11279794833","station_name":"Duhai","element_type":"node","station_id":"A06"},"geometry":{"type":"Point","coordinates":[77.471436,28.72699]}},{"type":"Feature","properties":{"osm_id":"11724181248","station_name":"Murad Nagar","element_type":"node","station_id":"A07"},"geometry":{"type":"Point","coordinates":[77.510684,28.770375]}},{"type":"Feature","properties":{"osm_id":"11724181246","station_name":"Modinagar South","element_type":"node","station_id":"A08"},"geometry":{"type":"Point","coordinates":[77.556726,28.817744]}},{"type":"Feature","properties":{"osm_id":"10654564201","station_name":"Modinagar North","element_type":"node","station_id":"A09"},"geometry":{"type":"Point","coordinates":[77.58318,28.8435]}},{"type":"Feature","properties":{"osm_id":"12197172515","station_name":"Meerut South","element_type":"node","station_id":"12197172515"},"geometry":{"type":"Point","coordinates":[77.632715,28.904675]}},{"type":"Feature","properties":{"osm_id":"13604911522","station_name":"Shatabdi Nagar","element_type":"node","station_id":"13604911522"},"geometry":{"type":"Point","coordinates":[77.67385,28.947764]}},{"type":"Feature","properties":{"osm_id":"13604911520","station_name":"Begumpul","element_type":"node","station_id":"A17"},"geometry":{"type":"Point","coordinates":[77.705578,28.996738]}},{"type":"Feature","properties":{"osm_id":"13604911518","station_name":"Modipuram","element_type":"node","station_id":"A21"},"geometry":{"type":"Point","coordinates":[77.70886,29.072325]}},{"type":"Feature","properties":{"osm_id":"8064593912","station_name":"Sector 55–56","element_type":"node","station_id":"8064593912"},"geometry":{"type":"Point","coordinates":[77.105089,28.423299]}},{"type":"Feature","properties":{"osm_id":"8064593909","station_name":"Sector 54 Chowk","element_type":"node","station_id":"8064593909"},"geometry":{"type":"Point","coordinates":[77.10481,28.432964]}},{"type":"Feature","properties":{"osm_id":"8064593908","station_name":"Sector 53-54","element_type":"node","station_id":"8064593908"},"geometry":{"type":"Point","coordinates":[77.100441,28.446379]}},{"type":"Feature","properties":{"osm_id":"8064593906","station_name":"Sector 42-43","element_type":"node","station_id":"8064593906"},"geometry":{"type":"Point","coordinates":[77.096929,28.457423]}},{"type":"Feature","properties":{"osm_id":"4789904280","station_name":"DLF Phase 1","element_type":"node","station_id":"4789904280"},"geometry":{"type":"Point","coordinates":[77.093937,28.471426]}},{"type":"Feature","properties":{"osm_id":"8064593904","station_name":"DLF Phase 2","element_type":"node","station_id":"8064593904"},"geometry":{"type":"Point","coordinates":[77.092989,28.487561]}},{"type":"Feature","properties":{"osm_id":"1988848864","station_name":"Belvedere Towers","element_type":"node","station_id":"BEL"},"geometry":{"type":"Point","coordinates":[77.088132,28.491702]}},{"type":"Feature","properties":{"osm_id":"2511127144","station_name":"Cyber City","element_type":"node","station_id":"2511127144"},"geometry":{"type":"Point","coordinates":[77.08916,28.498061]}},{"type":"Feature","properties":{"osm_id":"2533456421","station_name":"Moulsari Avenue Station","element_type":"node","station_id":"2533456421"},"geometry":{"type":"Point","coordinates":[77.094631,28.500778]}},{"type":"Feature","properties":{"osm_id":"2533456422","station_name":"Phase 3 Station","element_type":"node","station_id":"2533456422"},"geometry":{"type":"Point","coordinates":[77.093661,28.493568]}},{"type":"Feature","properties":{"osm_id":"663794722","station_name":"Laxmi Nagar","element_type":"node","station_id":"663794722"},"geometry":{"type":"Point","coordinates":[77.277502,28.630622]}},{"type":"Feature","properties":{"osm_id":"663793972","station_name":"Nirman Vihar","element_type":"node","station_id":"663793972"},"geometry":{"type":"Point","coordinates":[77.286752,28.636558]}},{"type":"Feature","properties":{"osm_id":"663793549","station_name":"Preet Vihar","element_type":"node","station_id":"663793549"},"geometry":{"type":"Point","coordinates":[77.295259,28.641441]}},{"type":"Feature","properties":{"osm_id":"554257855","station_name":"Kaushambi","element_type":"node","station_id":"554257855"},"geometry":{"type":"Point","coordinates":[77.324339,28.645408]}},{"type":"Feature","properties":{"osm_id":"1924974147","station_name":"Vaishali","element_type":"node","station_id":"1924974147"},"geometry":{"type":"Point","coordinates":[77.339506,28.649765]}},{"type":"Feature","properties":{"osm_id":"9240935054","station_name":"Yashobhoomi Dwarka Sector 25","element_type":"node","station_id":"IICC"},"geometry":{"type":"Point","coordinates":[77.045329,28.550852]}},{"type":"Feature","properties":{"osm_id":"9914269805","station_name":"IGI Airport","element_type":"node","station_id":"APOT"},"geometry":{"type":"Point","coordinates":[77.086724,28.55649]}},{"type":"Feature","properties":{"osm_id":"9938725205","station_name":"Delhi Aerocity","element_type":"node","station_id":"DACY"},"geometry":{"type":"Point","coordinates":[77.120809,28.5488]}},{"type":"Feature","properties":{"osm_id":"9938725206","station_name":"Dhaula Kuan","element_type":"node","station_id":"DKV"},"geometry":{"type":"Point","coordinates":[77.161684,28.591914]}},{"type":"Feature","properties":{"osm_id":"9938725207","station_name":"Shivaji Stadium","element_type":"node","station_id":"SJSU"},"geometry":{"type":"Point","coordinates":[77.211311,28.628914]}},{"type":"Feature","properties":{"osm_id":"2579368841","station_name":"Nangli","element_type":"node","station_id":"NNGI"},"geometry":{"type":"Point","coordinates":[77.010452,28.617278]}},{"type":"Feature","properties":{"osm_id":"9138309313","station_name":"Najafgarh","element_type":"node","station_id":"NFGH"},"geometry":{"type":"Point","coordinates":[76.986563,28.612426]}},{"type":"Feature","properties":{"osm_id":"9172459623","station_name":"Dhansa Bus Stand","element_type":"node","station_id":"DNBT"},"geometry":{"type":"Point","coordinates":[76.97855,28.611883]}}]}