{"type":"FeatureCollection","generator":"metroOsmFetch (OpenStreetMap / Overpass, ODbL)","features":[{"type":"Feature","properties":{"route_company":"Delhi Metro Rail Corporation Limited","route_id":"3","element_type":"way","color":"#4169e1","route_name":"Blue Line (Noida Electronic City → Dwarka Sector 21)","osm_id":"447209","railway":"subway","status":"open"},"geometry":{"type":"LineString","coordinates":[[77.37507,28.628261],[77.373589,28.616986],[77.372682,28.606527],[77.37227,28.597583],[77.372789,28.586759],[77.363501,28.580252],[77.35623,28.574811],[77.346388,28.567451],[77.334112,28.56392],[77.326161,28.570807],[77.317853,28.578128],[77.311708,28.584943],[77.301591,28.589132],[77.294489,28.594488],[77.290276,28.603863],[77.279546,28.617886],[77.267921,28.623236],[77.249551,28.620603],[77.242529,28.623474],[77.234195,28.625565],[77.225009,28.62977],[77.219516,28.632774],[77.208581,28.639242],[77.199916,28.644318],[77.188524,28.644011],[77.178275,28.642497],[77.169279,28.645012],[77.158256,28.651584],[77.15101,28.655145],[77.142431,28.65786],[77.131651,28.652745],[77.122733,28.649056],[77.112857,28.643747],[77.105225,28.640482],[77.096472,28.636546],[77.086718,28.633008],[77.078016,28.629272],[77.065288,28.624849],[77.055714,28.621757],[77.045081,28.620277],[77.03328,28.619312],[77.02258,28.615425],[77.025978,28.602219],[77.033542,28.597009],[77.040732,28.592236],[77.049441,28.586446],[77.057501,28.581057],[77.06533,28.574273],[77.067039,28.565611],[77.058557,28.551912]]}},{"type":"Feature","properties":{"route_company":"Delhi Metro Rail Corporation Limited","route_id":"7","element_type":"way","color":"#fc8eac","route_name":"Pink Line (Shiv Vihar → Maujpur - Babarpur)","osm_id":"8241298","railway":"subway","status":"open"},"geometry":{"type":"LineString","coordinates":[[77.279589,28.692127],[77.277307,28.702379],[77.262645,28.703599],[77.254472,28.705184],[77.242503,28.708695],[77.227472,28.710225],[77.223935,28.72115],[77.213678,28.724883],[77.199574,28.729829],[77.181801,28.724348],[77.181171,28.706421],[77.165442,28.70196],[77.153377,28.695381],[77.14957,28.685793],[77.139881,28.673407],[77.12726,28.658065],[77.124256,28.651188],[77.129735,28.637174],[77.136446,28.624385],[77.140413,28.608622],[77.169458,28.589292],[77.175731,28.578534],[77.187866,28.57026],[77.19808,28.575815],[77.208445,28.573906],[77.220566,28.568565],[77.237483,28.570047],[77.249273,28.565865],[77.258473,28.572312],[77.257217,28.589064],[77.290276,28.603863],[77.298647,28.605847],[77.308846,28.613442],[77.305418,28.620084],[77.304467,28.62499],[77.31073,28.631891],[77.315717,28.646777],[77.305822,28.648847],[77.295795,28.653616],[77.290146,28.657785],[77.284842,28.664677],[77.277391,28.672085],[77.274839,28.68272],[77.279589,28.692127],[77.286101,28.702438],[77.290122,28.71288],[77.289436,28.72143]]}},{"type":"Feature","properties":{"route_company":"Delhi Metro Rail Corporation Limited","route_id":"2","element_type":"way","color":"#ffdf00","route_name":"Yellow Line (Samaypur Badli → Millennium City Centre)","osm_id":"447210","railway":"subway","status":"open"},"geometry":{"type":"LineString","coordinates":[[77.072662,28.459348],[77.072421,28.472328],[77.079889,28.479556],[77.093719,28.481133],[77.102268,28.482025],[77.125765,28.480737],[77.149184,28.493752],[77.161378,28.499181],[77.174919,28.506765],[77.186454,28.512951],[77.202266,28.521208],[77.204826,28.529062],[77.205866,28.543817],[77.206791,28.558006],[77.207803,28.56686],[77.208445,28.573906],[77.212534,28.586597],[77.211097,28.597351],[77.211795,28.609514],[77.212325,28.615877],[77.214033,28.622968],[77.219516,28.632774],[77.222928,28.642981],[77.226517,28.649264],[77.230336,28.658422],[77.228163,28.667878],[77.225028,28.67685],[77.221728,28.686323],[77.214741,28.695077],[77.206411,28.698132],[77.193994,28.702715],[77.181171,28.706421],[77.170423,28.716582],[77.162658,28.725972],[77.148887,28.729807],[77.13984,28.73836],[77.138282,28.744628]]}},{"type":"Feature","properties":{"route_company":"Delhi Metro Rail Corporation Limited","route_id":"6","element_type":"way","color":"#553592","route_name":"Violet Line (Kashmere Gate → Raja Nahar Singh)","osm_id":"2535797","railway":"subway","status":"open"},"geometry":{"type":"LineString","coordinates":[[77.228163,28.667878],[77.236625,28.657477],[77.237662,28.650031],[77.240783,28.639215],[77.241045,28.628193],[77.234195,28.625565],[77.21926,28.624049],[77.212325,28.615877],[77.229125,28.602244],[77.233781,28.588239],[77.239317,28.583039],[77.237483,28.570047],[77.234256,28.564405],[77.241964,28.555327],[77.25174,28.551416],[77.257944,28.54985],[77.26424,28.544369],[77.275682,28.543261],[77.283017,28.538416],[77.288297,28.528578],[77.294457,28.519717],[77.299214,28.502368],[77.302996,28.493165],[77.30489,28.477968],[77.307365,28.457777],[77.308067,28.448619],[77.309035,28.438158],[77.310349,28.422713],[77.31144,28.410796],[77.312405,28.397488],[77.313434,28.385834],[77.314892,28.370233],[77.316198,28.35465],[77.316451,28.340004]]}},{"type":"Feature","properties":{"route_company":"Delhi Metro Rail Corporation Limited","route_id":"1","element_type":"way","color":"#ff4040","route_name":"Red Line (Rithala → Shaheed Sthal)","osm_id":"447214","railway":"subway","status":"open"},"geometry":{"type":"LineString","coordinates":[[77.107136,28.720769],[77.115385,28.714957],[77.126001,28.707573],[77.131161,28.703418],[77.140539,28.698042],[77.153377,28.695381],[77.161683,28.688926],[77.164775,28.682408],[77.169731,28.673121],[77.181859,28.670089],[77.198897,28.666718],[77.207416,28.666407],[77.216631,28.667163],[77.228163,28.667878],[77.250529,28.668433],[77.266793,28.669852],[77.277391,28.672085],[77.289887,28.673429],[77.300869,28.675385],[77.312395,28.675721],[77.321515,28.675855],[77.333916,28.676661],[77.346863,28.677089],[77.358141,28.677611],[77.370487,28.678209],[77.383899,28.678533],[77.391888,28.676997],[77.406537,28.673428],[77.415381,28.670677]]}},{"type":"Feature","properties":{"route_company":"Delhi Metro Rail Corporation Limited","route_id":"8","element_type":"way","color":"#cc338b","route_name":"Magenta Line (Botanical Garden → Krishna Park Extension)","osm_id":"8385429","railway":"subway","status":"open"},"geometry":{"type":"LineString","coordinates":[[77.084346,28.64779],[77.078016,28.629272],[77.085203,28.615749],[77.082382,28.601871],[77.083071,28.588922],[77.111134,28.577118],[77.122647,28.564864],[77.140259,28.56085],[77.161093,28.557831],[77.175058,28.556898],[77.185517,28.550384],[77.194523,28.547025],[77.205866,28.543817],[77.221094,28.542376],[77.230294,28.541114],[77.23845,28.541896],[77.251507,28.546058],[77.257944,28.54985],[77.264813,28.554468],[77.27496,28.5598],[77.286339,28.563051],[77.291874,28.561302],[77.296659,28.545829],[77.310113,28.542914],[77.321598,28.552942],[77.334112,28.56392]]}},{"type":"Feature","properties":{"route_company":"Delhi Metro Rail Corporation Limited","route_id":"5","element_type":"way","color":"#008000","route_name":"Green Line (Kirti Nagar => Ashok Park Main)","osm_id":"2535796","railway":"subway","status":"open"},"geometry":{"type":"LineString","coordinates":[[77.169731,28.673121],[77.155289,28.671577],[77.146121,28.672956],[77.139881,28.673407],[77.130462,28.67499],[77.11935,28.676435],[77.112282,28.677358],[77.102215,28.678606],[77.092659,28.67973],[77.080847,28.681068],[77.074002,28.681849],[77.064727,28.682364],[77.056237,28.68216],[77.043937,28.682271],[77.030572,28.682371],[77.017116,28.683369],[76.996126,28.685263],[76.977202,28.686839],[76.964072,28.687928],[76.951164,28.689226],[76.935443,28.690688],[76.919162,28.697369]]}},{"type":"Feature","properties":{"route_company":"Rapid Metro Gurgaon Ltd.","route_id":"RMGL","element_type":"way","color":"#469990","route_name":"Rapid MetroRail Gurgaon: S55 → Sikandarpur","osm_id":"4481323","railway":"subway","status":"open"},"geometry":{"type":"LineString","coordinates":[[77.093719,28.481133],[77.092989,28.487561],[77.093661,28.493568],[77.094631,28.500778],[77.08916,28.498061],[77.088132,28.491702],[77.092989,28.487561],[77.093719,28.481133],[77.093937,28.471426],[77.096929,28.457423],[77.100441,28.446379],[77.10481,28.432964],[77.105089,28.423299]]}},{"type":"Feature","properties":{"route_company":"Delhi Metro Rail Corporation Limited","route_id":"4","element_type":"way","color":"#4169e1","route_name":"Blue Line (Yamuna Bank → Vaishali)","osm_id":"2535795","railway":"subway","status":"open"},"geometry":{"type":"LineString","coordinates":[[77.267921,28.623236],[77.277526,28.630594],[77.286764,28.636536],[77.295286,28.641415],[77.305822,28.648847],[77.315717,28.646777],[77.32434,28.645387],[77.33952,28.649744]]}},{"type":"Feature","properties":{"route_company":"Delhi Metro Rail Corporation Limited","route_id":"AEx","element_type":"way","color":"#ff8c00","route_name":"Airport Express Line (Dwarka Sector 25 → New Delhi Airport Express Terminal)","osm_id":"2535798","railway":"subway","status":"open"},"geometry":{"type":"LineString","coordinates":[[77.04531,28.55083],[77.058557,28.551912],[77.086717,28.556457],[77.120807,28.54878],[77.161693,28.591896],[77.211321,28.628897],[77.222928,28.642981]]}},{"type":"Feature","properties":{"route_company":"Delhi Metro Rail Corporation Limited","route_id":"8","element_type":"way","color":"#cc338b","route_name":"Magenta Line (Botanical Garden → Krishna Park Extension)","osm_id":"8385429","railway":"subway","status":"open"},"geometry":{"type":"LineString","coordinates":[[77.181801,28.724348],[77.168072,28.736919],[77.148887,28.729807],[77.142437,28.724881],[77.138672,28.713082],[77.131161,28.703418],[77.118278,28.698094]]}},{"type":"Feature","properties":{"route_company":"Delhi Metro Rail Corporation Limited","route_id":"9","element_type":"way","color":"#838996","route_name":"Grey Line (Dwarka → Dhansa Bus Stand)","osm_id":"3537978","railway":"subway","status":"open"},"geometry":{"type":"LineString","coordinates":[[76.978547,28.61191],[76.986561,28.612453],[77.010442,28.617301],[77.02258,28.615425]]}},{"type":"Feature","properties":{"route_company":"Delhi Metro Rail Corporation Limited","route_id":"5","element_type":"way","color":"#008000","route_name":"Green Line (Kirti Nagar => Ashok Park Main)","osm_id":"2535796","railway":"subway","status":"open"},"geometry":{"type":"LineString","coordinates":[[77.15101,28.655145],[77.157566,28.662062],[77.155289,28.671577]]}},{"type":"Feature","properties":{"osm_id":"6325711755","station_name":"Noida Electronic City","element_type":"node","station_id":"6325711755"},"geometry":{"type":"Point","coordinates":[77.37507,28.628261]}},{"type":"Feature","properties":{"osm_id":"5777613716","station_name":"Noida Sector 62","element_type":"node","station_id":"5777613716"},"geometry":{"type":"Point","coordinates":[77.373589,28.616986]}},{"type":"Feature","properties":{"osm_id":"5777613718","station_name":"Noida Sector 59","element_type":"node","station_id":"5777613718"},"geometry":{"type":"Point","coordinates":[77.372682,28.606527]}},{"type":"Feature","properties":{"osm_id":"5777613720","station_name":"Noida Sector 61","element_type":"node","station_id":"5777613720"},"geometry":{"type":"Point","coordinates":[77.37227,28.597583]}},{"type":"Feature","properties":{"osm_id":"5777613736","station_name":"Noida Sector 52","element_type":"node","station_id":"5777613736"},"geometry":{"type":"Point","coordinates":[77.372789,28.586759]}},{"type":"Feature","properties":{"osm_id":"5777613740","station_name":"Noida Sector 34","element_type":"node","station_id":"5777613740"},"geometry":{"type":"Point","coordinates":[77.363501,28.580252]}},{"type":"Feature","properties":{"osm_id":"5777613746","station_name":"Noida City Centre","element_type":"node","station_id":"5777613746"},"geometry":{"type":"Point","coordinates":[77.35623,28.574811]}},{"type":"Feature","properties":{"osm_id":"5777613749","station_name":"Noida Golf Course","element_type":"node","station_id":"5777613749"},"geometry":{"type":"Point","coordinates":[77.346388,28.567451]}},{"type":"Feature","properties":{"osm_id":"5777613864","station_name":"Botanical Garden","element_type":"node","station_id":"BCGN"},"geometry":{"type":"Point","coordinates":[77.334112,28.56392]}},{"type":"Feature","properties":{"osm_id":"5777613870","station_name":"Noida Sector 18","element_type":"node","station_id":"NSET"},"geometry":{"type":"Point","coordinates":[77.326161,28.570807]}},{"type":"Feature","properties":{"osm_id":"5777613877","station_name":"Noida Sector 16","element_type":"node","station_id":"NSST"},"geometry":{"type":"Point","coordinates":[77.317853,28.578128]}},{"type":"Feature","properties":{"osm_id":"5777613883","station_name":"Noida Sector 15","element_type":"node","station_id":"NSFT"},"geometry":{"type":"Point","coordinates":[77.311708,28.584943]}},{"type":"Feature","properties":{"osm_id":"5777613898","station_name":"New Ashok Nagar","element_type":"node","station_id":"NAGR"},"geometry":{"type":"Point","coordinates":[77.301591,28.589132]}},{"type":"Feature","properties":{"osm_id":"5777613909","station_name":"Mayur Vihar Extension","element_type":"node","station_id":"MVE"},"geometry":{"type":"Point","coordinates":[77.294489,28.594488]}},{"type":"Feature","properties":{"osm_id":"5777613919","station_name":"Mayur Vihar - I (Blue Line)","element_type":"node","station_id":"5777613919"},"geometry":{"type":"Point","coordinates":[77.290276,28.603863]}},{"type":"Feature","properties":{"osm_id":"5777613940","station_name":"Akshardham","element_type":"node","station_id":"5777613940"},"geometry":{"type":"Point","coordinates":[77.279546,28.617886]}},{"type":"Feature","properties":{"osm_id":"6537317882","station_name":"Yamuna Bank","element_type":"node","station_id":"6537317882"},"geometry":{"type":"Point","coordinates":[77.267921,28.623236]}},{"type":"Feature","properties":{"osm_id":"554257831","station_name":"Indraprastha","element_type":"node","station_id":"554257831"},"geometry":{"type":"Point","coordinates":[77.249551,28.620603]}},{"type":"Feature","properties":{"osm_id":"554257824","station_name":"Supreme Court","element_type":"node","station_id":"554257824"},"geometry":{"type":"Point","coordinates":[77.242529,28.623474]}},{"type":"Feature","properties":{"osm_id":"554257827","station_name":"Mandi House","element_type":"node","station_id":"MDHS"},"geometry":{"type":"Point","coordinates":[77.234195,28.625565]}},{"type":"Feature","properties":{"osm_id":"554257839","station_name":"Barakhambha Road","element_type":"node","station_id":"554257839"},"geometry":{"type":"Point","coordinates":[77.225009,28.62977]}},{"type":"Feature","properties":{"osm_id":"939091076","station_name":"Rajiv Chowk","element_type":"node","station_id":"RCK"},"geometry":{"type":"Point","coordinates":[77.219516,28.632774]}},{"type":"Feature","properties":{"osm_id":"554257820","station_name":"Ramakrishna Ashram Marg","element_type":"node","station_id":"554257820"},"geometry":{"type":"Point","coordinates":[77.208581,28.639242]}},{"type":"Feature","properties":{"osm_id":"345234443","station_name":"Jhandewalan","element_type":"node","station_id":"345234443"},"geometry":{"type":"Point","coordinates":[77.199916,28.644318]}},{"type":"Feature","properties":{"osm_id":"6547772123","station_name":"Karol Bagh","element_type":"node","station_id":"6547772123"},"geometry":{"type":"Point","coordinates":[77.188524,28.644011]}},{"type":"Feature","properties":{"osm_id":"345234440","station_name":"Rajendra Place","element_type":"node","station_id":"345234440"},"geometry":{"type":"Point","coordinates":[77.178275,28.642497]}},{"type":"Feature","properties":{"osm_id":"6547772115","station_name":"Patel Nagar","element_type":"node","station_id":"6547772115"},"geometry":{"type":"Point","coordinates":[77.169279,28.645012]}},{"type":"Feature","properties":{"osm_id":"6547772114","station_name":"Shadipur","element_type":"node","station_id":"6547772114"},"geometry":{"type":"Point","coordinates":[77.158256,28.651584]}},{"type":"Feature","properties":{"osm_id":"6547772113","station_name":"Kirti Nagar (Blue Line)","element_type":"node","station_id":"KNR"},"geometry":{"type":"Point","coordinates":[77.15101,28.655145]}},{"type":"Feature","properties":{"osm_id":"6547772112","station_name":"Moti Nagar","element_type":"node","station_id":"6547772112"},"geometry":{"type":"Point","coordinates":[77.142431,28.65786]}},{"type":"Feature","properties":{"osm_id":"6547772111","station_name":"Ramesh Nagar","element_type":"node","station_id":"6547772111"},"geometry":{"type":"Point","coordinates":[77.131651,28.652745]}},{"type":"Feature","properties":{"osm_id":"249823630","station_name":"Rajouri Garden (Blue Line)","element_type":"node","station_id":"249823630"},"geometry":{"type":"Point","coordinates":[77.122733,28.649056]}},{"type":"Feature","properties":{"osm_id":"663798999","station_name":"Tagore Garden","element_type":"node","station_id":"663798999"},"geometry":{"type":"Point","coordinates":[77.112857,28.643747]}},{"type":"Feature","properties":{"osm_id":"610886106","station_name":"Subhash Nagar","element_type":"node","station_id":"610886106"},"geometry":{"type":"Point","coordinates":[77.105225,28.640482]}},{"type":"Feature","properties":{"osm_id":"347677816","station_name":"Tilak Nagar","element_type":"node","station_id":"347677816"},"geometry":{"type":"Point","coordinates":[77.096472,28.636546]}},{"type":"Feature","properties":{"osm_id":"913550169","station_name":"Janakpuri East","element_type":"node","station_id":"913550169"},"geometry":{"type":"Point","coordinates":[77.086718,28.633008]}},{"type":"Feature","properties":{"osm_id":"347685192","station_name":"Janakpuri West","element_type":"node","station_id":"JPW"},"geometry":{"type":"Point","coordinates":[77.078016,28.629272]}},{"type":"Feature","properties":{"osm_id":"347685176","station_name":"Uttam Nagar East","element_type":"node","station_id":"347685176"},"geometry":{"type":"Point","coordinates":[77.065288,28.624849]}},{"type":"Feature","properties":{"osm_id":"249823566","station_name":"Uttam Nagar West","element_type":"node","station_id":"249823566"},"geometry":{"type":"Point","coordinates":[77.055714,28.621757]}},{"type":"Feature","properties":{"osm_id":"249823558","station_name":"Nawada","element_type":"node","station_id":"249823558"},"geometry":{"type":"Point","coordinates":[77.045081,28.620277]}},{"type":"Feature","properties":{"osm_id":"249823552","station_name":"Dwarka Mor","element_type":"node","station_id":"DM"},"geometry":{"type":"Point","coordinates":[77.03328,28.619312]}},{"type":"Feature","properties":{"osm_id":"249235048","station_name":"Dwarka - Kakrola (Blue Line)","element_type":"node","station_id":"DW"},"geometry":{"type":"Point","coordinates":[77.02258,28.615425]}},{"type":"Feature","properties":{"osm_id":"249823531","station_name":"Dwarka Sector 14","element_type":"node","station_id":"DSFN"},"geometry":{"type":"Point","coordinates":[77.025978,28.602219]}},{"type":"Feature","properties":{"osm_id":"249235042","station_name":"Dwarka Sector 13","element_type":"node","station_id":"DSTN"},"geometry":{"type":"Point","coordinates":[77.033542,28.597009]}},{"type":"Feature","properties":{"osm_id":"249235041","station_name":"Dwarka Sector 12","element_type":"node","station_id":"DSW"},"geometry":{"type":"Point","coordinates":[77.040732,28.592236]}},{"type":"Feature","properties":{"osm_id":"347688420","station_name":"Dwarka Sector 11","element_type":"node","station_id":"DSE"},"geometry":{"type":"Point","coordinates":[77.049441,28.586446]}},{"type":"Feature","properties":{"osm_id":"347688434","station_name":"Dwarka Sector 10","element_type":"node","station_id":"DST"},"geometry":{"type":"Point","coordinates":[77.057501,28.581057]}},{"type":"Feature","properties":{"osm_id":"347688615","station_name":"Dwarka Sector 9","element_type":"node","station_id":"DSN"},"geometry":{"type":"Point","coordinates":[77.06533,28.574273]}},{"type":"Feature","properties":{"osm_id":"347688730","station_name":"Dwarka Sector 8","element_type":"node","station_id":"DSET"},"geometry":{"type":"Point","coordinates":[77.067039,28.565611]}},{"type":"Feature","properties":{"osm_id":"347688731","station_name":"Dwarka Sector 21","element_type":"node","station_id":"347688731"},"geometry":{"type":"Point","coordinates":[77.058557,28.551912]}},{"type":"Feature","properties":{"osm_id":"13628489705","station_name":"Maujpur-Babarpur","element_type":"node","station_id":"13628489705"},"geometry":{"type":"Point","coordinates":[77.279589,28.692127]}},{"type":"Feature","properties":{"osm_id":"13628489707","station_name":"Yamuna Vihar","element_type":"node","station_id":"13628489707"},"geometry":{"type":"Point","coordinates":[77.277307,28.702379]}},{"type":"Feature","properties":{"osm_id":"13628489708","station_name":"Bhajanpura","element_type":"node","station_id":"13628489708"},"geometry":{"type":"Point","coordinates":[77.262645,28.703599]}},{"type":"Feature","properties":{"osm_id":"13628489710","station_name":"Khajuri Khas","element_type":"node","station_id":"13628489710"},"geometry":{"type":"Point","coordinates":[77.254472,28.705184]}},{"type":"Feature","properties":{"osm_id":"13628489713","station_name":"Nanaksar - Sonia Vihar","element_type":"node","station_id":"13628489713"},"geometry":{"type":"Point","coordinates":[77.242503,28.708695]}},{"type":"Feature","properties":{"osm_id":"13628489715","station_name":"Soorghat","element_type":"node","station_id":"13628489715"},"geometry":{"type":"Point","coordinates":[77.227472,28.710225]}},{"type":"Feature","properties":{"osm_id":"13628489718","station_name":"Jagatpur - Wazirabad","element_type":"node","station_id":"13628489718"},"geometry":{"type":"Point","coordinates":[77.223935,28.72115]}},{"type":"Feature","properties":{"osm_id":"13628489721","station_name":"Jharoda Majra","element_type":"node","station_id":"13628489721"},"geometry":{"type":"Point","coordinates":[77.213678,28.724883]}},{"type":"Feature","properties":{"osm_id":"13238880328","station_name":"Burari","element_type":"node","station_id":"13238880328"},"geometry":{"type":"Point","coordinates":[77.199574,28.729829]}},{"type":"Feature","properties":{"osm_id":"6196100474","station_name":"Majlis Park","element_type":"node","station_id":"6196100474"},"geometry":{"type":"Point","coordinates":[77.181801,28.724348]}},{"type":"Feature","properties":{"osm_id":"2833531971","station_name":"Azadpur (Pink Line)","element_type":"node","station_id":"AZU"},"geometry":{"type":"Point","coordinates":[77.181171,28.706421]}},{"type":"Feature","properties":{"osm_id":"2833526614","station_name":"Shalimar Bagh","element_type":"node","station_id":"SMBG"},"geometry":{"type":"Point","coordinates":[77.165442,28.70196]}},{"type":"Feature","properties":{"osm_id":"2833531964","station_name":"Netaji Subhash Place (Pink Line)","element_type":"node","station_id":"2833531964"},"geometry":{"type":"Point","coordinates":[77.153377,28.695381]}},{"type":"Feature","properties":{"osm_id":"2833531954","station_name":"Shakurpur","element_type":"node","station_id":"2833531954"},"geometry":{"type":"Point","coordinates":[77.14957,28.685793]}},{"type":"Feature","properties":{"osm_id":"2833531944","station_name":"Punjabi Bagh West","element_type":"node","station_id":"PBGW"},"geometry":{"type":"Point","coordinates":[77.139881,28.673407]}},{"type":"Feature","properties":{"osm_id":"2833531935","station_name":"ESI - Basaidarapur","element_type":"node","station_id":"ESIH"},"geometry":{"type":"Point","coordinates":[77.12726,28.658065]}},{"type":"Feature","properties":{"osm_id":"2833531928","station_name":"Rajouri Garden (Pink Line)","element_type":"node","station_id":"2833531928"},"geometry":{"type":"Point","coordinates":[77.124256,28.651188]}},{"type":"Feature","properties":{"osm_id":"2833531922","station_name":"Mayapuri","element_type":"node","station_id":"2833531922"},"geometry":{"type":"Point","coordinates":[77.129735,28.637174]}},{"type":"Feature","properties":{"osm_id":"2833531915","station_name":"Naraina Vihar","element_type":"node","station_id":"NAVR"},"geometry":{"type":"Point","coordinates":[77.136446,28.624385]}},{"type":"Feature","properties":{"osm_id":"2833526696","station_name":"Delhi Cantt","element_type":"node","station_id":"2833526696"},"geometry":{"type":"Point","coordinates":[77.140413,28.608622]}},{"type":"Feature","properties":{"osm_id":"2833526656","station_name":"Durgabai Deshmukh South Campus","element_type":"node","station_id":"2833526656"},"geometry":{"type":"Point","coordinates":[77.169458,28.589292]}},{"type":"Feature","properties":{"osm_id":"2833526642","station_name":"Sir M. Vishweshwaraiah Moti Bagh","element_type":"node","station_id":"SVMB"},"geometry":{"type":"Point","coordinates":[77.175731,28.578534]}},{"type":"Feature","properties":{"osm_id":"2833526619","station_name":"Bhikaji Cama Place","element_type":"node","station_id":"BKCP"},"geometry":{"type":"Point","coordinates":[77.187866,28.57026]}},{"type":"Feature","properties":{"osm_id":"2833526638","station_name":"Sarojini Nagar","element_type":"node","station_id":"SOJI"},"geometry":{"type":"Point","coordinates":[77.19808,28.575815]}},{"type":"Feature","properties":{"osm_id":"2833526634","station_name":"Dilli Haat - INA","element_type":"node","station_id":"INA"},"geometry":{"type":"Point","coordinates":[77.208445,28.573906]}},{"type":"Feature","properties":{"osm_id":"2833526616","station_name":"South Extension","element_type":"node","station_id":"2833526616"},"geometry":{"type":"Point","coordinates":[77.220566,28.568565]}},{"type":"Feature","properties":{"osm_id":"2833526623","station_name":"Lajpat Nagar (Pink Line)","element_type":"node","station_id":"LPNR"},"geometry":{"type":"Point","coordinates":[77.237483,28.570047]}},{"type":"Feature","properties":{"osm_id":"6196100470","station_name":"Vinobapuri","element_type":"node","station_id":"VNPR"},"geometry":{"type":"Point","coordinates":[77.249273,28.565865]}},{"type":"Feature","properties":{"osm_id":"4676940460","station_name":"Ashram","element_type":"node","station_id":"AHRM"},"geometry":{"type":"Point","coordinates":[77.258473,28.572312]}},{"type":"Feature","properties":{"osm_id":"6196100471","station_name":"Sarai Kale Khan - Nizamuddin","element_type":"node","station_id":"NIZM"},"geometry":{"type":"Point","coordinates":[77.257217,28.589064]}},{"type":"Feature","properties":{"osm_id":"6196100473","station_name":"Shree Ram Mandir Mayur Vihar","element_type":"node","station_id":"6196100473"},"geometry":{"type":"Point","coordinates":[77.298647,28.605847]}},{"type":"Feature","properties":{"osm_id":"6049373347","station_name":"Trilokpuri Sanjay Lake","element_type":"node","station_id":"6049373347"},"geometry":{"type":"Point","coordinates":[77.308846,28.613442]}},{"type":"Feature","properties":{"osm_id":"6049373346","station_name":"East Vinod Nagar - Mayur Vihar - II","element_type":"node","station_id":"6049373346"},"geometry":{"type":"Point","coordinates":[77.305418,28.620084]}},{"type":"Feature","properties":{"osm_id":"6049373345","station_name":"Mandawali - West Vinod Nagar","element_type":"node","station_id":"6049373345"},"geometry":{"type":"Point","coordinates":[77.304467,28.62499]}},{"type":"Feature","properties":{"osm_id":"6049373302","station_name":"IP Extension","element_type":"node","station_id":"6049373302"},"geometry":{"type":"Point","coordinates":[77.31073,28.631891]}},{"type":"Feature","properties":{"osm_id":"6049373301","station_name":"Anand Vihar (Pink Line)","element_type":"node","station_id":"ANVR"},"geometry":{"type":"Point","coordinates":[77.315717,28.646777]}},{"type":"Feature","properties":{"osm_id":"6049373300","station_name":"Karkarduma (Pink Line)","element_type":"node","station_id":"6049373300"},"geometry":{"type":"Point","coordinates":[77.305822,28.648847]}},{"type":"Feature","properties":{"osm_id":"6049373299","station_name":"Karkarduma Court","element_type":"node","station_id":"6049373299"},"geometry":{"type":"Point","coordinates":[77.295795,28.653616]}},{"type":"Feature","properties":{"osm_id":"2833971901","station_name":"Krishna Nagar","element_type":"node","station_id":"2833971901"},"geometry":{"type":"Point","coordinates":[77.290146,28.657785]}},{"type":"Feature","properties":{"osm_id":"2833971903","station_name":"East Azad Nagar","element_type":"node","station_id":"2833971903"},"geometry":{"type":"Point","coordinates":[77.284842,28.664677]}},{"type":"Feature","properties":{"osm_id":"2833971906","station_name":"Welcome (Pink Line)","element_type":"node","station_id":"2833971906"},"geometry":{"type":"Point","coordinates":[77.277391,28.672085]}},{"type":"Feature","properties":{"osm_id":"2833971914","station_name":"Jaffrabad","element_type":"node","station_id":"2833971914"},"geometry":{"type":"Point","coordinates":[77.274839,28.68272]}},{"type":"Feature","properties":{"osm_id":"2833971922","station_name":"Gokulpuri","element_type":"node","station_id":"2833971922"},"geometry":{"type":"Point","coordinates":[77.286101,28.702438]}},{"type":"Feature","properties":{"osm_id":"2833971929","station_name":"Johri Enclave","element_type":"node","station_id":"2833971929"},"geometry":{"type":"Point","coordinates":[77.290122,28.71288]}},{"type":"Feature","properties":{"osm_id":"2833971930","station_name":"Shiv Vihar","element_type":"node","station_id":"2833971930"},"geometry":{"type":"Point","coordinates":[77.289436,28.72143]}},{"type":"Feature","properties":{"osm_id":"922909980","station_name":"Millennium City Centre Gurugram","element_type":"node","station_id":"HCC"},"geometry":{"type":"Point","coordinates":[77.072662,28.459348]}},{"type":"Feature","properties":{"osm_id":"413317779","station_name":"IFFCO Chowk","element_type":"node","station_id":"IFOC"},"geometry":{"type":"Point","coordinates":[77.072421,28.472328]}},{"type":"Feature","properties":{"osm_id":"271335327","station_name":"M G Road","element_type":"node","station_id":"271335327"},"geometry":{"type":"Point","coordinates":[77.079889,28.479556]}},{"type":"Feature","properties":{"osm_id":"6547772094","station_name":"Sikanderpur","element_type":"node","station_id":"SKRP"},"geometry":{"type":"Point","coordinates":[77.093719,28.481133]}},{"type":"Feature","properties":{"osm_id":"271335545","station_name":"Guru Dronacharya","element_type":"node","station_id":"271335545"},"geometry":{"type":"Point","coordinates":[77.102268,28.482025]}},{"type":"Feature","properties":{"osm_id":"271335980","station_name":"Arjan Garh","element_type":"node","station_id":"271335980"},"geometry":{"type":"Point","coordinates":[77.125765,28.480737]}},{"type":"Feature","properties":{"osm_id":"271335970","station_name":"Ghitorni","element_type":"node","station_id":"271335970"},"geometry":{"type":"Point","coordinates":[77.149184,28.493752]}},{"type":"Feature","properties":{"osm_id":"554257755","station_name":"Sultanpur","element_type":"node","station_id":"SLN"},"geometry":{"type":"Point","coordinates":[77.161378,28.499181]}},{"type":"Feature","properties":{"osm_id":"554257781","station_name":"Chhatarpur","element_type":"node","station_id":"CHTP"},"geometry":{"type":"Point","coordinates":[77.174919,28.506765]}},{"type":"Feature","properties":{"osm_id":"939284656","station_name":"Qutab Minar","element_type":"node","station_id":"QM"},"geometry":{"type":"Point","coordinates":[77.186454,28.512951]}},{"type":"Feature","properties":{"osm_id":"922910160","station_name":"Saket","element_type":"node","station_id":"SAKT"},"geometry":{"type":"Point","coordinates":[77.202266,28.521208]}},{"type":"Feature","properties":{"osm_id":"554257785","station_name":"Malviya Nagar","element_type":"node","station_id":"MVNR"},"geometry":{"type":"Point","coordinates":[77.204826,28.529062]}},{"type":"Feature","properties":{"osm_id":"6547772107","station_name":"Hauz Khas (Yellow Line)","element_type":"node","station_id":"HKS"},"geometry":{"type":"Point","coordinates":[77.205866,28.543817]}},{"type":"Feature","properties":{"osm_id":"554257789","station_name":"Green Park","element_type":"node","station_id":"GNPK"},"geometry":{"type":"Point","coordinates":[77.206791,28.558006]}},{"type":"Feature","properties":{"osm_id":"7018301884","station_name":"A.I.I.M.S.","element_type":"node","station_id":"AIIMS"},"geometry":{"type":"Point","coordinates":[77.207803,28.56686]}},{"type":"Feature","properties":{"osm_id":"554257805","station_name":"Jor Bagh","element_type":"node","station_id":"JB"},"geometry":{"type":"Point","coordinates":[77.212534,28.586597]}},{"type":"Feature","properties":{"osm_id":"554257797","station_name":"Lok Kalyan Marg","element_type":"node","station_id":"LKM"},"geometry":{"type":"Point","coordinates":[77.211097,28.597351]}},{"type":"Feature","properties":{"osm_id":"554257800","station_name":"Seva Teerth","element_type":"node","station_id":"554257800"},"geometry":{"type":"Point","coordinates":[77.211795,28.609514]}},{"type":"Feature","properties":{"osm_id":"6547772108","station_name":"Central Secretariat","element_type":"node","station_id":"CTST"},"geometry":{"type":"Point","coordinates":[77.212325,28.615877]}},{"type":"Feature","properties":{"osm_id":"554257818","station_name":"Patel Chowk","element_type":"node","station_id":"PTCK"},"geometry":{"type":"Point","coordinates":[77.214033,28.622968]}},{"type":"Feature","properties":{"osm_id":"6547772097","station_name":"New Delhi","element_type":"node","station_id":"NDLS"},"geometry":{"type":"Point","coordinates":[77.222928,28.642981]}},{"type":"Feature","properties":{"osm_id":"554257842","station_name":"Chawri Bazaar","element_type":"node","station_id":"CWBR"},"geometry":{"type":"Point","coordinates":[77.226517,28.649264]}},{"type":"Feature","properties":{"osm_id":"554257862","station_name":"Chandni Chowk","element_type":"node","station_id":"CHK"},"geometry":{"type":"Point","coordinates":[77.230336,28.658422]}},{"type":"Feature","properties":{"osm_id":"6547772099","station_name":"Kashmere Gate","element_type":"node","station_id":"6547772099"},"geometry":{"type":"Point","coordinates":[77.228163,28.667878]}},{"type":"Feature","properties":{"osm_id":"561300694","station_name":"Civil Lines","element_type":"node","station_id":"CL"},"geometry":{"type":"Point","coordinates":[77.225028,28.67685]}},{"type":"Feature","properties":{"osm_id":"663777956","station_name":"Vidhan Sabha","element_type":"node","station_id":"VS"},"geometry":{"type":"Point","coordinates":[77.221728,28.686323]}},{"type":"Feature","properties":{"osm_id":"663777967","station_name":"Vishwa Vidyalaya","element_type":"node","station_id":"VW"},"geometry":{"type":"Point","coordinates":[77.214741,28.695077]}},{"type":"Feature","properties":{"osm_id":"9944540105","station_name":"GTB Nagar","element_type":"node","station_id":"GTBR"},"geometry":{"type":"Point","coordinates":[77.206411,28.698132]}},{"type":"Feature","properties":{"osm_id":"663780748","station_name":"Model Town","element_type":"node","station_id":"663780748"},"geometry":{"type":"Point","coordinates":[77.193994,28.702715]}},{"type":"Feature","properties":{"osm_id":"663781793","station_name":"Adarsh Nagar","element_type":"node","station_id":"663781793"},"geometry":{"type":"Point","coordinates":[77.170423,28.716582]}},{"type":"Feature","properties":{"osm_id":"913486465","station_name":"Jahangirpuri","element_type":"node","station_id":"913486465"},"geometry":{"type":"Point","coordinates":[77.162658,28.725972]}},{"type":"Feature","properties":{"osm_id":"2837147021","station_name":"Haiderpur Badli Mor","element_type":"node","station_id":"BIMR"},"geometry":{"type":"Point","coordinates":[77.148887,28.729807]}},{"type":"Feature","properties":{"osm_id":"9945617504","station_name":"Rohini Sector 18, 19","element_type":"node","station_id":"RISE"},"geometry":{"type":"Point","coordinates":[77.13984,28.73836]}},{"type":"Feature","properties":{"osm_id":"9945617506","station_name":"Samaypur Badli","element_type":"node","station_id":"SPBI"},"geometry":{"type":"Point","coordinates":[77.138282,28.744628]}},{"type":"Feature","properties":{"osm_id":"2722924227","station_name":"Lal Quila","element_type":"node","station_id":"2722924227"},"geometry":{"type":"Point","coordinates":[77.236625,28.657477]}},{"type":"Feature","properties":{"osm_id":"1988668281","station_name":"Jama Masjid","element_type":"node","station_id":"JAMD"},"geometry":{"type":"Point","coordinates":[77.237662,28.650031]}},{"type":"Feature","properties":{"osm_id":"2837165876","station_name":"Delhi Gate","element_type":"node","station_id":"DLIG"},"geometry":{"type":"Point","coordinates":[77.240783,28.639215]}},{"type":"Feature","properties":{"osm_id":"3580369626","station_name":"ITO","element_type":"node","station_id":"ITO"},"geometry":{"type":"Point","coordinates":[77.241045,28.628193]}},{"type":"Feature","properties":{"osm_id":"1988668271","station_name":"Janpath","element_type":"node","station_id":"JNPH"},"geometry":{"type":"Point","coordinates":[77.21926,28.624049]}},{"type":"Feature","properties":{"osm_id":"927873481","station_name":"Khan Market","element_type":"node","station_id":"927873481"},"geometry":{"type":"Point","coordinates":[77.229125,28.602244]}},{"type":"Feature","properties":{"osm_id":"562620239","station_name":"Jawaharlal Nehru Stadium","element_type":"node","station_id":"562620239"},"geometry":{"type":"Point","coordinates":[77.233781,28.588239]}},{"type":"Feature","properties":{"osm_id":"562620241","station_name":"Jangpura","element_type":"node","station_id":"562620241"},"geometry":{"type":"Point","coordinates":[77.239317,28.583039]}},{"type":"Feature","properties":{"osm_id":"562620810","station_name":"Moolchand","element_type":"node","station_id":"562620810"},"geometry":{"type":"Point","coordinates":[77.234256,28.564405]}},{"type":"Feature","properties":{"osm_id":"927873489","station_name":"Kailash Colony","element_type":"node","station_id":"927873489"},"geometry":{"type":"Point","coordinates":[77.241964,28.555327]}},{"type":"Feature","properties":{"osm_id":"1135153141","station_name":"Nehru Place","element_type":"node","station_id":"1135153141"},"geometry":{"type":"Point","coordinates":[77.25174,28.551416]}},{"type":"Feature","properties":{"osm_id":"6547772101","station_name":"Kalkaji Mandir","element_type":"node","station_id":"KJMD"},"geometry":{"type":"Point","coordinates":[77.257944,28.54985]}},{"type":"Feature","properties":{"osm_id":"927873461","station_name":"Govind Puri","element_type":"node","station_id":"927873461"},"geometry":{"type":"Point","coordinates":[77.26424,28.544369]}},{"type":"Feature","properties":{"osm_id":"856302882","station_name":"Harkesh Nagar Okhla","element_type":"node","station_id":"OKA"},"geometry":{"type":"Point","coordinates":[77.275682,28.543261]}},{"type":"Feature","properties":{"osm_id":"562622101","station_name":"Jasola Apollo","element_type":"node","station_id":"562622101"},"geometry":{"type":"Point","coordinates":[77.283017,28.538416]}},{"type":"Feature","properties":{"osm_id":"562622242","station_name":"Sarita Vihar","element_type":"node","station_id":"562622242"},"geometry":{"type":"Point","coordinates":[77.288297,28.528578]}},{"type":"Feature","properties":{"osm_id":"1706019482","station_name":"Mohan Estate","element_type":"node","station_id":"1706019482"},"geometry":{"type":"Point","coordinates":[77.294457,28.519717]}},{"type":"Feature","properties":{"osm_id":"562622248","station_name":"Tughlakabad","element_type":"node","station_id":"562622248"},"geometry":{"type":"Point","coordinates":[77.299214,28.502368]}},{"type":"Feature","properties":{"osm_id":"562722447","station_name":"Badarpur","element_type":"node","station_id":"562722447"},"geometry":{"type":"Point","coordinates":[77.302996,28.493165]}},{"type":"Feature","properties":{"osm_id":"2837194690","station_name":"Sarai","element_type":"node","station_id":"SAI"},"geometry":{"type":"Point","coordinates":[77.30489,28.477968]}},{"type":"Feature","properties":{"osm_id":"2837246578","station_name":"N.H.P.C. Chowk","element_type":"node","station_id":"2837246578"},"geometry":{"type":"Point","coordinates":[77.307365,28.457777]}},{"type":"Feature","properties":{"osm_id":"2837246577","station_name":"Mewala Maharajpur","element_type":"node","station_id":"2837246577"},"geometry":{"type":"Point","coordinates":[77.308067,28.448619]}},{"type":"Feature","properties":{"osm_id":"2837246580","station_name":"Sector 28","element_type":"node","station_id":"2837246580"},"geometry":{"type":"Point","coordinates":[77.309035,28.438158]}},{"type":"Feature","properties":{"osm_id":"2837246576","station_name":"Badhkal Mor","element_type":"node","station_id":"2837246576"},"geometry":{"type":"Point","coordinates":[77.310349,28.422713]}},{"type":"Feature","properties":{"osm_id":"2837246579","station_name":"Old Faridabad","element_type":"node","station_id":"2837246579"},"geometry":{"type":"Point","coordinates":[77.31144,28.410796]}},{"type":"Feature","properties":{"osm_id":"8575372986","station_name":"Neelam Chowk Ajronda","element_type":"node","station_id":"8575372986"},"geometry":{"type":"Point","coordinates":[77.312405,28.397488]}},{"type":"Feature","properties":{"osm_id":"3284150025","station_name":"Bata Chowk","element_type":"node","station_id":"3284150025"},"geometry":{"type":"Point","coordinates":[77.313434,28.385834]}},{"type":"Feature","properties":{"osm_id":"2837246581","station_name":"Escorts Mujesar","element_type":"node","station_id":"2837246581"},"geometry":{"type":"Point","coordinates":[77.314892,28.370233]}},{"type":"Feature","properties":{"osm_id":"4335296791","station_name":"Sant Surdas (Sihi)","element_type":"node","station_id":"4335296791"},"geometry":{"type":"Point","coordinates":[77.316198,28.35465]}},{"type":"Feature","properties":{"osm_id":"4678405308","station_name":"Raja Nahar Singh","element_type":"node","station_id":"4678405308"},"geometry":{"type":"Point","coordinates":[77.316451,28.340004]}},{"type":"Feature","properties":{"osm_id":"5777614209","station_name":"Rithala","element_type":"node","station_id":"5777614209"},"geometry":{"type":"Point","coordinates":[77.107136,28.720769]}},{"type":"Feature","properties":{"osm_id":"1988598418","station_name":"Rohini West","element_type":"node","station_id":"RHW"},"geometry":{"type":"Point","coordinates":[77.115385,28.714957]}},{"type":"Feature","properties":{"osm_id":"5777614216","station_name":"Rohini East","element_type":"node","station_id":"5777614216"},"geometry":{"type":"Point","coordinates":[77.126001,28.707573]}},{"type":"Feature","properties":{"osm_id":"663765153","station_name":"Madhuban Chowk","element_type":"node","station_id":"663765153"},"geometry":{"type":"Point","coordinates":[77.131161,28.703418]}},{"type":"Feature","properties":{"osm_id":"311963955","station_name":"Kohat Enclave","element_type":"node","station_id":"311963955"},"geometry":{"type":"Point","coordinates":[77.140539,28.698042]}},{"type":"Feature","properties":{"osm_id":"663762151","station_name":"Keshav Puram","element_type":"node","station_id":"KP"},"geometry":{"type":"Point","coordinates":[77.161683,28.688926]}},{"type":"Feature","properties":{"osm_id":"663761505","station_name":"Kanhaiya Nagar","element_type":"node","station_id":"KN"},"geometry":{"type":"Point","coordinates":[77.164775,28.682408]}},{"type":"Feature","properties":{"osm_id":"663761428","station_name":"Inderlok (Red Line)","element_type":"node","station_id":"ILOK"},"geometry":{"type":"Point","coordinates":[77.169731,28.673121]}},{"type":"Feature","properties":{"osm_id":"663761411","station_name":"Shastri Nagar","element_type":"node","station_id":"SHT"},"geometry":{"type":"Point","coordinates":[77.181859,28.670089]}},{"type":"Feature","properties":{"osm_id":"268381457","station_name":"Pratap Nagar","element_type":"node","station_id":"PRA"},"geometry":{"type":"Point","coordinates":[77.198897,28.666718]}},{"type":"Feature","properties":{"osm_id":"268381463","station_name":"Pul Bangash","element_type":"node","station_id":"268381463"},"geometry":{"type":"Point","coordinates":[77.207416,28.666407]}},{"type":"Feature","properties":{"osm_id":"561316983","station_name":"Tis Hazari","element_type":"node","station_id":"561316983"},"geometry":{"type":"Point","coordinates":[77.216631,28.667163]}},{"type":"Feature","properties":{"osm_id":"5777614244","station_name":"Shastri Park","element_type":"node","station_id":"5777614244"},"geometry":{"type":"Point","coordinates":[77.250529,28.668433]}},{"type":"Feature","properties":{"osm_id":"5777614225","station_name":"Seelampur","element_type":"node","station_id":"5777614225"},"geometry":{"type":"Point","coordinates":[77.266793,28.669852]}},{"type":"Feature","properties":{"osm_id":"5777614202","station_name":"Shahdara","element_type":"node","station_id":"5777614202"},"geometry":{"type":"Point","coordinates":[77.289887,28.673429]}},{"type":"Feature","properties":{"osm_id":"663759674","station_name":"Mansarovar Park","element_type":"node","station_id":"663759674"},"geometry":{"type":"Point","coordinates":[77.300869,28.675385]}},{"type":"Feature","properties":{"osm_id":"5777614183","station_name":"Jhilmil","element_type":"node","station_id":"5777614183"},"geometry":{"type":"Point","coordinates":[77.312395,28.675721]}},{"type":"Feature","properties":{"osm_id":"5777614174","station_name":"Dilshad Garden","element_type":"node","station_id":"5777614174"},"geometry":{"type":"Point","coordinates":[77.321515,28.675855]}},{"type":"Feature","properties":{"osm_id":"9631141565","station_name":"Shaheed Nagar","element_type":"node","station_id":"9631141565"},"geometry":{"type":"Point","coordinates":[77.333916,28.676661]}},{"type":"Feature","properties":{"osm_id":"9631141566","station_name":"Raj Bagh","element_type":"node","station_id":"9631141566"},"geometry":{"type":"Point","coordinates":[77.346863,28.677089]}},{"type":"Feature","properties":{"osm_id":"9631141567","station_name":"Rajendra Nagar","element_type":"node","station_id":"9631141567"},"geometry":{"type":"Point","coordinates":[77.358141,28.677611]}},{"type":"Feature","properties":{"osm_id":"9631141568","station_name":"Shyam Park","element_type":"node","station_id":"9631141568"},"geometry":{"type":"Point","coordinates":[77.370487,28.678209]}},{"type":"Feature","properties":{"osm_id":"9631141569","station_name":"Mohan Nagar","element_type":"node","station_id":"9631141569"},"geometry":{"type":"Point","coordinates":[77.383899,28.678533]}},{"type":"Feature","properties":{"osm_id":"9631141570","station_name":"Arthala","element_type":"node","station_id":"9631141570"},"geometry":{"type":"Point","coordinates":[77.391888,28.676997]}},{"type":"Feature","properties":{"osm_id":"5777614041","station_name":"Hindon River","element_type":"node","station_id":"5777614041"},"geometry":{"type":"Point","coordinates":[77.406537,28.673428]}},{"type":"Feature","properties":{"osm_id":"9631141572","station_name":"Shaheed Sthal","element_type":"node","station_id":"9631141572"},"geometry":{"type":"Point","coordinates":[77.415381,28.670677]}},{"type":"Feature","properties":{"osm_id":"12478112132","station_name":"Krishna Park Extension","element_type":"node","station_id":"12478112132"},"geometry":{"type":"Point","coordinates":[77.084346,28.64779]}},{"type":"Feature","properties":{"osm_id":"2832938325","station_name":"Dabri Mor - Janakpuri South","element_type":"node","station_id":"DBMR"},"geometry":{"type":"Point","coordinates":[77.085203,28.615749]}},{"type":"Feature","properties":{"osm_id":"9937092486","station_name":"Dashrath Puri","element_type":"node","station_id":"DSHP"},"geometry":{"type":"Point","coordinates":[77.082382,28.601871]}},{"type":"Feature","properties":{"osm_id":"9937092487","station_name":"Palam","element_type":"node","station_id":"PALM"},"geometry":{"type":"Point","coordinates":[77.083071,28.588922]}},{"type":"Feature","properties":{"osm_id":"9937092488","station_name":"Sadar Bazar Cantonment","element_type":"node","station_id":"SABR"},"geometry":{"type":"Point","coordinates":[77.111134,28.577118]}},{"type":"Feature","properties":{"osm_id":"9937092489","station_name":"Terminal 1 IGI Airport","element_type":"node","station_id":"IGDA"},"geometry":{"type":"Point","coordinates":[77.122647,28.564864]}},{"type":"Feature","properties":{"osm_id":"9937092490","station_name":"Shankar Vihar","element_type":"node","station_id":"SKVR"},"geometry":{"type":"Point","coordinates":[77.140259,28.56085]}},{"type":"Feature","properties":{"osm_id":"9937092491","station_name":"Vasant Vihar","element_type":"node","station_id":"VTVR"},"geometry":{"type":"Point","coordinates":[77.161093,28.557831]}},{"type":"Feature","properties":{"osm_id":"6547772103","station_name":"Munirka","element_type":"node","station_id":"MIRK"},"geometry":{"type":"Point","coordinates":[77.175058,28.556898]}},{"type":"Feature","properties":{"osm_id":"6547772104","station_name":"R. K. Puram","element_type":"node","station_id":"RKPM"},"geometry":{"type":"Point","coordinates":[77.185517,28.550384]}},{"type":"Feature","properties":{"osm_id":"2832938176","station_name":"IIT Delhi","element_type":"node","station_id":"IIT"},"geometry":{"type":"Point","coordinates":[77.194523,28.547025]}},{"type":"Feature","properties":{"osm_id":"6547772105","station_name":"Panchsheel Park","element_type":"node","station_id":"PSPK"},"geometry":{"type":"Point","coordinates":[77.221094,28.542376]}},{"type":"Feature","properties":{"osm_id":"9937948269","station_name":"Chirag Delhi","element_type":"node","station_id":"CDLI"},"geometry":{"type":"Point","coordinates":[77.230294,28.541114]}},{"type":"Feature","properties":{"osm_id":"9937948268","station_name":"Greater Kailash","element_type":"node","station_id":"GKEI"},"geometry":{"type":"Point","coordinates":[77.23845,28.541896]}},{"type":"Feature","properties":{"osm_id":"2832938174","station_name":"Nehru Enclave","element_type":"node","station_id":"2832938174"},"geometry":{"type":"Point","coordinates":[77.251507,28.546058]}},{"type":"Feature","properties":{"osm_id":"9937948255","station_name":"Okhla NSIC","element_type":"node","station_id":"9937948255"},"geometry":{"type":"Point","coordinates":[77.264813,28.554468]}},{"type":"Feature","properties":{"osm_id":"6547772116","station_name":"Sukhdev Vihar","element_type":"node","station_id":"IWNR"},"geometry":{"type":"Point","coordinates":[77.27496,28.5598]}},{"type":"Feature","properties":{"osm_id":"6547772117","station_name":"Jamia Millia Islamia","element_type":"node","station_id":"JANR"},"geometry":{"type":"Point","coordinates":[77.286339,28.563051]}},{"type":"Feature","properties":{"osm_id":"6547772118","station_name":"Okhla Vihar","element_type":"node","station_id":"OVA"},"geometry":{"type":"Point","coordinates":[77.291874,28.561302]}},{"type":"Feature","properties":{"osm_id":"6547772119","station_name":"Jasola Vihar Shaheen Bagh","element_type":"node","station_id":"JLA8"},"geometry":{"type":"Point","coordinates":[77.296659,28.545829]}},{"type":"Feature","properties":{"osm_id":"6547772120","station_name":"Kalindi Kunj","element_type":"node","station_id":"KIKJ"},"geometry":{"type":"Point","coordinates":[77.310113,28.542914]}},{"type":"Feature","properties":{"osm_id":"6547772121","station_name":"Okhla Bird Sanctuary","element_type":"node","station_id":"6547772121"},"geometry":{"type":"Point","coordinates":[77.321598,28.552942]}},{"type":"Feature","properties":{"osm_id":"1886793206","station_name":"Ashok Park Main","element_type":"node","station_id":"1886793206"},"geometry":{"type":"Point","coordinates":[77.155289,28.671577]}},{"type":"Feature","properties":{"osm_id":"1665772918","station_name":"Punjabi Bagh","element_type":"node","station_id":"1665772918"},"geometry":{"type":"Point","coordinates":[77.146121,28.672956]}},{"type":"Feature","properties":{"osm_id":"600644865","station_name":"Shivaji Park","element_type":"node","station_id":"600644865"},"geometry":{"type":"Point","coordinates":[77.130462,28.67499]}},{"type":"Feature","properties":{"osm_id":"600644828","station_name":"Madipur","element_type":"node","station_id":"600644828"},"geometry":{"type":"Point","coordinates":[77.11935,28.676435]}},{"type":"Feature","properties":{"osm_id":"600645512","station_name":"Paschim Vihar East","element_type":"node","station_id":"600645512"},"geometry":{"type":"Point","coordinates":[77.112282,28.677358]}},{"type":"Feature","properties":{"osm_id":"610889203","station_name":"Paschim Vihar West","element_type":"node","station_id":"610889203"},"geometry":{"type":"Point","coordinates":[77.102215,28.678606]}},{"type":"Feature","properties":{"osm_id":"941120352","station_name":"Peeragarhi","element_type":"node","station_id":"941120352"},"geometry":{"type":"Point","coordinates":[77.092659,28.67973]}},{"type":"Feature","properties":{"osm_id":"1787431976","station_name":"Udyog Nagar","element_type":"node","station_id":"1787431976"},"geometry":{"type":"Point","coordinates":[77.080847,28.681068]}},{"type":"Feature","properties":{"osm_id":"915473442","station_name":"Surajmal Stadium","element_type":"node","station_id":"915473442"},"geometry":{"type":"Point","coordinates":[77.074002,28.681849]}},{"type":"Feature","properties":{"osm_id":"915472875","station_name":"Nangloi","element_type":"node","station_id":"915472875"},"geometry":{"type":"Point","coordinates":[77.064727,28.682364]}},{"type":"Feature","properties":{"osm_id":"915474404","station_name":"Nangloi Railway Station","element_type":"node","station_id":"915474404"},"geometry":{"type":"Point","coordinates":[77.056237,28.68216]}},{"type":"Feature","properties":{"osm_id":"915472696","station_name":"Rajdhani Park","element_type":"node","station_id":"915472696"},"geometry":{"type":"Point","coordinates":[77.043937,28.682271]}},{"type":"Feature","properties":{"osm_id":"915473851","station_name":"Mundka","element_type":"node","station_id":"MQC"},"geometry":{"type":"Point","coordinates":[77.030572,28.682371]}},{"type":"Feature","properties":{"osm_id":"5719817431","station_name":"Mundka Industrial Area","element_type":"node","station_id":"5719817431"},"geometry":{"type":"Point","coordinates":[77.017116,28.683369]}},{"type":"Feature","properties":{"osm_id":"3689250982","station_name":"Ghevra","element_type":"node","station_id":"3689250982"},"geometry":{"type":"Point","coordinates":[76.996126,28.685263]}},{"type":"Feature","properties":{"osm_id":"3689250981","station_name":"Tikri Kalan","element_type":"node","station_id":"3689250981"},"geometry":{"type":"Point","coordinates":[76.977202,28.686839]}},{"type":"Feature","properties":{"osm_id":"5066137687","station_name":"Tikri Border","element_type":"node","station_id":"5066137687"},"geometry":{"type":"Point","coordinates":[76.964072,28.687928]}},{"type":"Feature","properties":{"osm_id":"5066137686","station_name":"Pandit Shree Ram Sharma","element_type":"node","station_id":"MIEE"},"geometry":{"type":"Point","coordinates":[76.951164,28.689226]}},{"type":"Feature","properties":{"osm_id":"3689250979","station_name":"Bahadurgarh City","element_type":"node","station_id":"3689250979"},"geometry":{"type":"Point","coordinates":[76.935443,28.690688]}},{"type":"Feature","properties":{"osm_id":"3689250980","station_name":"Brigadier Hoshiyar Singh","element_type":"node","station_id":"3689250980"},"geometry":{"type":"Point","coordinates":[76.919162,28.697369]}},{"type":"Feature","properties":{"osm_id":"8064593903","station_name":"DLF Phase 2","element_type":"node","station_id":"8064593903"},"geometry":{"type":"Point","coordinates":[77.092989,28.487561]}},{"type":"Feature","properties":{"osm_id":"2533456422","station_name":"Phase 3 Station","element_type":"node","station_id":"2533456422"},"geometry":{"type":"Point","coordinates":[77.093661,28.493568]}},{"type":"Feature","properties":{"osm_id":"2533456421","station_name":"Moulsari Avenue Station","element_type":"node","station_id":"2533456421"},"geometry":{"type":"Point","coordinates":[77.094631,28.500778]}},{"type":"Feature","properties":{"osm_id":"2511127144","station_name":"Cyber City","element_type":"node","station_id":"2511127144"},"geometry":{"type":"Point","coordinates":[77.08916,28.498061]}},{"type":"Feature","properties":{"osm_id":"1988848864","station_name":"Belvedere Towers","element_type":"node","station_id":"BEL"},"geometry":{"type":"Point","coordinates":[77.088132,28.491702]}},{"type":"Feature","properties":{"osm_id":"4789904280","station_name":"DLF Phase 1","element_type":"node","station_id":"4789904280"},"geometry":{"type":"Point","coordinates":[77.093937,28.471426]}},{"type":"Feature","properties":{"osm_id":"8064593906","station_name":"Sector 42-43","element_type":"node","station_id":"8064593906"},"geometry":{"type":"Point","coordinates":[77.096929,28.457423]}},{"type":"Feature","properties":{"osm_id":"8064593908","station_name":"Sector 53-54","element_type":"node","station_id":"8064593908"},"geometry":{"type":"Point","coordinates":[77.100441,28.446379]}},{"type":"Feature","properties":{"osm_id":"8064593909","station_name":"Sector 54 Chowk","element_type":"node","station_id":"8064593909"},"geometry":{"type":"Point","coordinates":[77.10481,28.432964]}},{"type":"Feature","properties":{"osm_id":"8064593912","station_name":"Sector 55–56","element_type":"node","station_id":"8064593912"},"geometry":{"type":"Point","coordinates":[77.105089,28.423299]}},{"type":"Feature","properties":{"osm_id":"663794722","station_name":"Laxmi Nagar","element_type":"node","station_id":"663794722"},"geometry":{"type":"Point","coordinates":[77.277526,28.630594]}},{"type":"Feature","properties":{"osm_id":"663793972","station_name":"Nirman Vihar","element_type":"node","station_id":"663793972"},"geometry":{"type":"Point","coordinates":[77.286764,28.636536]}},{"type":"Feature","properties":{"osm_id":"663793549","station_name":"Preet Vihar","element_type":"node","station_id":"663793549"},"geometry":{"type":"Point","coordinates":[77.295286,28.641415]}},{"type":"Feature","properties":{"osm_id":"554257855","station_name":"Kaushambi","element_type":"node","station_id":"554257855"},"geometry":{"type":"Point","coordinates":[77.32434,28.645387]}},{"type":"Feature","properties":{"osm_id":"1924974147","station_name":"Vaishali","element_type":"node","station_id":"1924974147"},"geometry":{"type":"Point","coordinates":[77.33952,28.649744]}},{"type":"Feature","properties":{"osm_id":"9240935054","station_name":"Yashobhoomi Dwarka Sector 25","element_type":"node","station_id":"IICC"},"geometry":{"type":"Point","coordinates":[77.04531,28.55083]}},{"type":"Feature","properties":{"osm_id":"9914269805","station_name":"IGI Airport","element_type":"node","station_id":"APOT"},"geometry":{"type":"Point","coordinates":[77.086717,28.556457]}},{"type":"Feature","properties":{"osm_id":"9938725205","station_name":"Delhi Aerocity","element_type":"node","station_id":"DACY"},"geometry":{"type":"Point","coordinates":[77.120807,28.54878]}},{"type":"Feature","properties":{"osm_id":"9938725206","station_name":"Dhaula Kuan","element_type":"node","station_id":"DKV"},"geometry":{"type":"Point","coordinates":[77.161693,28.591896]}},{"type":"Feature","properties":{"osm_id":"9938725207","station_name":"Shivaji Stadium","element_type":"node","station_id":"SJSU"},"geometry":{"type":"Point","coordinates":[77.211321,28.628897]}},{"type":"Feature","properties":{"osm_id":"13628268000","station_name":"Bhalaswa","element_type":"node","station_id":"BIMR"},"geometry":{"type":"Point","coordinates":[77.168072,28.736919]}},{"type":"Feature","properties":{"osm_id":"13628472104","station_name":"Haiderpur Village","element_type":"node","station_id":"13628472104"},"geometry":{"type":"Point","coordinates":[77.142437,28.724881]}},{"type":"Feature","properties":{"osm_id":"13628472105","station_name":"North Pitampura - Prashant Vihar","element_type":"node","station_id":"13628472105"},"geometry":{"type":"Point","coordinates":[77.138672,28.713082]}},{"type":"Feature","properties":{"osm_id":"12390111350","station_name":"Deepali Chowk","element_type":"node","station_id":"12390111350"},"geometry":{"type":"Point","coordinates":[77.118278,28.698094]}},{"type":"Feature","properties":{"osm_id":"9172459623","station_name":"Dhansa Bus Stand","element_type":"node","station_id":"DNBT"},"geometry":{"type":"Point","coordinates":[76.978547,28.61191]}},{"type":"Feature","properties":{"osm_id":"9138309313","station_name":"Najafgarh","element_type":"node","station_id":"NFGH"},"geometry":{"type":"Point","coordinates":[76.986561,28.612453]}},{"type":"Feature","properties":{"osm_id":"2579368841","station_name":"Nangli","element_type":"node","station_id":"NNGI"},"geometry":{"type":"Point","coordinates":[77.010442,28.617301]}},{"type":"Feature","properties":{"osm_id":"9635301963","station_name":"Satguru Ramsingh Marg","element_type":"node","station_id":"9635301963"},"geometry":{"type":"Point","coordinates":[77.157566,28.662062]}}]}