{"type":"FeatureCollection","generator":"metroOsmFetch (OpenStreetMap / Overpass, ODbL)","features":[{"type":"Feature","properties":{"osm_id":"5737097854","station_name":"IIT Kanpur","element_type":"node","station_id":"5737097854"},"geometry":{"type":"Point","coordinates":[80.248309,26.509208]}},{"type":"Feature","properties":{"osm_id":"9378808951","station_name":"Kalyanpur","element_type":"node","station_id":"9378808951"},"geometry":{"type":"Point","coordinates":[80.252564,26.503732]}},{"type":"Feature","properties":{"osm_id":"9378808950","station_name":"SPM Hospital","element_type":"node","station_id":"9378808950"},"geometry":{"type":"Point","coordinates":[80.258899,26.498899]}},{"type":"Feature","properties":{"osm_id":"9378808946","station_name":"Vishwavidyalaya","element_type":"node","station_id":"9378808946"},"geometry":{"type":"Point","coordinates":[80.26743,26.496445]}},{"type":"Feature","properties":{"osm_id":"9378808949","station_name":"Gurudev Chauraha","element_type":"node","station_id":"9378808949"},"geometry":{"type":"Point","coordinates":[80.284372,26.491577]}},{"type":"Feature","properties":{"osm_id":"9378808945","station_name":"Geeta Nagar","element_type":"node","station_id":"9378808945"},"geometry":{"type":"Point","coordinates":[80.292144,26.486993]}},{"type":"Feature","properties":{"osm_id":"9378808953","station_name":"Rawatpur","element_type":"node","station_id":"9378808953"},"geometry":{"type":"Point","coordinates":[80.300082,26.482859]}},{"type":"Feature","properties":{"osm_id":"9378808954","station_name":"LLR Hospital","element_type":"node","station_id":"9378808954"},"geometry":{"type":"Point","coordinates":[80.311567,26.479268]}},{"type":"Feature","properties":{"osm_id":"8520450599","station_name":"Moti Jheel","element_type":"node","station_id":"8520450599"},"geometry":{"type":"Point","coordinates":[80.317894,26.479128]}},{"type":"Feature","properties":{"osm_id":"12893829430","station_name":"Chunniganj","element_type":"node","station_id":"12893829430"},"geometry":{"type":"Point","coordinates":[80.337079,26.477053]}},{"type":"Feature","properties":{"osm_id":"12893829432","station_name":"Naveen Market","element_type":"node","station_id":"12893829432"},"geometry":{"type":"Point","coordinates":[80.345448,26.474061]}},{"type":"Feature","properties":{"osm_id":"12893829441","station_name":"Bada Chauraha","element_type":"node","station_id":"12893829441"},"geometry":{"type":"Point","coordinates":[80.352406,26.472691]}},{"type":"Feature","properties":{"osm_id":"12893829459","station_name":"Nayaganj","element_type":"node","station_id":"12893829459"},"geometry":{"type":"Point","coordinates":[80.359505,26.464165]}},{"type":"Feature","properties":{"osm_id":"12893829470","station_name":"Kanpur Central","element_type":"node","station_id":"12893829470"},"geometry":{"type":"Point","coordinates":[80.351789,26.453887]}},{"type":"Feature","properties":{"route_company":"Uttar Pradesh Metro Rail Corporation","route_id":"1","element_type":"way","color":"#e6194b","route_name":"Orange Line (IIT Kanpur -> Kanpur Central)","osm_id":"13615304","railway":"subway","status":"open"},"geometry":{"type":"LineString","coordinates":[[80.248309,26.509208],[80.252564,26.503732],[80.258899,26.498899],[80.26743,26.496445],[80.284372,26.491577],[80.292144,26.486993],[80.300082,26.482859],[80.311567,26.479268],[80.317894,26.479128],[80.337079,26.477053],[80.345448,26.474061],[80.352406,26.472691],[80.359505,26.464165],[80.351789,26.453887]]}}]}