{"type":"FeatureCollection","generator":"metroOsmFetch (OpenStreetMap / Overpass, ODbL)","features":[{"type":"Feature","properties":{"route_company":"Uttar Pradesh Metro Rail Corporation","route_id":"1","element_type":"way","color":"#ff6600","route_name":"Orange Line (IIT Kanpur -> Kanpur Central)","osm_id":"13615304","railway":"subway","status":"open"},"geometry":{"type":"LineString","coordinates":[[80.248292,26.509199],[80.252547,26.503717],[80.258894,26.498884],[80.267427,26.496429],[80.284366,26.491562],[80.292134,26.48698],[80.300074,26.482845],[80.311565,26.479252],[80.317893,26.479112],[80.337049,26.477004],[80.345438,26.473997],[80.352395,26.472671],[80.359464,26.46417],[80.351781,26.453911]]}},{"type":"Feature","properties":{"osm_id":"5737097854","station_name":"IIT Kanpur","element_type":"node","station_id":"5737097854"},"geometry":{"type":"Point","coordinates":[80.248292,26.509199]}},{"type":"Feature","properties":{"osm_id":"9378808951","station_name":"Kalyanpur","element_type":"node","station_id":"9378808951"},"geometry":{"type":"Point","coordinates":[80.252547,26.503717]}},{"type":"Feature","properties":{"osm_id":"9378808950","station_name":"SPM Hospital","element_type":"node","station_id":"9378808950"},"geometry":{"type":"Point","coordinates":[80.258894,26.498884]}},{"type":"Feature","properties":{"osm_id":"9378808946","station_name":"Vishwavidyalaya","element_type":"node","station_id":"9378808946"},"geometry":{"type":"Point","coordinates":[80.267427,26.496429]}},{"type":"Feature","properties":{"osm_id":"9378808949","station_name":"Gurudev Chauraha","element_type":"node","station_id":"9378808949"},"geometry":{"type":"Point","coordinates":[80.284366,26.491562]}},{"type":"Feature","properties":{"osm_id":"9378808945","station_name":"Geeta Nagar","element_type":"node","station_id":"9378808945"},"geometry":{"type":"Point","coordinates":[80.292134,26.48698]}},{"type":"Feature","properties":{"osm_id":"9378808953","station_name":"Rawatpur","element_type":"node","station_id":"9378808953"},"geometry":{"type":"Point","coordinates":[80.300074,26.482845]}},{"type":"Feature","properties":{"osm_id":"9378808954","station_name":"LLR Hospital","element_type":"node","station_id":"9378808954"},"geometry":{"type":"Point","coordinates":[80.311565,26.479252]}},{"type":"Feature","properties":{"osm_id":"8520450599","station_name":"Moti Jheel","element_type":"node","station_id":"8520450599"},"geometry":{"type":"Point","coordinates":[80.317893,26.479112]}},{"type":"Feature","properties":{"osm_id":"12893829430","station_name":"Chunniganj","element_type":"node","station_id":"12893829430"},"geometry":{"type":"Point","coordinates":[80.337049,26.477004]}},{"type":"Feature","properties":{"osm_id":"12893829432","station_name":"Naveen Market","element_type":"node","station_id":"12893829432"},"geometry":{"type":"Point","coordinates":[80.345438,26.473997]}},{"type":"Feature","properties":{"osm_id":"12893829441","station_name":"Bada Chauraha","element_type":"node","station_id":"12893829441"},"geometry":{"type":"Point","coordinates":[80.352395,26.472671]}},{"type":"Feature","properties":{"osm_id":"12893829459","station_name":"Nayaganj","element_type":"node","station_id":"12893829459"},"geometry":{"type":"Point","coordinates":[80.359464,26.46417]}},{"type":"Feature","properties":{"osm_id":"12893829470","station_name":"Kanpur Central","element_type":"node","station_id":"12893829470"},"geometry":{"type":"Point","coordinates":[80.351781,26.453911]}}]}