{"type":"FeatureCollection","generator":"metroOsmFetch (OpenStreetMap / Overpass, ODbL)","features":[{"type":"Feature","properties":{"route_company":"National Capital Region Transport Corporation","route_id":"Delhi–Meerut RapidX","element_type":"way","color":"#f0631e","route_name":"Delhi–Meerut RRTS (Sarai Kale Khan → Modipuram)","osm_id":"17337287","railway":"subway","status":"open"},"geometry":{"type":"LineString","coordinates":[[77.258102,28.589201],[77.302453,28.591303],[77.316714,28.647489],[77.368172,28.667673],[77.41372,28.672575],[77.445733,28.699558],[77.471436,28.72699],[77.510684,28.770375],[77.556726,28.817744],[77.58318,28.8435],[77.63274,28.904654],[77.673809,28.947801],[77.705578,28.996738],[77.70886,29.072325]]}},{"type":"Feature","properties":{"route_company":"NCRTC","route_id":"1","element_type":"way","color":"#d8514d","route_name":"Line 1 (Meerut South → Modipuram)","osm_id":"16661918","railway":"subway","status":"open"},"geometry":{"type":"LineString","coordinates":[[77.63274,28.904654],[77.650535,28.922068],[77.660515,28.932109],[77.673809,28.947801],[77.68474,28.960328],[77.690577,28.972887],[77.700302,28.988106],[77.705578,28.996738],[77.704548,29.015973],[77.706785,29.040741],[77.707994,29.053352],[77.70886,29.072325]]}},{"type":"Feature","properties":{"osm_id":"13604911524","station_name":"Sarai Kale Khan","element_type":"node","station_id":"Z00"},"geometry":{"type":"Point","coordinates":[77.258102,28.589201]}},{"type":"Feature","properties":{"osm_id":"12478188645","station_name":"New Ashok Nagar","element_type":"node","station_id":"A01"},"geometry":{"type":"Point","coordinates":[77.302453,28.591303]}},{"type":"Feature","properties":{"osm_id":"12478188649","station_name":"Anand Vihar","element_type":"node","station_id":"A02"},"geometry":{"type":"Point","coordinates":[77.316714,28.647489]}},{"type":"Feature","properties":{"osm_id":"11278972691","station_name":"Sahibabad","element_type":"node","station_id":"A03"},"geometry":{"type":"Point","coordinates":[77.368172,28.667673]}},{"type":"Feature","properties":{"osm_id":"11278972683","station_name":"Ghaziabad","element_type":"node","station_id":"A04"},"geometry":{"type":"Point","coordinates":[77.41372,28.672575]}},{"type":"Feature","properties":{"osm_id":"10700089581","station_name":"Guldhar","element_type":"node","station_id":"A05"},"geometry":{"type":"Point","coordinates":[77.445733,28.699558]}},{"type":"Feature","properties":{"osm_id":"11279794833","station_name":"Duhai","element_type":"node","station_id":"A06"},"geometry":{"type":"Point","coordinates":[77.471436,28.72699]}},{"type":"Feature","properties":{"osm_id":"11724181248","station_name":"Murad Nagar","element_type":"node","station_id":"A07"},"geometry":{"type":"Point","coordinates":[77.510684,28.770375]}},{"type":"Feature","properties":{"osm_id":"11724181246","station_name":"Modinagar South","element_type":"node","station_id":"A08"},"geometry":{"type":"Point","coordinates":[77.556726,28.817744]}},{"type":"Feature","properties":{"osm_id":"10654564201","station_name":"Modinagar North","element_type":"node","station_id":"A09"},"geometry":{"type":"Point","coordinates":[77.58318,28.8435]}},{"type":"Feature","properties":{"osm_id":"12197172515","station_name":"Meerut South","element_type":"node","station_id":"12197172515"},"geometry":{"type":"Point","coordinates":[77.63274,28.904654]}},{"type":"Feature","properties":{"osm_id":"13604911522","station_name":"Shatabdi Nagar","element_type":"node","station_id":"13604911522"},"geometry":{"type":"Point","coordinates":[77.673809,28.947801]}},{"type":"Feature","properties":{"osm_id":"13604911520","station_name":"Begumpul","element_type":"node","station_id":"A17"},"geometry":{"type":"Point","coordinates":[77.705578,28.996738]}},{"type":"Feature","properties":{"osm_id":"13604911518","station_name":"Modipuram","element_type":"node","station_id":"A21"},"geometry":{"type":"Point","coordinates":[77.70886,29.072325]}},{"type":"Feature","properties":{"osm_id":"13664678200","station_name":"Partapur","element_type":"node","station_id":"13664678200"},"geometry":{"type":"Point","coordinates":[77.650535,28.922068]}},{"type":"Feature","properties":{"osm_id":"13605017477","station_name":"Rithani","element_type":"node","station_id":"13605017477"},"geometry":{"type":"Point","coordinates":[77.660515,28.932109]}},{"type":"Feature","properties":{"osm_id":"13605017476","station_name":"Brahmapuri","element_type":"node","station_id":"A14"},"geometry":{"type":"Point","coordinates":[77.68474,28.960328]}},{"type":"Feature","properties":{"osm_id":"13605017473","station_name":"Meerut Central","element_type":"node","station_id":"A15"},"geometry":{"type":"Point","coordinates":[77.690577,28.972887]}},{"type":"Feature","properties":{"osm_id":"13605017472","station_name":"Bhainsali","element_type":"node","station_id":"A16"},"geometry":{"type":"Point","coordinates":[77.700302,28.988106]}},{"type":"Feature","properties":{"osm_id":"13664714381","station_name":"MES Colony","element_type":"node","station_id":"13664714381"},"geometry":{"type":"Point","coordinates":[77.704548,29.015973]}},{"type":"Feature","properties":{"osm_id":"13605017468","station_name":"Daurli","element_type":"node","station_id":"13605017468"},"geometry":{"type":"Point","coordinates":[77.706785,29.040741]}},{"type":"Feature","properties":{"osm_id":"13605017466","station_name":"Meerut North","element_type":"node","station_id":"13605017466"},"geometry":{"type":"Point","coordinates":[77.707994,29.053352]}},{"type":"Feature","properties":{"route_company":"","route_id":"851795116","element_type":"way","color":"#4363d8","route_name":"Line-2: Shradhapuri Phase II to Jagriti Vihar (15 km)","osm_id":"851795116","railway":"subway","status":"proposed"},"geometry":{"type":"LineString","coordinates":[[77.674304,29.032999],[77.688448,29.023016],[77.687672,29.015948],[77.689283,29.014251],[77.691231,29.008906],[77.695627,29.007087],[77.700784,29.0018],[77.705398,28.995208],[77.706464,28.984143],[77.71116,28.979163],[77.713761,28.973626],[77.745314,28.961775],[77.752206,28.95755],[77.770339,28.943519]]}}]}