{"type":"FeatureCollection","generator":"metroOsmFetch (OpenStreetMap / Overpass, ODbL)","features":[{"type":"Feature","properties":{"route_company":"MMMOCL","route_id":"4","element_type":"way","color":"#4363d8","route_name":"Green Line (u/c)","osm_id":"7898732","railway":"subway","status":"open"},"geometry":{"type":"LineString","coordinates":[[72.946808,19.284435],[72.958227,19.276747],[72.966646,19.267429],[72.970134,19.258726],[72.973262,19.25059],[72.97561,19.23836],[72.976684,19.230762],[72.977425,19.224143],[72.97577,19.211558],[72.970449,19.206418],[72.965064,19.201254],[72.962751,19.192518],[72.961578,19.187067],[72.95084,19.183419],[72.942557,19.175677],[72.93843,19.1662],[72.937517,19.153753],[72.936059,19.146087],[72.930774,19.138742],[72.92772,19.132887],[72.925252,19.125391],[72.926084,19.117657],[72.924577,19.109005],[72.920355,19.102908],[72.916204,19.097632],[72.91844,19.088981],[72.912686,19.082177],[72.902318,19.072575],[72.899998,19.067405],[72.887519,19.056617],[72.883622,19.053859],[72.878634,19.045827],[72.880259,19.038067],[72.961578,19.187067]]}},{"type":"Feature","properties":{"route_company":"Mumbai Metro Rail Corporation Ltd.","route_id":"3","element_type":"way","color":"#3cb44b","route_name":"Line 3 (Aarey JVLR → Cuffe Parade)","osm_id":"7898597","railway":"subway","status":"open"},"geometry":{"type":"LineString","coordinates":[[72.884197,19.131046],[72.87327,19.12529],[72.874205,19.117287],[72.879402,19.108111],[72.873666,19.102157],[72.864712,19.102056],[72.853081,19.09362],[72.847139,19.078738],[72.84984,19.069313],[72.854963,19.060234],[72.849423,19.046152],[72.842042,19.03832],[72.839047,19.023353],[72.830562,19.015959],[72.819294,19.008596],[72.81774,18.997826],[72.821376,18.990901],[72.825422,18.979448],[72.821203,18.96998],[72.818068,18.96321],[72.822235,18.952126],[72.827205,18.946346],[72.8319,18.940873],[72.832512,18.934178],[72.826962,18.931482],[72.82555,18.924809],[72.820749,18.913543]]}},{"type":"Feature","properties":{"route_company":"MMMOCL","route_id":"5","element_type":"way","color":"#f58231","route_name":"Orange Line","osm_id":"12608512","railway":"subway","status":"construction"},"geometry":{"type":"LineString","coordinates":[[72.977094,19.227844],[72.978393,19.218024],[72.98186,19.217853],[72.989351,19.221244],[73.015555,19.236757],[73.017855,19.245607],[73.018169,19.251333],[73.022012,19.253101],[73.061751,19.294999],[73.064892,19.293946],[73.087406,19.263872],[73.099165,19.252447],[73.109524,19.246167],[73.11499,19.24556],[73.125697,19.246319],[73.129494,19.243491],[73.128975,19.239654],[73.122382,19.235146]]}},{"type":"Feature","properties":{"route_company":"MMRDA","route_id":"7","element_type":"way","color":"#1ca8c9","route_name":"Line 7 (Gundavali → Dahisar (East))","osm_id":"13989914","railway":"subway","status":"open"},"geometry":{"type":"LineString","coordinates":[[72.85608,19.115037],[72.855465,19.128448],[72.855207,19.142934],[72.856622,19.152412],[72.858837,19.169533],[72.858321,19.179757],[72.85854,19.187101],[72.860647,19.198314],[72.863339,19.203758],[72.866797,19.217126],[72.864227,19.224342],[72.863159,19.234616],[72.864196,19.24294],[72.86714,19.251043]]}},{"type":"Feature","properties":{"route_company":"MMRDA","route_id":"1","element_type":"way","color":"#e6194b","route_name":"Line 1 (Versova → Ghatkopar)","osm_id":"3808111","railway":"subway","status":"open"},"geometry":{"type":"LineString","coordinates":[[72.821387,19.130278],[72.83112,19.128679],[72.838267,19.126806],[72.849482,19.120042],[72.85608,19.115037],[72.868242,19.111907],[72.874797,19.109915],[72.879402,19.108111],[72.888509,19.103217],[72.895413,19.096097],[72.9026,19.092171],[72.908123,19.086286]]}},{"type":"Feature","properties":{"route_company":"MMRC","route_id":"19233909","element_type":"way","color":"#f032e6","route_name":"Mumbai Metro Line 11","osm_id":"19233909","railway":"subway","status":"open"},"geometry":{"type":"LineString","coordinates":[[72.832512,18.934178],[72.835786,18.940493],[72.832794,18.976622],[72.844101,18.977551],[72.854422,18.99878],[72.86695,19.030181],[72.874025,19.038824],[72.878634,19.045827]]}},{"type":"Feature","properties":{"route_company":"MMRDA","route_id":"9","element_type":"way","color":"#469990","route_name":"Line 9 (Kashigaon → Dahisar (East))","osm_id":"20403864","railway":"subway","status":"open"},"geometry":{"type":"LineString","coordinates":[[72.880273,19.277686],[72.880685,19.270981],[72.872653,19.260083],[72.86714,19.251043]]}},{"type":"Feature","properties":{"osm_id":"8462729069","station_name":"Gaimukh Station","element_type":"node","station_id":"8462729069"},"geometry":{"type":"Point","coordinates":[72.946808,19.284435]}},{"type":"Feature","properties":{"osm_id":"8462729070","station_name":"Gowniwada Station","element_type":"node","station_id":"8462729070"},"geometry":{"type":"Point","coordinates":[72.958227,19.276747]}},{"type":"Feature","properties":{"osm_id":"5225899082","station_name":"Kasarvadavli Station","element_type":"node","station_id":"5225899082"},"geometry":{"type":"Point","coordinates":[72.966646,19.267429]}},{"type":"Feature","properties":{"osm_id":"5225899089","station_name":"Vijay Garden Station","element_type":"node","station_id":"5225899089"},"geometry":{"type":"Point","coordinates":[72.970134,19.258726]}},{"type":"Feature","properties":{"osm_id":"8462729071","station_name":"Dongripada Station","element_type":"node","station_id":"8462729071"},"geometry":{"type":"Point","coordinates":[72.973262,19.25059]}},{"type":"Feature","properties":{"osm_id":"5225899099","station_name":"Tikujiniwadi Station","element_type":"node","station_id":"5225899099"},"geometry":{"type":"Point","coordinates":[72.97561,19.23836]}},{"type":"Feature","properties":{"osm_id":"8462729072","station_name":"Manpada Station","element_type":"node","station_id":"8462729072"},"geometry":{"type":"Point","coordinates":[72.976684,19.230762]}},{"type":"Feature","properties":{"osm_id":"8342841400","station_name":"Kapurbawdi Station","element_type":"node","station_id":"8342841400"},"geometry":{"type":"Point","coordinates":[72.977425,19.224143]}},{"type":"Feature","properties":{"osm_id":"5225899110","station_name":"Majiwada Station","element_type":"node","station_id":"5225899110"},"geometry":{"type":"Point","coordinates":[72.97577,19.211558]}},{"type":"Feature","properties":{"osm_id":"9121318238","station_name":"Cadbury Junction Station","element_type":"node","station_id":"9121318238"},"geometry":{"type":"Point","coordinates":[72.970449,19.206418]}},{"type":"Feature","properties":{"osm_id":"9121318237","station_name":"Mahapalika Bhavan Marg Station","element_type":"node","station_id":"9121318237"},"geometry":{"type":"Point","coordinates":[72.965064,19.201254]}},{"type":"Feature","properties":{"osm_id":"9126268648","station_name":"RTO Thane Station","element_type":"node","station_id":"9126268648"},"geometry":{"type":"Point","coordinates":[72.962751,19.192518]}},{"type":"Feature","properties":{"osm_id":"9126268647","station_name":"Teen Hath Naka Station","element_type":"node","station_id":"9126268647"},"geometry":{"type":"Point","coordinates":[72.961578,19.187067]}},{"type":"Feature","properties":{"osm_id":"5225899340","station_name":"Mulund Check Naka Station","element_type":"node","station_id":"5225899340"},"geometry":{"type":"Point","coordinates":[72.95084,19.183419]}},{"type":"Feature","properties":{"osm_id":"9126268646","station_name":"Mulund Fire Station","element_type":"node","station_id":"9126268646"},"geometry":{"type":"Point","coordinates":[72.942557,19.175677]}},{"type":"Feature","properties":{"osm_id":"9126268645","station_name":"Sonapur Station","element_type":"node","station_id":"9126268645"},"geometry":{"type":"Point","coordinates":[72.93843,19.1662]}},{"type":"Feature","properties":{"osm_id":"9126268644","station_name":"Shangrila Station","element_type":"node","station_id":"9126268644"},"geometry":{"type":"Point","coordinates":[72.937517,19.153753]}},{"type":"Feature","properties":{"osm_id":"6038193885","station_name":"Bhandup Station (W)","element_type":"node","station_id":"6038193885"},"geometry":{"type":"Point","coordinates":[72.936059,19.146087]}},{"type":"Feature","properties":{"osm_id":"5225899378","station_name":"Bhandup Mahapalika Station","element_type":"node","station_id":"5225899378"},"geometry":{"type":"Point","coordinates":[72.930774,19.138742]}},{"type":"Feature","properties":{"osm_id":"5225899381","station_name":"Naval Housing Station","element_type":"node","station_id":"5225899381"},"geometry":{"type":"Point","coordinates":[72.92772,19.132887]}},{"type":"Feature","properties":{"osm_id":"5225899386","station_name":"Kanjurmarg Station","element_type":"node","station_id":"5225899386"},"geometry":{"type":"Point","coordinates":[72.925252,19.125391]}},{"type":"Feature","properties":{"osm_id":"5225899391","station_name":"Surya Nagar Station","element_type":"node","station_id":"5225899391"},"geometry":{"type":"Point","coordinates":[72.926084,19.117657]}},{"type":"Feature","properties":{"osm_id":"5225899397","station_name":"Vikhroli Station","element_type":"node","station_id":"5225899397"},"geometry":{"type":"Point","coordinates":[72.924577,19.109005]}},{"type":"Feature","properties":{"osm_id":"5225899401","station_name":"Godrej Colony Station","element_type":"node","station_id":"5225899401"},"geometry":{"type":"Point","coordinates":[72.920355,19.102908]}},{"type":"Feature","properties":{"osm_id":"5225899404","station_name":"Shreyas Cinema Station","element_type":"node","station_id":"5225899404"},"geometry":{"type":"Point","coordinates":[72.916204,19.097632]}},{"type":"Feature","properties":{"osm_id":"9132436411","station_name":"Lakshmi Nagar Station","element_type":"node","station_id":"9132436411"},"geometry":{"type":"Point","coordinates":[72.91844,19.088981]}},{"type":"Feature","properties":{"osm_id":"9132436362","station_name":"Pant Nagar Station","element_type":"node","station_id":"9132436362"},"geometry":{"type":"Point","coordinates":[72.912686,19.082177]}},{"type":"Feature","properties":{"osm_id":"9132436363","station_name":"Garodia Nagar Station","element_type":"node","station_id":"9132436363"},"geometry":{"type":"Point","coordinates":[72.902318,19.072575]}},{"type":"Feature","properties":{"osm_id":"9132436365","station_name":"Amar Mahal Junction Station","element_type":"node","station_id":"9132436365"},"geometry":{"type":"Point","coordinates":[72.899998,19.067405]}},{"type":"Feature","properties":{"osm_id":"9132436366","station_name":"Siddhartha Colony EEH Station","element_type":"node","station_id":"9132436366"},"geometry":{"type":"Point","coordinates":[72.887519,19.056617]}},{"type":"Feature","properties":{"osm_id":"5225899453","station_name":"Suman Nagar Station","element_type":"node","station_id":"5225899453"},"geometry":{"type":"Point","coordinates":[72.883622,19.053859]}},{"type":"Feature","properties":{"osm_id":"9132436368","station_name":"Anik Nagar Bus Depot Station","element_type":"node","station_id":"9132436368"},"geometry":{"type":"Point","coordinates":[72.878634,19.045827]}},{"type":"Feature","properties":{"osm_id":"9132436369","station_name":"Wadala TT Station","element_type":"node","station_id":"9132436369"},"geometry":{"type":"Point","coordinates":[72.880259,19.038067]}},{"type":"Feature","properties":{"osm_id":"12074903239","station_name":"Aarey JVLR","element_type":"node","station_id":"12074903239"},"geometry":{"type":"Point","coordinates":[72.884197,19.131046]}},{"type":"Feature","properties":{"osm_id":"12074903238","station_name":"SEEPZ","element_type":"node","station_id":"12074903238"},"geometry":{"type":"Point","coordinates":[72.87327,19.12529]}},{"type":"Feature","properties":{"osm_id":"12074903236","station_name":"MIDC - Andheri","element_type":"node","station_id":"12074903236"},"geometry":{"type":"Point","coordinates":[72.874205,19.117287]}},{"type":"Feature","properties":{"osm_id":"12074903233","station_name":"Marol Naka (Line 3)","element_type":"node","station_id":"12074903233"},"geometry":{"type":"Point","coordinates":[72.879402,19.108111]}},{"type":"Feature","properties":{"osm_id":"12074903232","station_name":"CSMIA International T2","element_type":"node","station_id":"12074903232"},"geometry":{"type":"Point","coordinates":[72.873666,19.102157]}},{"type":"Feature","properties":{"osm_id":"12074903230","station_name":"Sahar Road","element_type":"node","station_id":"12074903230"},"geometry":{"type":"Point","coordinates":[72.864712,19.102056]}},{"type":"Feature","properties":{"osm_id":"12074903228","station_name":"CSMIA Domestic","element_type":"node","station_id":"12074903228"},"geometry":{"type":"Point","coordinates":[72.853081,19.09362]}},{"type":"Feature","properties":{"osm_id":"12074903226","station_name":"Santacruz","element_type":"node","station_id":"12074903226"},"geometry":{"type":"Point","coordinates":[72.847139,19.078738]}},{"type":"Feature","properties":{"osm_id":"12074903224","station_name":"Bandra Colony","element_type":"node","station_id":"12074903224"},"geometry":{"type":"Point","coordinates":[72.84984,19.069313]}},{"type":"Feature","properties":{"osm_id":"12074903222","station_name":"Bandra Kurla Complex (BKC)","element_type":"node","station_id":"12074903222"},"geometry":{"type":"Point","coordinates":[72.854963,19.060234]}},{"type":"Feature","properties":{"osm_id":"5221297188","station_name":"Dharavi","element_type":"node","station_id":"5221297188"},"geometry":{"type":"Point","coordinates":[72.849423,19.046152]}},{"type":"Feature","properties":{"osm_id":"5221297196","station_name":"Shitala Devi Mandir","element_type":"node","station_id":"5221297196"},"geometry":{"type":"Point","coordinates":[72.842042,19.03832]}},{"type":"Feature","properties":{"osm_id":"5221297205","station_name":"Dadar","element_type":"node","station_id":"5221297205"},"geometry":{"type":"Point","coordinates":[72.839047,19.023353]}},{"type":"Feature","properties":{"osm_id":"5221295394","station_name":"Siddhivinayak Temple","element_type":"node","station_id":"5221295394"},"geometry":{"type":"Point","coordinates":[72.830562,19.015959]}},{"type":"Feature","properties":{"osm_id":"5221295399","station_name":"Worli","element_type":"node","station_id":"5221295399"},"geometry":{"type":"Point","coordinates":[72.819294,19.008596]}},{"type":"Feature","properties":{"osm_id":"5221297425","station_name":"Acharya Atre Chowk","element_type":"node","station_id":"5221297425"},"geometry":{"type":"Point","coordinates":[72.81774,18.997826]}},{"type":"Feature","properties":{"osm_id":"5221297427","station_name":"Science Museum","element_type":"node","station_id":"5221297427"},"geometry":{"type":"Point","coordinates":[72.821376,18.990901]}},{"type":"Feature","properties":{"osm_id":"5221297435","station_name":"Mahalaxmi","element_type":"node","station_id":"5221297435"},"geometry":{"type":"Point","coordinates":[72.825422,18.979448]}},{"type":"Feature","properties":{"osm_id":"5221297443","station_name":"Jagannath Shankar Sheth Metro","element_type":"node","station_id":"5221297443"},"geometry":{"type":"Point","coordinates":[72.821203,18.96998]}},{"type":"Feature","properties":{"osm_id":"5221297448","station_name":"Grant Road","element_type":"node","station_id":"5221297448"},"geometry":{"type":"Point","coordinates":[72.818068,18.96321]}},{"type":"Feature","properties":{"osm_id":"5221295402","station_name":"Girgaon","element_type":"node","station_id":"5221295402"},"geometry":{"type":"Point","coordinates":[72.822235,18.952126]}},{"type":"Feature","properties":{"osm_id":"5221297463","station_name":"Kalbadevi","element_type":"node","station_id":"5221297463"},"geometry":{"type":"Point","coordinates":[72.827205,18.946346]}},{"type":"Feature","properties":{"osm_id":"13207029321","station_name":"Chhatrapati Shivaji Maharaj Terminus","element_type":"node","station_id":"13207029321"},"geometry":{"type":"Point","coordinates":[72.8319,18.940873]}},{"type":"Feature","properties":{"osm_id":"5221295404","station_name":"Hutatma Chowk","element_type":"node","station_id":"5221295404"},"geometry":{"type":"Point","coordinates":[72.832512,18.934178]}},{"type":"Feature","properties":{"osm_id":"5221297484","station_name":"Churchgate","element_type":"node","station_id":"5221297484"},"geometry":{"type":"Point","coordinates":[72.826962,18.931482]}},{"type":"Feature","properties":{"osm_id":"5221297488","station_name":"Vidhan Bhavan","element_type":"node","station_id":"5221297488"},"geometry":{"type":"Point","coordinates":[72.82555,18.924809]}},{"type":"Feature","properties":{"osm_id":"5221297495","station_name":"Cuffe Parade","element_type":"node","station_id":"5221297495"},"geometry":{"type":"Point","coordinates":[72.820749,18.913543]}},{"type":"Feature","properties":{"osm_id":"5219622852","station_name":"Andheri (West)","element_type":"node","station_id":"5219622852"},"geometry":{"type":"Point","coordinates":[72.83112,19.128679]}},{"type":"Feature","properties":{"osm_id":"5220954732","station_name":"Dahisar (East) [Line 2]","element_type":"node","station_id":"5220954732"},"geometry":{"type":"Point","coordinates":[72.86714,19.251043]}},{"type":"Feature","properties":{"osm_id":"5220954818","station_name":"Gundavali","element_type":"node","station_id":"5220954818"},"geometry":{"type":"Point","coordinates":[72.85608,19.115037]}},{"type":"Feature","properties":{"osm_id":"5220954744","station_name":"Mogra","element_type":"node","station_id":"5220954744"},"geometry":{"type":"Point","coordinates":[72.855465,19.128448]}},{"type":"Feature","properties":{"osm_id":"5220954743","station_name":"Jogeshwari (East)","element_type":"node","station_id":"5220954743"},"geometry":{"type":"Point","coordinates":[72.855207,19.142934]}},{"type":"Feature","properties":{"osm_id":"5220954742","station_name":"Goregaon (East)","element_type":"node","station_id":"5220954742"},"geometry":{"type":"Point","coordinates":[72.856622,19.152412]}},{"type":"Feature","properties":{"osm_id":"5220954741","station_name":"Aarey","element_type":"node","station_id":"5220954741"},"geometry":{"type":"Point","coordinates":[72.858837,19.169533]}},{"type":"Feature","properties":{"osm_id":"5220954738","station_name":"Dindoshi","element_type":"node","station_id":"5220954738"},"geometry":{"type":"Point","coordinates":[72.858321,19.179757]}},{"type":"Feature","properties":{"osm_id":"9130397819","station_name":"Kurar","element_type":"node","station_id":"9130397819"},"geometry":{"type":"Point","coordinates":[72.85854,19.187101]}},{"type":"Feature","properties":{"osm_id":"9130397818","station_name":"Akurli","element_type":"node","station_id":"9130397818"},"geometry":{"type":"Point","coordinates":[72.860647,19.198314]}},{"type":"Feature","properties":{"osm_id":"9130397817","station_name":"Mahindra & Mahindra","element_type":"node","station_id":"9130397817"},"geometry":{"type":"Point","coordinates":[72.863339,19.203758]}},{"type":"Feature","properties":{"osm_id":"5220954766","station_name":"Magathane","element_type":"node","station_id":"5220954766"},"geometry":{"type":"Point","coordinates":[72.866797,19.217126]}},{"type":"Feature","properties":{"osm_id":"5220954735","station_name":"Devipada","element_type":"node","station_id":"5220954735"},"geometry":{"type":"Point","coordinates":[72.864227,19.224342]}},{"type":"Feature","properties":{"osm_id":"5220954734","station_name":"Rashtriya Udyan","element_type":"node","station_id":"5220954734"},"geometry":{"type":"Point","coordinates":[72.863159,19.234616]}},{"type":"Feature","properties":{"osm_id":"5220954733","station_name":"Ovaripada","element_type":"node","station_id":"5220954733"},"geometry":{"type":"Point","coordinates":[72.864196,19.24294]}},{"type":"Feature","properties":{"osm_id":"623881991","station_name":"Versova","element_type":"node","station_id":"623881991"},"geometry":{"type":"Point","coordinates":[72.821387,19.130278]}},{"type":"Feature","properties":{"osm_id":"3389150482","station_name":"Azad Nagar","element_type":"node","station_id":"3389150482"},"geometry":{"type":"Point","coordinates":[72.838267,19.126806]}},{"type":"Feature","properties":{"osm_id":"3389150481","station_name":"Andheri","element_type":"node","station_id":"3389150481"},"geometry":{"type":"Point","coordinates":[72.849482,19.120042]}},{"type":"Feature","properties":{"osm_id":"3389210700","station_name":"Chakala - J.B. Nagar","element_type":"node","station_id":"3389210700"},"geometry":{"type":"Point","coordinates":[72.868242,19.111907]}},{"type":"Feature","properties":{"osm_id":"3175794769","station_name":"Airport Road","element_type":"node","station_id":"3175794769"},"geometry":{"type":"Point","coordinates":[72.874797,19.109915]}},{"type":"Feature","properties":{"osm_id":"3389210701","station_name":"Saki Naka","element_type":"node","station_id":"3389210701"},"geometry":{"type":"Point","coordinates":[72.888509,19.103217]}},{"type":"Feature","properties":{"osm_id":"3389249957","station_name":"Asalpha","element_type":"node","station_id":"3389249957"},"geometry":{"type":"Point","coordinates":[72.895413,19.096097]}},{"type":"Feature","properties":{"osm_id":"3175794773","station_name":"Jagruti Nagar","element_type":"node","station_id":"3175794773"},"geometry":{"type":"Point","coordinates":[72.9026,19.092171]}},{"type":"Feature","properties":{"osm_id":"3175794772","station_name":"Ghatkopar","element_type":"node","station_id":"3175794772"},"geometry":{"type":"Point","coordinates":[72.908123,19.086286]}},{"type":"Feature","properties":{"osm_id":"12176277888","station_name":"Mumbai CSMT","element_type":"node","station_id":"CSMT"},"geometry":{"type":"Point","coordinates":[72.835786,18.940493]}},{"type":"Feature","properties":{"osm_id":"2630075001","station_name":"Byculla","element_type":"node","station_id":"BY"},"geometry":{"type":"Point","coordinates":[72.832794,18.976622]}},{"type":"Feature","properties":{"osm_id":"2443096202","station_name":"Reay Road","element_type":"node","station_id":"RRD"},"geometry":{"type":"Point","coordinates":[72.844101,18.977551]}},{"type":"Feature","properties":{"osm_id":"700886180","station_name":"Sewri","element_type":"node","station_id":"SVE"},"geometry":{"type":"Point","coordinates":[72.854422,18.99878]}},{"type":"Feature","properties":{"osm_id":"13284781018","station_name":"Antop Hill","element_type":"node","station_id":"13284781018"},"geometry":{"type":"Point","coordinates":[72.86695,19.030181]}},{"type":"Feature","properties":{"osm_id":"632342238","station_name":"Wadala Depot","element_type":"node","station_id":"632342238"},"geometry":{"type":"Point","coordinates":[72.874025,19.038824]}},{"type":"Feature","properties":{"osm_id":"10299481782","station_name":"Kashigaon","element_type":"node","station_id":"10299481782"},"geometry":{"type":"Point","coordinates":[72.880273,19.277686]}},{"type":"Feature","properties":{"osm_id":"10299466195","station_name":"Miragaon","element_type":"node","station_id":"10299466195"},"geometry":{"type":"Point","coordinates":[72.880685,19.270981]}},{"type":"Feature","properties":{"osm_id":"10299481388","station_name":"Pandurang Wadi","element_type":"node","station_id":"10299481388"},"geometry":{"type":"Point","coordinates":[72.872653,19.260083]}},{"type":"Feature","properties":{"route_company":"","route_id":"540125933","element_type":"way","color":"#000075","route_name":"Line 4","osm_id":"540125933","railway":"subway","status":"construction"},"geometry":{"type":"LineString","coordinates":[[72.877249,19.025358],[72.880434,19.036838],[72.878169,19.047798],[72.881936,19.052889],[72.898642,19.064599],[72.903061,19.073946],[72.907838,19.0752],[72.911393,19.080734],[72.917976,19.08765],[72.918583,19.0911],[72.915617,19.096739],[72.925979,19.111766],[72.925397,19.128457],[72.931877,19.141228],[72.93798,19.148708],[72.937794,19.164722],[72.941762,19.174523],[72.948027,19.183025],[72.952975,19.183796],[72.963144,19.188117],[72.962289,19.19648],[72.962968,19.19899],[72.977211,19.213308],[72.977998,19.217346],[72.975457,19.239785],[72.975512,19.246924],[72.972675,19.251739],[72.96618,19.268451],[72.964449,19.271259],[72.960371,19.27442]]}},{"type":"Feature","properties":{"route_company":"","route_id":"990567493","element_type":"way","color":"#808000","route_name":"Dahisar (W) to Mandale Metro (Line-2)","osm_id":"990567493","railway":"subway","status":"construction"},"geometry":{"type":"LineString","coordinates":[[72.830105,19.122009],[72.82996,19.116369],[72.834819,19.115681],[72.837202,19.113039],[72.836917,19.102897],[72.839495,19.101104],[72.836726,19.057295],[72.838421,19.050611],[72.848214,19.053025],[72.8554,19.059851],[72.858883,19.06098],[72.860516,19.064198],[72.87133,19.071016],[72.87224,19.074885],[72.875925,19.076423],[72.88364,19.073167],[72.88822,19.067967],[72.886652,19.064738],[72.883667,19.061858],[72.889119,19.054429],[72.891914,19.054165]]}},{"type":"Feature","properties":{"route_company":"","route_id":"539399937","element_type":"way","color":"#e377c2","route_name":"Line 6","osm_id":"539399937","railway":"subway","status":"construction"},"geometry":{"type":"LineString","coordinates":[[72.941528,19.130247],[72.937939,19.124715],[72.92271,19.125793],[72.919903,19.128553],[72.916513,19.125044],[72.909184,19.123873],[72.907683,19.120932],[72.903205,19.11936],[72.899625,19.120405],[72.897326,19.124017],[72.890514,19.126205],[72.886422,19.129102],[72.87583,19.130835],[72.873182,19.137081],[72.870226,19.139372],[72.863207,19.138964],[72.856773,19.141069],[72.851283,19.139419],[72.843701,19.139461],[72.836558,19.141586],[72.832018,19.141913],[72.828701,19.141741],[72.824098,19.139391],[72.819712,19.143661]]}},{"type":"Feature","properties":{"route_company":"","route_id":"933209259","element_type":"way","color":"#7f7f7f","route_name":"Line 4A","osm_id":"933209259","railway":"subway","status":"construction"},"geometry":{"type":"LineString","coordinates":[[72.960371,19.27442],[72.954199,19.282536],[72.951693,19.283851],[72.943399,19.284916]]}},{"type":"Feature","properties":{"route_company":"","route_id":"911424044","element_type":"way","color":"#e6194b","route_name":"Thane Ring Metro","osm_id":"911424044","railway":"subway","status":"proposed"},"geometry":{"type":"LineString","coordinates":[[72.980999,19.241037],[72.982686,19.241943],[72.982438,19.246021],[72.986738,19.255832],[72.990233,19.258221],[72.98777,19.263759],[72.986699,19.264341],[72.982466,19.263487],[72.978061,19.263935],[72.976511,19.2598],[72.973984,19.257145],[72.972662,19.252561],[72.975924,19.24553],[72.972447,19.242703],[72.971851,19.236235],[72.969975,19.233574],[72.970151,19.219397],[72.968866,19.218835],[72.963149,19.219941],[72.958508,19.221505],[72.956918,19.222971],[72.955349,19.222533],[72.952751,19.219583],[72.956354,19.214701],[72.95063,19.207374],[72.949112,19.200876],[72.949313,19.19519],[72.955083,19.192379],[72.955761,19.185465],[72.960278,19.179613],[72.962773,19.179656],[72.970995,19.185575],[72.981268,19.188163],[72.984127,19.197379],[72.988287,19.203111],[72.986814,19.211205],[72.988519,19.213629],[72.994258,19.21716],[72.998372,19.22254],[72.998742,19.226075],[72.99796,19.228702],[72.996116,19.230333],[72.990208,19.232305],[72.984672,19.232832],[72.981728,19.237556],[72.979199,19.239201],[72.979388,19.240492],[72.980999,19.241037]]}},{"type":"Feature","properties":{"route_company":"","route_id":"988036000","element_type":"way","color":"#3cb44b","route_name":"Line 10","osm_id":"988036000","railway":"subway","status":"proposed"},"geometry":{"type":"LineString","coordinates":[[72.943399,19.284916],[72.938775,19.286884],[72.936338,19.285222],[72.931928,19.285127],[72.930864,19.280363],[72.928109,19.281168],[72.922257,19.278544],[72.919397,19.27901],[72.914085,19.273623],[72.910376,19.279932],[72.904531,19.28513],[72.902238,19.284575],[72.892814,19.286949],[72.890213,19.27753],[72.881982,19.271943]]}}]}