{"type":"FeatureCollection","generator":"metroOsmFetch (OpenStreetMap / Overpass, ODbL)","features":[{"type":"Feature","properties":{"route_company":"Mumbai Metro Rail Corporation Ltd.","route_id":"3","element_type":"way","color":"#3cb44b","route_name":"Line 3 (Aarey JVLR → Cuffe Parade)","osm_id":"7898597","railway":"subway","status":"open"},"geometry":{"type":"LineString","coordinates":[[72.884203,19.131064],[72.873525,19.125758],[72.873647,19.117358],[72.879027,19.108463],[72.874463,19.102301],[72.865164,19.102159],[72.853566,19.093926],[72.847098,19.079175],[72.849435,19.069811],[72.854638,19.060656],[72.849744,19.046258],[72.841956,19.038504],[72.839217,19.023603],[72.830951,19.015882],[72.819272,19.008607],[72.817718,18.997816],[72.821354,18.990891],[72.825403,18.979463],[72.82118,18.969989],[72.818045,18.963218],[72.822201,18.952099],[72.827192,18.946334],[72.831862,18.940834],[72.832503,18.934182],[72.826936,18.931489],[72.825484,18.924785],[72.820708,18.913565]]}},{"type":"Feature","properties":{"route_company":"MMRDA","route_id":"2","element_type":"way","color":"#4363d8","route_name":"Line 2 (Andheri West → Dahisar (East))","osm_id":"13989912","railway":"subway","status":"open"},"geometry":{"type":"LineString","coordinates":[[72.83082,19.128734],[72.831708,19.140723],[72.833953,19.146036],[72.835715,19.153026],[72.834862,19.162309],[72.836473,19.173101],[72.835854,19.185287],[72.833811,19.196824],[72.834801,19.206207],[72.837311,19.213999],[72.840942,19.222833],[72.840862,19.231392],[72.843503,19.240423],[72.845738,19.24958],[72.850638,19.256619],[72.865996,19.257266],[72.867119,19.251055]]}},{"type":"Feature","properties":{"route_company":"MMRDA","route_id":"7","element_type":"way","color":"#f58231","route_name":"Line 7 (Gundavali → Dahisar (East))","osm_id":"13989914","railway":"subway","status":"open"},"geometry":{"type":"LineString","coordinates":[[72.855791,19.115189],[72.855443,19.128449],[72.855181,19.142941],[72.856591,19.152416],[72.858814,19.169536],[72.858297,19.179757],[72.858516,19.187101],[72.860624,19.198319],[72.863322,19.203774],[72.866775,19.217119],[72.86421,19.224338],[72.863136,19.234616],[72.864173,19.242944],[72.867119,19.251055]]}},{"type":"Feature","properties":{"route_company":"MMRDA","route_id":"1","element_type":"way","color":"#e6194b","route_name":"Line 1 (Versova → Ghatkopar)","osm_id":"3808111","railway":"subway","status":"open"},"geometry":{"type":"LineString","coordinates":[[72.821382,19.130256],[72.83082,19.128734],[72.837644,19.126914],[72.848757,19.120478],[72.855791,19.115189],[72.867622,19.112048],[72.874165,19.110121],[72.879027,19.108463],[72.887965,19.103532],[72.89487,19.096418],[72.901938,19.092526],[72.908054,19.086285]]}},{"type":"Feature","properties":{"route_company":"MMRC","route_id":"19233909","element_type":"way","color":"#911eb4","route_name":"Mumbai Metro Line 11","osm_id":"19233909","railway":"subway","status":"open"},"geometry":{"type":"LineString","coordinates":[[72.832503,18.934182],[72.835786,18.940493],[72.832794,18.976622],[72.844101,18.977551],[72.854422,18.99878],[72.86695,19.030181],[72.874025,19.038824],[72.878634,19.045827]]}},{"type":"Feature","properties":{"route_company":"MMRDA","route_id":"9","element_type":"way","color":"#f032e6","route_name":"Line 9 (Kashigaon → Dahisar (East))","osm_id":"20403864","railway":"subway","status":"open"},"geometry":{"type":"LineString","coordinates":[[72.880258,19.277661],[72.880677,19.270998],[72.872636,19.26009],[72.867119,19.251055]]}},{"type":"Feature","properties":{"osm_id":"12074903239","station_name":"Aarey JVLR","element_type":"node","station_id":"12074903239"},"geometry":{"type":"Point","coordinates":[72.884203,19.131064]}},{"type":"Feature","properties":{"osm_id":"12074903238","station_name":"SEEPZ","element_type":"node","station_id":"12074903238"},"geometry":{"type":"Point","coordinates":[72.873525,19.125758]}},{"type":"Feature","properties":{"osm_id":"12074903236","station_name":"MIDC - Andheri","element_type":"node","station_id":"12074903236"},"geometry":{"type":"Point","coordinates":[72.873647,19.117358]}},{"type":"Feature","properties":{"osm_id":"12074903233","station_name":"Marol Naka (Line 3)","element_type":"node","station_id":"12074903233"},"geometry":{"type":"Point","coordinates":[72.879027,19.108463]}},{"type":"Feature","properties":{"osm_id":"12074903232","station_name":"CSMIA International T2","element_type":"node","station_id":"12074903232"},"geometry":{"type":"Point","coordinates":[72.874463,19.102301]}},{"type":"Feature","properties":{"osm_id":"12074903230","station_name":"Sahar Road","element_type":"node","station_id":"12074903230"},"geometry":{"type":"Point","coordinates":[72.865164,19.102159]}},{"type":"Feature","properties":{"osm_id":"12074903228","station_name":"CSMIA Domestic","element_type":"node","station_id":"12074903228"},"geometry":{"type":"Point","coordinates":[72.853566,19.093926]}},{"type":"Feature","properties":{"osm_id":"12074903226","station_name":"Santacruz","element_type":"node","station_id":"12074903226"},"geometry":{"type":"Point","coordinates":[72.847098,19.079175]}},{"type":"Feature","properties":{"osm_id":"12074903224","station_name":"Bandra Colony","element_type":"node","station_id":"12074903224"},"geometry":{"type":"Point","coordinates":[72.849435,19.069811]}},{"type":"Feature","properties":{"osm_id":"12074903222","station_name":"Bandra Kurla Complex (BKC)","element_type":"node","station_id":"12074903222"},"geometry":{"type":"Point","coordinates":[72.854638,19.060656]}},{"type":"Feature","properties":{"osm_id":"5221297188","station_name":"Dharavi","element_type":"node","station_id":"5221297188"},"geometry":{"type":"Point","coordinates":[72.849744,19.046258]}},{"type":"Feature","properties":{"osm_id":"5221297196","station_name":"Shitala Devi Mandir","element_type":"node","station_id":"5221297196"},"geometry":{"type":"Point","coordinates":[72.841956,19.038504]}},{"type":"Feature","properties":{"osm_id":"5221297205","station_name":"Dadar","element_type":"node","station_id":"5221297205"},"geometry":{"type":"Point","coordinates":[72.839217,19.023603]}},{"type":"Feature","properties":{"osm_id":"5221295394","station_name":"Siddhivinayak Temple","element_type":"node","station_id":"5221295394"},"geometry":{"type":"Point","coordinates":[72.830951,19.015882]}},{"type":"Feature","properties":{"osm_id":"5221295399","station_name":"Worli","element_type":"node","station_id":"5221295399"},"geometry":{"type":"Point","coordinates":[72.819272,19.008607]}},{"type":"Feature","properties":{"osm_id":"5221297425","station_name":"Acharya Atre Chowk","element_type":"node","station_id":"5221297425"},"geometry":{"type":"Point","coordinates":[72.817718,18.997816]}},{"type":"Feature","properties":{"osm_id":"5221297427","station_name":"Science Museum","element_type":"node","station_id":"5221297427"},"geometry":{"type":"Point","coordinates":[72.821354,18.990891]}},{"type":"Feature","properties":{"osm_id":"5221297435","station_name":"Mahalaxmi","element_type":"node","station_id":"5221297435"},"geometry":{"type":"Point","coordinates":[72.825403,18.979463]}},{"type":"Feature","properties":{"osm_id":"5221297443","station_name":"Jagannath Shankar Sheth Metro","element_type":"node","station_id":"5221297443"},"geometry":{"type":"Point","coordinates":[72.82118,18.969989]}},{"type":"Feature","properties":{"osm_id":"5221297448","station_name":"Grant Road","element_type":"node","station_id":"5221297448"},"geometry":{"type":"Point","coordinates":[72.818045,18.963218]}},{"type":"Feature","properties":{"osm_id":"5221295402","station_name":"Girgaon","element_type":"node","station_id":"5221295402"},"geometry":{"type":"Point","coordinates":[72.822201,18.952099]}},{"type":"Feature","properties":{"osm_id":"5221297463","station_name":"Kalbadevi","element_type":"node","station_id":"5221297463"},"geometry":{"type":"Point","coordinates":[72.827192,18.946334]}},{"type":"Feature","properties":{"osm_id":"13207029321","station_name":"Chhatrapati Shivaji Maharaj Terminus","element_type":"node","station_id":"13207029321"},"geometry":{"type":"Point","coordinates":[72.831862,18.940834]}},{"type":"Feature","properties":{"osm_id":"5221295404","station_name":"Hutatma Chowk","element_type":"node","station_id":"5221295404"},"geometry":{"type":"Point","coordinates":[72.832503,18.934182]}},{"type":"Feature","properties":{"osm_id":"5221297484","station_name":"Churchgate","element_type":"node","station_id":"5221297484"},"geometry":{"type":"Point","coordinates":[72.826936,18.931489]}},{"type":"Feature","properties":{"osm_id":"5221297488","station_name":"Vidhan Bhavan","element_type":"node","station_id":"5221297488"},"geometry":{"type":"Point","coordinates":[72.825484,18.924785]}},{"type":"Feature","properties":{"osm_id":"5221297495","station_name":"Cuffe Parade","element_type":"node","station_id":"5221297495"},"geometry":{"type":"Point","coordinates":[72.820708,18.913565]}},{"type":"Feature","properties":{"osm_id":"5219622852","station_name":"Andheri (West)","element_type":"node","station_id":"5219622852"},"geometry":{"type":"Point","coordinates":[72.83082,19.128734]}},{"type":"Feature","properties":{"osm_id":"10576726749","station_name":"Lower Oshiwara","element_type":"node","station_id":"10576726749"},"geometry":{"type":"Point","coordinates":[72.831708,19.140723]}},{"type":"Feature","properties":{"osm_id":"5219622868","station_name":"Oshiwara","element_type":"node","station_id":"5219622868"},"geometry":{"type":"Point","coordinates":[72.833953,19.146036]}},{"type":"Feature","properties":{"osm_id":"5219622877","station_name":"Goregaon (West)","element_type":"node","station_id":"5219622877"},"geometry":{"type":"Point","coordinates":[72.835715,19.153026]}},{"type":"Feature","properties":{"osm_id":"10576726758","station_name":"Bangur Nagar","element_type":"node","station_id":"10576726758"},"geometry":{"type":"Point","coordinates":[72.834862,19.162309]}},{"type":"Feature","properties":{"osm_id":"5219622339","station_name":"Lower Malad","element_type":"node","station_id":"5219622339"},"geometry":{"type":"Point","coordinates":[72.836473,19.173101]}},{"type":"Feature","properties":{"osm_id":"5219622340","station_name":"Malad West","element_type":"node","station_id":"5219622340"},"geometry":{"type":"Point","coordinates":[72.835854,19.185287]}},{"type":"Feature","properties":{"osm_id":"5219622913","station_name":"Valnai-Meeth Chowky","element_type":"node","station_id":"5219622913"},"geometry":{"type":"Point","coordinates":[72.833811,19.196824]}},{"type":"Feature","properties":{"osm_id":"9630642169","station_name":"Dahanukarwadi","element_type":"node","station_id":"9630642169"},"geometry":{"type":"Point","coordinates":[72.834801,19.206207]}},{"type":"Feature","properties":{"osm_id":"9630642170","station_name":"Kandivali (West)","element_type":"node","station_id":"9630642170"},"geometry":{"type":"Point","coordinates":[72.837311,19.213999]}},{"type":"Feature","properties":{"osm_id":"9630642171","station_name":"Shimpoli","element_type":"node","station_id":"9630642171"},"geometry":{"type":"Point","coordinates":[72.840942,19.222833]}},{"type":"Feature","properties":{"osm_id":"9630642172","station_name":"Borivali (West)","element_type":"node","station_id":"9630642172"},"geometry":{"type":"Point","coordinates":[72.840862,19.231392]}},{"type":"Feature","properties":{"osm_id":"9630642173","station_name":"Eksar","element_type":"node","station_id":"9630642173"},"geometry":{"type":"Point","coordinates":[72.843503,19.240423]}},{"type":"Feature","properties":{"osm_id":"9630642175","station_name":"Mandapeshwar - I.C. Colony","element_type":"node","station_id":"9630642175"},"geometry":{"type":"Point","coordinates":[72.845738,19.24958]}},{"type":"Feature","properties":{"osm_id":"9630642178","station_name":"Rushi Sankul","element_type":"node","station_id":"9630642178"},"geometry":{"type":"Point","coordinates":[72.850638,19.256619]}},{"type":"Feature","properties":{"osm_id":"9630642181","station_name":"Anand Nagar","element_type":"node","station_id":"9630642181"},"geometry":{"type":"Point","coordinates":[72.865996,19.257266]}},{"type":"Feature","properties":{"osm_id":"5220954732","station_name":"Dahisar (East) [Line 2]","element_type":"node","station_id":"5220954732"},"geometry":{"type":"Point","coordinates":[72.867119,19.251055]}},{"type":"Feature","properties":{"osm_id":"5220954818","station_name":"Gundavali","element_type":"node","station_id":"5220954818"},"geometry":{"type":"Point","coordinates":[72.855791,19.115189]}},{"type":"Feature","properties":{"osm_id":"5220954744","station_name":"Mogra","element_type":"node","station_id":"5220954744"},"geometry":{"type":"Point","coordinates":[72.855443,19.128449]}},{"type":"Feature","properties":{"osm_id":"5220954743","station_name":"Jogeshwari (East)","element_type":"node","station_id":"5220954743"},"geometry":{"type":"Point","coordinates":[72.855181,19.142941]}},{"type":"Feature","properties":{"osm_id":"5220954742","station_name":"Goregaon (East)","element_type":"node","station_id":"5220954742"},"geometry":{"type":"Point","coordinates":[72.856591,19.152416]}},{"type":"Feature","properties":{"osm_id":"5220954741","station_name":"Aarey","element_type":"node","station_id":"5220954741"},"geometry":{"type":"Point","coordinates":[72.858814,19.169536]}},{"type":"Feature","properties":{"osm_id":"5220954738","station_name":"Dindoshi","element_type":"node","station_id":"5220954738"},"geometry":{"type":"Point","coordinates":[72.858297,19.179757]}},{"type":"Feature","properties":{"osm_id":"9130397819","station_name":"Kurar","element_type":"node","station_id":"9130397819"},"geometry":{"type":"Point","coordinates":[72.858516,19.187101]}},{"type":"Feature","properties":{"osm_id":"9130397818","station_name":"Akurli","element_type":"node","station_id":"9130397818"},"geometry":{"type":"Point","coordinates":[72.860624,19.198319]}},{"type":"Feature","properties":{"osm_id":"9130397817","station_name":"Mahindra & Mahindra","element_type":"node","station_id":"9130397817"},"geometry":{"type":"Point","coordinates":[72.863322,19.203774]}},{"type":"Feature","properties":{"osm_id":"5220954766","station_name":"Magathane","element_type":"node","station_id":"5220954766"},"geometry":{"type":"Point","coordinates":[72.866775,19.217119]}},{"type":"Feature","properties":{"osm_id":"5220954735","station_name":"Devipada","element_type":"node","station_id":"5220954735"},"geometry":{"type":"Point","coordinates":[72.86421,19.224338]}},{"type":"Feature","properties":{"osm_id":"5220954734","station_name":"Rashtriya Udyan","element_type":"node","station_id":"5220954734"},"geometry":{"type":"Point","coordinates":[72.863136,19.234616]}},{"type":"Feature","properties":{"osm_id":"5220954733","station_name":"Ovaripada","element_type":"node","station_id":"5220954733"},"geometry":{"type":"Point","coordinates":[72.864173,19.242944]}},{"type":"Feature","properties":{"osm_id":"623881991","station_name":"Versova","element_type":"node","station_id":"623881991"},"geometry":{"type":"Point","coordinates":[72.821382,19.130256]}},{"type":"Feature","properties":{"osm_id":"3389150482","station_name":"Azad Nagar","element_type":"node","station_id":"3389150482"},"geometry":{"type":"Point","coordinates":[72.837644,19.126914]}},{"type":"Feature","properties":{"osm_id":"3389150481","station_name":"Andheri","element_type":"node","station_id":"3389150481"},"geometry":{"type":"Point","coordinates":[72.848757,19.120478]}},{"type":"Feature","properties":{"osm_id":"3389210700","station_name":"Chakala - J.B. Nagar","element_type":"node","station_id":"3389210700"},"geometry":{"type":"Point","coordinates":[72.867622,19.112048]}},{"type":"Feature","properties":{"osm_id":"3175794769","station_name":"Airport Road","element_type":"node","station_id":"3175794769"},"geometry":{"type":"Point","coordinates":[72.874165,19.110121]}},{"type":"Feature","properties":{"osm_id":"3389210701","station_name":"Saki Naka","element_type":"node","station_id":"3389210701"},"geometry":{"type":"Point","coordinates":[72.887965,19.103532]}},{"type":"Feature","properties":{"osm_id":"3389249957","station_name":"Asalpha","element_type":"node","station_id":"3389249957"},"geometry":{"type":"Point","coordinates":[72.89487,19.096418]}},{"type":"Feature","properties":{"osm_id":"3175794773","station_name":"Jagruti Nagar","element_type":"node","station_id":"3175794773"},"geometry":{"type":"Point","coordinates":[72.901938,19.092526]}},{"type":"Feature","properties":{"osm_id":"3175794772","station_name":"Ghatkopar","element_type":"node","station_id":"3175794772"},"geometry":{"type":"Point","coordinates":[72.908054,19.086285]}},{"type":"Feature","properties":{"osm_id":"12176277888","station_name":"Mumbai CSMT","element_type":"node","station_id":"CSMT"},"geometry":{"type":"Point","coordinates":[72.835786,18.940493]}},{"type":"Feature","properties":{"osm_id":"2630075001","station_name":"Byculla","element_type":"node","station_id":"BY"},"geometry":{"type":"Point","coordinates":[72.832794,18.976622]}},{"type":"Feature","properties":{"osm_id":"2443096202","station_name":"Reay Road","element_type":"node","station_id":"RRD"},"geometry":{"type":"Point","coordinates":[72.844101,18.977551]}},{"type":"Feature","properties":{"osm_id":"700886180","station_name":"Sewri","element_type":"node","station_id":"SVE"},"geometry":{"type":"Point","coordinates":[72.854422,18.99878]}},{"type":"Feature","properties":{"osm_id":"13284781018","station_name":"Antop Hill","element_type":"node","station_id":"13284781018"},"geometry":{"type":"Point","coordinates":[72.86695,19.030181]}},{"type":"Feature","properties":{"osm_id":"632342238","station_name":"Wadala Depot","element_type":"node","station_id":"632342238"},"geometry":{"type":"Point","coordinates":[72.874025,19.038824]}},{"type":"Feature","properties":{"osm_id":"9132436368","station_name":"Anik Nagar Bus Depot Station","element_type":"node","station_id":"9132436368"},"geometry":{"type":"Point","coordinates":[72.878634,19.045827]}},{"type":"Feature","properties":{"osm_id":"10299481782","station_name":"Kashigaon","element_type":"node","station_id":"10299481782"},"geometry":{"type":"Point","coordinates":[72.880258,19.277661]}},{"type":"Feature","properties":{"osm_id":"10299466195","station_name":"Miragaon","element_type":"node","station_id":"10299466195"},"geometry":{"type":"Point","coordinates":[72.880677,19.270998]}},{"type":"Feature","properties":{"osm_id":"10299481388","station_name":"Pandurang Wadi","element_type":"node","station_id":"10299481388"},"geometry":{"type":"Point","coordinates":[72.872636,19.26009]}}]}