{"type":"FeatureCollection","generator":"metroOsmFetch (OpenStreetMap / Overpass, ODbL)","features":[{"type":"Feature","properties":{"route_company":"Mumbai Metro Rail Corporation Ltd.","route_id":"3","element_type":"way","color":"#059db2","route_name":"Line 3 (Aarey JVLR → Cuffe Parade)","osm_id":"7898597","railway":"subway","status":"open"},"geometry":{"type":"LineString","coordinates":[[72.884197,19.131046],[72.87327,19.12529],[72.874205,19.117287],[72.879402,19.108111],[72.873666,19.102157],[72.864712,19.102056],[72.853081,19.09362],[72.847139,19.078738],[72.84984,19.069313],[72.854963,19.060234],[72.849423,19.046152],[72.842042,19.03832],[72.839047,19.023353],[72.830562,19.015959],[72.819294,19.008596],[72.81774,18.997826],[72.821376,18.990901],[72.825422,18.979448],[72.821203,18.96998],[72.818068,18.96321],[72.822235,18.952126],[72.827205,18.946346],[72.8319,18.940873],[72.832512,18.934178],[72.826962,18.931482],[72.82555,18.924809],[72.820749,18.913543]]}},{"type":"Feature","properties":{"route_company":"MMRDA","route_id":"2","element_type":"way","color":"#ffc600","route_name":"Line 2 (Andheri West → Dahisar (East))","osm_id":"13989912","railway":"subway","status":"open"},"geometry":{"type":"LineString","coordinates":[[72.83112,19.128679],[72.831687,19.140721],[72.833951,19.146055],[72.835694,19.153023],[72.834836,19.162872],[72.836453,19.173107],[72.835833,19.185286],[72.83379,19.196825],[72.834777,19.206211],[72.837292,19.214014],[72.84092,19.222832],[72.84084,19.23139],[72.843482,19.24044],[72.845714,19.249583],[72.850625,19.256638],[72.866002,19.257289],[72.86714,19.251043]]}},{"type":"Feature","properties":{"route_company":"MMRDA","route_id":"7","element_type":"way","color":"#d83431","route_name":"Line 7 (Gundavali → Dahisar (East))","osm_id":"13989914","railway":"subway","status":"open"},"geometry":{"type":"LineString","coordinates":[[72.85608,19.115037],[72.855465,19.128448],[72.855207,19.142934],[72.856622,19.152412],[72.858837,19.169533],[72.858321,19.179757],[72.85854,19.187101],[72.860647,19.198314],[72.863339,19.203758],[72.866797,19.217126],[72.864227,19.224342],[72.863159,19.234616],[72.864196,19.24294],[72.86714,19.251043]]}},{"type":"Feature","properties":{"route_company":"MMRDA","route_id":"1","element_type":"way","color":"#00aeef","route_name":"Line 1 (Versova → Ghatkopar)","osm_id":"3808111","railway":"subway","status":"open"},"geometry":{"type":"LineString","coordinates":[[72.821387,19.130278],[72.83112,19.128679],[72.838267,19.126806],[72.849482,19.120042],[72.85608,19.115037],[72.868242,19.111907],[72.874797,19.109915],[72.879402,19.108111],[72.888509,19.103217],[72.895413,19.096097],[72.9026,19.092171],[72.908123,19.086286]]}},{"type":"Feature","properties":{"route_company":"MMRC","route_id":"19233909","element_type":"way","color":"#00ae5a","route_name":"Mumbai Metro Line 11","osm_id":"19233909","railway":"subway","status":"open"},"geometry":{"type":"LineString","coordinates":[[72.832512,18.934178],[72.835786,18.940493],[72.832794,18.976622],[72.844101,18.977551],[72.854422,18.99878],[72.86695,19.030181],[72.874025,19.038824],[72.878634,19.045827]]}},{"type":"Feature","properties":{"route_company":"MMRDA","route_id":"9","element_type":"way","color":"#d83431","route_name":"Line 9 (Kashigaon → Dahisar (East))","osm_id":"20403864","railway":"subway","status":"open"},"geometry":{"type":"LineString","coordinates":[[72.880273,19.277686],[72.880685,19.270981],[72.872653,19.260083],[72.86714,19.251043]]}},{"type":"Feature","properties":{"osm_id":"12074903239","station_name":"Aarey JVLR","element_type":"node","station_id":"12074903239"},"geometry":{"type":"Point","coordinates":[72.884197,19.131046]}},{"type":"Feature","properties":{"osm_id":"12074903238","station_name":"SEEPZ","element_type":"node","station_id":"12074903238"},"geometry":{"type":"Point","coordinates":[72.87327,19.12529]}},{"type":"Feature","properties":{"osm_id":"12074903236","station_name":"MIDC - Andheri","element_type":"node","station_id":"12074903236"},"geometry":{"type":"Point","coordinates":[72.874205,19.117287]}},{"type":"Feature","properties":{"osm_id":"12074903233","station_name":"Marol Naka (Line 3)","element_type":"node","station_id":"12074903233"},"geometry":{"type":"Point","coordinates":[72.879402,19.108111]}},{"type":"Feature","properties":{"osm_id":"12074903232","station_name":"CSMIA International T2","element_type":"node","station_id":"12074903232"},"geometry":{"type":"Point","coordinates":[72.873666,19.102157]}},{"type":"Feature","properties":{"osm_id":"12074903230","station_name":"Sahar Road","element_type":"node","station_id":"12074903230"},"geometry":{"type":"Point","coordinates":[72.864712,19.102056]}},{"type":"Feature","properties":{"osm_id":"12074903228","station_name":"CSMIA Domestic","element_type":"node","station_id":"12074903228"},"geometry":{"type":"Point","coordinates":[72.853081,19.09362]}},{"type":"Feature","properties":{"osm_id":"12074903226","station_name":"Santacruz","element_type":"node","station_id":"12074903226"},"geometry":{"type":"Point","coordinates":[72.847139,19.078738]}},{"type":"Feature","properties":{"osm_id":"12074903224","station_name":"Bandra Colony","element_type":"node","station_id":"12074903224"},"geometry":{"type":"Point","coordinates":[72.84984,19.069313]}},{"type":"Feature","properties":{"osm_id":"12074903222","station_name":"Bandra Kurla Complex (BKC)","element_type":"node","station_id":"12074903222"},"geometry":{"type":"Point","coordinates":[72.854963,19.060234]}},{"type":"Feature","properties":{"osm_id":"5221297188","station_name":"Dharavi","element_type":"node","station_id":"5221297188"},"geometry":{"type":"Point","coordinates":[72.849423,19.046152]}},{"type":"Feature","properties":{"osm_id":"5221297196","station_name":"Shitala Devi Mandir","element_type":"node","station_id":"5221297196"},"geometry":{"type":"Point","coordinates":[72.842042,19.03832]}},{"type":"Feature","properties":{"osm_id":"5221297205","station_name":"Dadar","element_type":"node","station_id":"5221297205"},"geometry":{"type":"Point","coordinates":[72.839047,19.023353]}},{"type":"Feature","properties":{"osm_id":"5221295394","station_name":"Siddhivinayak Temple","element_type":"node","station_id":"5221295394"},"geometry":{"type":"Point","coordinates":[72.830562,19.015959]}},{"type":"Feature","properties":{"osm_id":"5221295399","station_name":"Worli","element_type":"node","station_id":"5221295399"},"geometry":{"type":"Point","coordinates":[72.819294,19.008596]}},{"type":"Feature","properties":{"osm_id":"5221297425","station_name":"Acharya Atre Chowk","element_type":"node","station_id":"5221297425"},"geometry":{"type":"Point","coordinates":[72.81774,18.997826]}},{"type":"Feature","properties":{"osm_id":"5221297427","station_name":"Science Museum","element_type":"node","station_id":"5221297427"},"geometry":{"type":"Point","coordinates":[72.821376,18.990901]}},{"type":"Feature","properties":{"osm_id":"5221297435","station_name":"Mahalaxmi","element_type":"node","station_id":"5221297435"},"geometry":{"type":"Point","coordinates":[72.825422,18.979448]}},{"type":"Feature","properties":{"osm_id":"5221297443","station_name":"Jagannath Shankar Sheth Metro","element_type":"node","station_id":"5221297443"},"geometry":{"type":"Point","coordinates":[72.821203,18.96998]}},{"type":"Feature","properties":{"osm_id":"5221297448","station_name":"Grant Road","element_type":"node","station_id":"5221297448"},"geometry":{"type":"Point","coordinates":[72.818068,18.96321]}},{"type":"Feature","properties":{"osm_id":"5221295402","station_name":"Girgaon","element_type":"node","station_id":"5221295402"},"geometry":{"type":"Point","coordinates":[72.822235,18.952126]}},{"type":"Feature","properties":{"osm_id":"5221297463","station_name":"Kalbadevi","element_type":"node","station_id":"5221297463"},"geometry":{"type":"Point","coordinates":[72.827205,18.946346]}},{"type":"Feature","properties":{"osm_id":"13207029321","station_name":"Chhatrapati Shivaji Maharaj Terminus","element_type":"node","station_id":"13207029321"},"geometry":{"type":"Point","coordinates":[72.8319,18.940873]}},{"type":"Feature","properties":{"osm_id":"5221295404","station_name":"Hutatma Chowk","element_type":"node","station_id":"5221295404"},"geometry":{"type":"Point","coordinates":[72.832512,18.934178]}},{"type":"Feature","properties":{"osm_id":"5221297484","station_name":"Churchgate","element_type":"node","station_id":"5221297484"},"geometry":{"type":"Point","coordinates":[72.826962,18.931482]}},{"type":"Feature","properties":{"osm_id":"5221297488","station_name":"Vidhan Bhavan","element_type":"node","station_id":"5221297488"},"geometry":{"type":"Point","coordinates":[72.82555,18.924809]}},{"type":"Feature","properties":{"osm_id":"5221297495","station_name":"Cuffe Parade","element_type":"node","station_id":"5221297495"},"geometry":{"type":"Point","coordinates":[72.820749,18.913543]}},{"type":"Feature","properties":{"osm_id":"5219622852","station_name":"Andheri (West)","element_type":"node","station_id":"5219622852"},"geometry":{"type":"Point","coordinates":[72.83112,19.128679]}},{"type":"Feature","properties":{"osm_id":"10576726749","station_name":"Lower Oshiwara","element_type":"node","station_id":"10576726749"},"geometry":{"type":"Point","coordinates":[72.831687,19.140721]}},{"type":"Feature","properties":{"osm_id":"5219622868","station_name":"Oshiwara","element_type":"node","station_id":"5219622868"},"geometry":{"type":"Point","coordinates":[72.833951,19.146055]}},{"type":"Feature","properties":{"osm_id":"5219622877","station_name":"Goregaon (West)","element_type":"node","station_id":"5219622877"},"geometry":{"type":"Point","coordinates":[72.835694,19.153023]}},{"type":"Feature","properties":{"osm_id":"10576726758","station_name":"Bangur Nagar","element_type":"node","station_id":"10576726758"},"geometry":{"type":"Point","coordinates":[72.834836,19.162872]}},{"type":"Feature","properties":{"osm_id":"5219622339","station_name":"Lower Malad","element_type":"node","station_id":"5219622339"},"geometry":{"type":"Point","coordinates":[72.836453,19.173107]}},{"type":"Feature","properties":{"osm_id":"5219622340","station_name":"Malad West","element_type":"node","station_id":"5219622340"},"geometry":{"type":"Point","coordinates":[72.835833,19.185286]}},{"type":"Feature","properties":{"osm_id":"5219622913","station_name":"Valnai-Meeth Chowky","element_type":"node","station_id":"5219622913"},"geometry":{"type":"Point","coordinates":[72.83379,19.196825]}},{"type":"Feature","properties":{"osm_id":"9630642169","station_name":"Dahanukarwadi","element_type":"node","station_id":"9630642169"},"geometry":{"type":"Point","coordinates":[72.834777,19.206211]}},{"type":"Feature","properties":{"osm_id":"9630642170","station_name":"Kandivali (West)","element_type":"node","station_id":"9630642170"},"geometry":{"type":"Point","coordinates":[72.837292,19.214014]}},{"type":"Feature","properties":{"osm_id":"9630642171","station_name":"Shimpoli","element_type":"node","station_id":"9630642171"},"geometry":{"type":"Point","coordinates":[72.84092,19.222832]}},{"type":"Feature","properties":{"osm_id":"9630642172","station_name":"Borivali (West)","element_type":"node","station_id":"9630642172"},"geometry":{"type":"Point","coordinates":[72.84084,19.23139]}},{"type":"Feature","properties":{"osm_id":"9630642173","station_name":"Eksar","element_type":"node","station_id":"9630642173"},"geometry":{"type":"Point","coordinates":[72.843482,19.24044]}},{"type":"Feature","properties":{"osm_id":"9630642175","station_name":"Mandapeshwar - I.C. Colony","element_type":"node","station_id":"9630642175"},"geometry":{"type":"Point","coordinates":[72.845714,19.249583]}},{"type":"Feature","properties":{"osm_id":"9630642178","station_name":"Rushi Sankul","element_type":"node","station_id":"9630642178"},"geometry":{"type":"Point","coordinates":[72.850625,19.256638]}},{"type":"Feature","properties":{"osm_id":"9630642181","station_name":"Anand Nagar","element_type":"node","station_id":"9630642181"},"geometry":{"type":"Point","coordinates":[72.866002,19.257289]}},{"type":"Feature","properties":{"osm_id":"5220954732","station_name":"Dahisar (East) [Line 2]","element_type":"node","station_id":"5220954732"},"geometry":{"type":"Point","coordinates":[72.86714,19.251043]}},{"type":"Feature","properties":{"osm_id":"5220954818","station_name":"Gundavali","element_type":"node","station_id":"5220954818"},"geometry":{"type":"Point","coordinates":[72.85608,19.115037]}},{"type":"Feature","properties":{"osm_id":"5220954744","station_name":"Mogra","element_type":"node","station_id":"5220954744"},"geometry":{"type":"Point","coordinates":[72.855465,19.128448]}},{"type":"Feature","properties":{"osm_id":"5220954743","station_name":"Jogeshwari (East)","element_type":"node","station_id":"5220954743"},"geometry":{"type":"Point","coordinates":[72.855207,19.142934]}},{"type":"Feature","properties":{"osm_id":"5220954742","station_name":"Goregaon (East)","element_type":"node","station_id":"5220954742"},"geometry":{"type":"Point","coordinates":[72.856622,19.152412]}},{"type":"Feature","properties":{"osm_id":"5220954741","station_name":"Aarey","element_type":"node","station_id":"5220954741"},"geometry":{"type":"Point","coordinates":[72.858837,19.169533]}},{"type":"Feature","properties":{"osm_id":"5220954738","station_name":"Dindoshi","element_type":"node","station_id":"5220954738"},"geometry":{"type":"Point","coordinates":[72.858321,19.179757]}},{"type":"Feature","properties":{"osm_id":"9130397819","station_name":"Kurar","element_type":"node","station_id":"9130397819"},"geometry":{"type":"Point","coordinates":[72.85854,19.187101]}},{"type":"Feature","properties":{"osm_id":"9130397818","station_name":"Akurli","element_type":"node","station_id":"9130397818"},"geometry":{"type":"Point","coordinates":[72.860647,19.198314]}},{"type":"Feature","properties":{"osm_id":"9130397817","station_name":"Mahindra & Mahindra","element_type":"node","station_id":"9130397817"},"geometry":{"type":"Point","coordinates":[72.863339,19.203758]}},{"type":"Feature","properties":{"osm_id":"5220954766","station_name":"Magathane","element_type":"node","station_id":"5220954766"},"geometry":{"type":"Point","coordinates":[72.866797,19.217126]}},{"type":"Feature","properties":{"osm_id":"5220954735","station_name":"Devipada","element_type":"node","station_id":"5220954735"},"geometry":{"type":"Point","coordinates":[72.864227,19.224342]}},{"type":"Feature","properties":{"osm_id":"5220954734","station_name":"Rashtriya Udyan","element_type":"node","station_id":"5220954734"},"geometry":{"type":"Point","coordinates":[72.863159,19.234616]}},{"type":"Feature","properties":{"osm_id":"5220954733","station_name":"Ovaripada","element_type":"node","station_id":"5220954733"},"geometry":{"type":"Point","coordinates":[72.864196,19.24294]}},{"type":"Feature","properties":{"osm_id":"623881991","station_name":"Versova","element_type":"node","station_id":"623881991"},"geometry":{"type":"Point","coordinates":[72.821387,19.130278]}},{"type":"Feature","properties":{"osm_id":"3389150482","station_name":"Azad Nagar","element_type":"node","station_id":"3389150482"},"geometry":{"type":"Point","coordinates":[72.838267,19.126806]}},{"type":"Feature","properties":{"osm_id":"3389150481","station_name":"Andheri","element_type":"node","station_id":"3389150481"},"geometry":{"type":"Point","coordinates":[72.849482,19.120042]}},{"type":"Feature","properties":{"osm_id":"3389210700","station_name":"Chakala - J.B. Nagar","element_type":"node","station_id":"3389210700"},"geometry":{"type":"Point","coordinates":[72.868242,19.111907]}},{"type":"Feature","properties":{"osm_id":"3175794769","station_name":"Airport Road","element_type":"node","station_id":"3175794769"},"geometry":{"type":"Point","coordinates":[72.874797,19.109915]}},{"type":"Feature","properties":{"osm_id":"3389210701","station_name":"Saki Naka","element_type":"node","station_id":"3389210701"},"geometry":{"type":"Point","coordinates":[72.888509,19.103217]}},{"type":"Feature","properties":{"osm_id":"3389249957","station_name":"Asalpha","element_type":"node","station_id":"3389249957"},"geometry":{"type":"Point","coordinates":[72.895413,19.096097]}},{"type":"Feature","properties":{"osm_id":"3175794773","station_name":"Jagruti Nagar","element_type":"node","station_id":"3175794773"},"geometry":{"type":"Point","coordinates":[72.9026,19.092171]}},{"type":"Feature","properties":{"osm_id":"3175794772","station_name":"Ghatkopar","element_type":"node","station_id":"3175794772"},"geometry":{"type":"Point","coordinates":[72.908123,19.086286]}},{"type":"Feature","properties":{"osm_id":"12176277888","station_name":"Mumbai CSMT","element_type":"node","station_id":"CSMT"},"geometry":{"type":"Point","coordinates":[72.835786,18.940493]}},{"type":"Feature","properties":{"osm_id":"2630075001","station_name":"Byculla","element_type":"node","station_id":"BY"},"geometry":{"type":"Point","coordinates":[72.832794,18.976622]}},{"type":"Feature","properties":{"osm_id":"2443096202","station_name":"Reay Road","element_type":"node","station_id":"RRD"},"geometry":{"type":"Point","coordinates":[72.844101,18.977551]}},{"type":"Feature","properties":{"osm_id":"700886180","station_name":"Sewri","element_type":"node","station_id":"SVE"},"geometry":{"type":"Point","coordinates":[72.854422,18.99878]}},{"type":"Feature","properties":{"osm_id":"13284781018","station_name":"Antop Hill","element_type":"node","station_id":"13284781018"},"geometry":{"type":"Point","coordinates":[72.86695,19.030181]}},{"type":"Feature","properties":{"osm_id":"632342238","station_name":"Wadala Depot","element_type":"node","station_id":"632342238"},"geometry":{"type":"Point","coordinates":[72.874025,19.038824]}},{"type":"Feature","properties":{"osm_id":"9132436368","station_name":"Anik Nagar Bus Depot Station","element_type":"node","station_id":"9132436368"},"geometry":{"type":"Point","coordinates":[72.878634,19.045827]}},{"type":"Feature","properties":{"osm_id":"10299481782","station_name":"Kashigaon","element_type":"node","station_id":"10299481782"},"geometry":{"type":"Point","coordinates":[72.880273,19.277686]}},{"type":"Feature","properties":{"osm_id":"10299466195","station_name":"Miragaon","element_type":"node","station_id":"10299466195"},"geometry":{"type":"Point","coordinates":[72.880685,19.270981]}},{"type":"Feature","properties":{"osm_id":"10299481388","station_name":"Pandurang Wadi","element_type":"node","station_id":"10299481388"},"geometry":{"type":"Point","coordinates":[72.872653,19.260083]}}]}