{"type":"FeatureCollection","generator":"metroOsmFetch (OpenStreetMap / Overpass, ODbL)","features":[{"type":"Feature","properties":{"route_company":"Delhi Metro Rail Corporation Limited","route_id":"3","element_type":"way","color":"#4169e1","route_name":"Blue Line (Noida Electronic City → Dwarka Sector 21)","osm_id":"447209","railway":"subway","status":"open"},"geometry":{"type":"LineString","coordinates":[[77.37507,28.628261],[77.373589,28.616986],[77.372682,28.606527],[77.37227,28.597583],[77.372789,28.586759],[77.363501,28.580252],[77.35623,28.574811],[77.346388,28.567451],[77.334112,28.56392],[77.326161,28.570807],[77.317853,28.578128],[77.311708,28.584943],[77.302035,28.59021],[77.294489,28.594488],[77.290276,28.603863],[77.279546,28.617886],[77.267921,28.623236],[77.249551,28.620603],[77.242529,28.623474],[77.234195,28.625565],[77.225009,28.62977],[77.219516,28.632774],[77.208581,28.639242],[77.199916,28.644318],[77.188524,28.644011],[77.178275,28.642497],[77.169279,28.645012],[77.158256,28.651584],[77.15101,28.655145],[77.142431,28.65786],[77.131651,28.652745],[77.122733,28.649056],[77.112857,28.643747],[77.105225,28.640482],[77.096472,28.636546],[77.086718,28.633008],[77.078016,28.629272],[77.065288,28.624849],[77.055714,28.621757],[77.045081,28.620277],[77.03328,28.619312],[77.022764,28.614938],[77.025978,28.602219],[77.033542,28.597009],[77.040732,28.592236],[77.049441,28.586446],[77.057501,28.581057],[77.06533,28.574273],[77.067039,28.565611],[77.058557,28.551912]]}},{"type":"Feature","properties":{"osm_id":"6325711755","station_name":"Noida Electronic City","element_type":"node","station_id":"6325711755"},"geometry":{"type":"Point","coordinates":[77.37507,28.628261]}},{"type":"Feature","properties":{"osm_id":"5777613716","station_name":"Noida Sector 62","element_type":"node","station_id":"5777613716"},"geometry":{"type":"Point","coordinates":[77.373589,28.616986]}},{"type":"Feature","properties":{"osm_id":"5777613718","station_name":"Noida Sector 59","element_type":"node","station_id":"5777613718"},"geometry":{"type":"Point","coordinates":[77.372682,28.606527]}},{"type":"Feature","properties":{"osm_id":"5777613720","station_name":"Noida Sector 61","element_type":"node","station_id":"5777613720"},"geometry":{"type":"Point","coordinates":[77.37227,28.597583]}},{"type":"Feature","properties":{"osm_id":"5777613736","station_name":"Noida Sector 52","element_type":"node","station_id":"5777613736"},"geometry":{"type":"Point","coordinates":[77.372789,28.586759]}},{"type":"Feature","properties":{"osm_id":"5777613740","station_name":"Noida Sector 34","element_type":"node","station_id":"5777613740"},"geometry":{"type":"Point","coordinates":[77.363501,28.580252]}},{"type":"Feature","properties":{"osm_id":"5777613746","station_name":"Noida City Centre","element_type":"node","station_id":"5777613746"},"geometry":{"type":"Point","coordinates":[77.35623,28.574811]}},{"type":"Feature","properties":{"osm_id":"5777613749","station_name":"Noida Golf Course","element_type":"node","station_id":"5777613749"},"geometry":{"type":"Point","coordinates":[77.346388,28.567451]}},{"type":"Feature","properties":{"osm_id":"5777613864","station_name":"Botanical Garden","element_type":"node","station_id":"BCGN"},"geometry":{"type":"Point","coordinates":[77.334112,28.56392]}},{"type":"Feature","properties":{"osm_id":"5777613870","station_name":"Noida Sector 18","element_type":"node","station_id":"NSET"},"geometry":{"type":"Point","coordinates":[77.326161,28.570807]}},{"type":"Feature","properties":{"osm_id":"5777613877","station_name":"Noida Sector 16","element_type":"node","station_id":"NSST"},"geometry":{"type":"Point","coordinates":[77.317853,28.578128]}},{"type":"Feature","properties":{"osm_id":"5777613883","station_name":"Noida Sector 15","element_type":"node","station_id":"NSFT"},"geometry":{"type":"Point","coordinates":[77.311708,28.584943]}},{"type":"Feature","properties":{"osm_id":"5777613898","station_name":"New Ashok Nagar","element_type":"node","station_id":"NAGR"},"geometry":{"type":"Point","coordinates":[77.302035,28.59021]}},{"type":"Feature","properties":{"osm_id":"5777613909","station_name":"Mayur Vihar Extension","element_type":"node","station_id":"MVE"},"geometry":{"type":"Point","coordinates":[77.294489,28.594488]}},{"type":"Feature","properties":{"osm_id":"5777613919","station_name":"Mayur Vihar - I (Blue Line)","element_type":"node","station_id":"5777613919"},"geometry":{"type":"Point","coordinates":[77.290276,28.603863]}},{"type":"Feature","properties":{"osm_id":"5777613940","station_name":"Akshardham","element_type":"node","station_id":"5777613940"},"geometry":{"type":"Point","coordinates":[77.279546,28.617886]}},{"type":"Feature","properties":{"osm_id":"6537317882","station_name":"Yamuna Bank","element_type":"node","station_id":"6537317882"},"geometry":{"type":"Point","coordinates":[77.267921,28.623236]}},{"type":"Feature","properties":{"osm_id":"554257831","station_name":"Indraprastha","element_type":"node","station_id":"554257831"},"geometry":{"type":"Point","coordinates":[77.249551,28.620603]}},{"type":"Feature","properties":{"osm_id":"554257824","station_name":"Supreme Court","element_type":"node","station_id":"554257824"},"geometry":{"type":"Point","coordinates":[77.242529,28.623474]}},{"type":"Feature","properties":{"osm_id":"554257827","station_name":"Mandi House","element_type":"node","station_id":"MDHS"},"geometry":{"type":"Point","coordinates":[77.234195,28.625565]}},{"type":"Feature","properties":{"osm_id":"554257839","station_name":"Barakhambha Road","element_type":"node","station_id":"554257839"},"geometry":{"type":"Point","coordinates":[77.225009,28.62977]}},{"type":"Feature","properties":{"osm_id":"939091076","station_name":"Rajiv Chowk","element_type":"node","station_id":"RCK"},"geometry":{"type":"Point","coordinates":[77.219516,28.632774]}},{"type":"Feature","properties":{"osm_id":"554257820","station_name":"Ramakrishna Ashram Marg","element_type":"node","station_id":"554257820"},"geometry":{"type":"Point","coordinates":[77.208581,28.639242]}},{"type":"Feature","properties":{"osm_id":"345234443","station_name":"Jhandewalan","element_type":"node","station_id":"345234443"},"geometry":{"type":"Point","coordinates":[77.199916,28.644318]}},{"type":"Feature","properties":{"osm_id":"6547772123","station_name":"Karol Bagh","element_type":"node","station_id":"6547772123"},"geometry":{"type":"Point","coordinates":[77.188524,28.644011]}},{"type":"Feature","properties":{"osm_id":"345234440","station_name":"Rajendra Place","element_type":"node","station_id":"345234440"},"geometry":{"type":"Point","coordinates":[77.178275,28.642497]}},{"type":"Feature","properties":{"osm_id":"6547772115","station_name":"Patel Nagar","element_type":"node","station_id":"6547772115"},"geometry":{"type":"Point","coordinates":[77.169279,28.645012]}},{"type":"Feature","properties":{"osm_id":"6547772114","station_name":"Shadipur","element_type":"node","station_id":"6547772114"},"geometry":{"type":"Point","coordinates":[77.158256,28.651584]}},{"type":"Feature","properties":{"osm_id":"6547772113","station_name":"Kirti Nagar (Blue Line)","element_type":"node","station_id":"6547772113"},"geometry":{"type":"Point","coordinates":[77.15101,28.655145]}},{"type":"Feature","properties":{"osm_id":"6547772112","station_name":"Moti Nagar","element_type":"node","station_id":"6547772112"},"geometry":{"type":"Point","coordinates":[77.142431,28.65786]}},{"type":"Feature","properties":{"osm_id":"6547772111","station_name":"Ramesh Nagar","element_type":"node","station_id":"6547772111"},"geometry":{"type":"Point","coordinates":[77.131651,28.652745]}},{"type":"Feature","properties":{"osm_id":"249823630","station_name":"Rajouri Garden (Blue Line)","element_type":"node","station_id":"249823630"},"geometry":{"type":"Point","coordinates":[77.122733,28.649056]}},{"type":"Feature","properties":{"osm_id":"663798999","station_name":"Tagore Garden","element_type":"node","station_id":"663798999"},"geometry":{"type":"Point","coordinates":[77.112857,28.643747]}},{"type":"Feature","properties":{"osm_id":"610886106","station_name":"Subhash Nagar","element_type":"node","station_id":"610886106"},"geometry":{"type":"Point","coordinates":[77.105225,28.640482]}},{"type":"Feature","properties":{"osm_id":"347677816","station_name":"Tilak Nagar","element_type":"node","station_id":"347677816"},"geometry":{"type":"Point","coordinates":[77.096472,28.636546]}},{"type":"Feature","properties":{"osm_id":"913550169","station_name":"Janakpuri East","element_type":"node","station_id":"913550169"},"geometry":{"type":"Point","coordinates":[77.086718,28.633008]}},{"type":"Feature","properties":{"osm_id":"347685192","station_name":"Janakpuri West","element_type":"node","station_id":"JPW"},"geometry":{"type":"Point","coordinates":[77.078016,28.629272]}},{"type":"Feature","properties":{"osm_id":"347685176","station_name":"Uttam Nagar East","element_type":"node","station_id":"347685176"},"geometry":{"type":"Point","coordinates":[77.065288,28.624849]}},{"type":"Feature","properties":{"osm_id":"249823566","station_name":"Uttam Nagar West","element_type":"node","station_id":"249823566"},"geometry":{"type":"Point","coordinates":[77.055714,28.621757]}},{"type":"Feature","properties":{"osm_id":"249823558","station_name":"Nawada","element_type":"node","station_id":"249823558"},"geometry":{"type":"Point","coordinates":[77.045081,28.620277]}},{"type":"Feature","properties":{"osm_id":"249823552","station_name":"Dwarka Mor","element_type":"node","station_id":"DM"},"geometry":{"type":"Point","coordinates":[77.03328,28.619312]}},{"type":"Feature","properties":{"osm_id":"249235048","station_name":"Dwarka - Kakrola (Blue Line)","element_type":"node","station_id":"DW"},"geometry":{"type":"Point","coordinates":[77.022764,28.614938]}},{"type":"Feature","properties":{"osm_id":"249823531","station_name":"Dwarka Sector 14","element_type":"node","station_id":"DSFN"},"geometry":{"type":"Point","coordinates":[77.025978,28.602219]}},{"type":"Feature","properties":{"osm_id":"249235042","station_name":"Dwarka Sector 13","element_type":"node","station_id":"DSTN"},"geometry":{"type":"Point","coordinates":[77.033542,28.597009]}},{"type":"Feature","properties":{"osm_id":"249235041","station_name":"Dwarka Sector 12","element_type":"node","station_id":"DSW"},"geometry":{"type":"Point","coordinates":[77.040732,28.592236]}},{"type":"Feature","properties":{"osm_id":"347688420","station_name":"Dwarka Sector 11","element_type":"node","station_id":"DSE"},"geometry":{"type":"Point","coordinates":[77.049441,28.586446]}},{"type":"Feature","properties":{"osm_id":"347688434","station_name":"Dwarka Sector 10","element_type":"node","station_id":"DST"},"geometry":{"type":"Point","coordinates":[77.057501,28.581057]}},{"type":"Feature","properties":{"osm_id":"347688615","station_name":"Dwarka Sector 9","element_type":"node","station_id":"DSN"},"geometry":{"type":"Point","coordinates":[77.06533,28.574273]}},{"type":"Feature","properties":{"osm_id":"347688730","station_name":"Dwarka Sector 8","element_type":"node","station_id":"DSET"},"geometry":{"type":"Point","coordinates":[77.067039,28.565611]}},{"type":"Feature","properties":{"osm_id":"347688731","station_name":"Dwarka Sector 21","element_type":"node","station_id":"347688731"},"geometry":{"type":"Point","coordinates":[77.058557,28.551912]}}]}