{"type":"FeatureCollection","generator":"metroOsmFetch (OpenStreetMap / Overpass, ODbL)","features":[{"type":"Feature","properties":{"route_company":"Delhi Metro Rail Corporation Limited","route_id":"3","element_type":"way","color":"#4169e1","route_name":"Blue Line (Noida Electronic City → Dwarka Sector 21)","osm_id":"447209","railway":"subway","status":"open"},"geometry":{"type":"LineString","coordinates":[[77.375096,28.62826],[77.373622,28.616983],[77.372721,28.606525],[77.372309,28.597579],[77.372802,28.586735],[77.363522,28.580228],[77.35625,28.574785],[77.346399,28.567427],[77.334115,28.56392],[77.326147,28.570789],[77.317829,28.578107],[77.311681,28.584926],[77.302018,28.590204],[77.294428,28.594467],[77.290088,28.603777],[77.279526,28.617879],[77.267998,28.623224],[77.249545,28.620583],[77.242512,28.623459],[77.234193,28.625542],[77.224996,28.629753],[77.219556,28.632751],[77.208568,28.639225],[77.199905,28.6443],[77.188528,28.643991],[77.178279,28.642477],[77.169266,28.644995],[77.158243,28.651566],[77.15065,28.655729],[77.142443,28.657842],[77.131657,28.652725],[77.122743,28.649037],[77.11287,28.643729],[77.105235,28.640463],[77.096482,28.636527],[77.086727,28.632989],[77.078009,28.629258],[77.065297,28.62483],[77.055719,28.621737],[77.045084,28.620256],[77.033284,28.619291],[77.022786,28.614932],[77.025994,28.602234],[77.033556,28.597025],[77.040746,28.592252],[77.049455,28.586462],[77.057515,28.581073],[77.065351,28.574282],[77.067062,28.565608],[77.058557,28.551912]]}},{"type":"Feature","properties":{"osm_id":"6325711755","station_name":"Noida Electronic City","element_type":"node","station_id":"6325711755"},"geometry":{"type":"Point","coordinates":[77.375096,28.62826]}},{"type":"Feature","properties":{"osm_id":"5777613716","station_name":"Noida Sector 62","element_type":"node","station_id":"5777613716"},"geometry":{"type":"Point","coordinates":[77.373622,28.616983]}},{"type":"Feature","properties":{"osm_id":"5777613718","station_name":"Noida Sector 59","element_type":"node","station_id":"5777613718"},"geometry":{"type":"Point","coordinates":[77.372721,28.606525]}},{"type":"Feature","properties":{"osm_id":"5777613720","station_name":"Noida Sector 61","element_type":"node","station_id":"5777613720"},"geometry":{"type":"Point","coordinates":[77.372309,28.597579]}},{"type":"Feature","properties":{"osm_id":"5777613736","station_name":"Noida Sector 52","element_type":"node","station_id":"5777613736"},"geometry":{"type":"Point","coordinates":[77.372802,28.586735]}},{"type":"Feature","properties":{"osm_id":"5777613740","station_name":"Noida Sector 34","element_type":"node","station_id":"5777613740"},"geometry":{"type":"Point","coordinates":[77.363522,28.580228]}},{"type":"Feature","properties":{"osm_id":"5777613746","station_name":"Noida City Centre","element_type":"node","station_id":"5777613746"},"geometry":{"type":"Point","coordinates":[77.35625,28.574785]}},{"type":"Feature","properties":{"osm_id":"5777613749","station_name":"Noida Golf Course","element_type":"node","station_id":"5777613749"},"geometry":{"type":"Point","coordinates":[77.346399,28.567427]}},{"type":"Feature","properties":{"osm_id":"5777613864","station_name":"Botanical Garden","element_type":"node","station_id":"BCGN"},"geometry":{"type":"Point","coordinates":[77.334115,28.56392]}},{"type":"Feature","properties":{"osm_id":"5777613870","station_name":"Noida Sector 18","element_type":"node","station_id":"NSET"},"geometry":{"type":"Point","coordinates":[77.326147,28.570789]}},{"type":"Feature","properties":{"osm_id":"5777613877","station_name":"Noida Sector 16","element_type":"node","station_id":"NSST"},"geometry":{"type":"Point","coordinates":[77.317829,28.578107]}},{"type":"Feature","properties":{"osm_id":"5777613883","station_name":"Noida Sector 15","element_type":"node","station_id":"NSFT"},"geometry":{"type":"Point","coordinates":[77.311681,28.584926]}},{"type":"Feature","properties":{"osm_id":"5777613898","station_name":"New Ashok Nagar","element_type":"node","station_id":"NAGR"},"geometry":{"type":"Point","coordinates":[77.302018,28.590204]}},{"type":"Feature","properties":{"osm_id":"5777613909","station_name":"Mayur Vihar Extension","element_type":"node","station_id":"MVE"},"geometry":{"type":"Point","coordinates":[77.294428,28.594467]}},{"type":"Feature","properties":{"osm_id":"5777613919","station_name":"Mayur Vihar - I (Blue Line)","element_type":"node","station_id":"5777613919"},"geometry":{"type":"Point","coordinates":[77.290088,28.603777]}},{"type":"Feature","properties":{"osm_id":"5777613940","station_name":"Akshardham","element_type":"node","station_id":"5777613940"},"geometry":{"type":"Point","coordinates":[77.279526,28.617879]}},{"type":"Feature","properties":{"osm_id":"6537317882","station_name":"Yamuna Bank","element_type":"node","station_id":"6537317882"},"geometry":{"type":"Point","coordinates":[77.267998,28.623224]}},{"type":"Feature","properties":{"osm_id":"554257831","station_name":"Indraprastha","element_type":"node","station_id":"554257831"},"geometry":{"type":"Point","coordinates":[77.249545,28.620583]}},{"type":"Feature","properties":{"osm_id":"554257824","station_name":"Supreme Court","element_type":"node","station_id":"554257824"},"geometry":{"type":"Point","coordinates":[77.242512,28.623459]}},{"type":"Feature","properties":{"osm_id":"554257827","station_name":"Mandi House","element_type":"node","station_id":"MDHS"},"geometry":{"type":"Point","coordinates":[77.234193,28.625542]}},{"type":"Feature","properties":{"osm_id":"554257839","station_name":"Barakhambha Road","element_type":"node","station_id":"554257839"},"geometry":{"type":"Point","coordinates":[77.224996,28.629753]}},{"type":"Feature","properties":{"osm_id":"939091076","station_name":"Rajiv Chowk","element_type":"node","station_id":"RCK"},"geometry":{"type":"Point","coordinates":[77.219556,28.632751]}},{"type":"Feature","properties":{"osm_id":"554257820","station_name":"Ramakrishna Ashram Marg","element_type":"node","station_id":"554257820"},"geometry":{"type":"Point","coordinates":[77.208568,28.639225]}},{"type":"Feature","properties":{"osm_id":"345234443","station_name":"Jhandewalan","element_type":"node","station_id":"345234443"},"geometry":{"type":"Point","coordinates":[77.199905,28.6443]}},{"type":"Feature","properties":{"osm_id":"6547772123","station_name":"Karol Bagh","element_type":"node","station_id":"6547772123"},"geometry":{"type":"Point","coordinates":[77.188528,28.643991]}},{"type":"Feature","properties":{"osm_id":"345234440","station_name":"Rajendra Place","element_type":"node","station_id":"345234440"},"geometry":{"type":"Point","coordinates":[77.178279,28.642477]}},{"type":"Feature","properties":{"osm_id":"6547772115","station_name":"Patel Nagar","element_type":"node","station_id":"6547772115"},"geometry":{"type":"Point","coordinates":[77.169266,28.644995]}},{"type":"Feature","properties":{"osm_id":"6547772114","station_name":"Shadipur","element_type":"node","station_id":"6547772114"},"geometry":{"type":"Point","coordinates":[77.158243,28.651566]}},{"type":"Feature","properties":{"osm_id":"6547772113","station_name":"Kirti Nagar (Blue Line)","element_type":"node","station_id":"6547772113"},"geometry":{"type":"Point","coordinates":[77.15065,28.655729]}},{"type":"Feature","properties":{"osm_id":"6547772112","station_name":"Moti Nagar","element_type":"node","station_id":"6547772112"},"geometry":{"type":"Point","coordinates":[77.142443,28.657842]}},{"type":"Feature","properties":{"osm_id":"6547772111","station_name":"Ramesh Nagar","element_type":"node","station_id":"6547772111"},"geometry":{"type":"Point","coordinates":[77.131657,28.652725]}},{"type":"Feature","properties":{"osm_id":"249823630","station_name":"Rajouri Garden (Blue Line)","element_type":"node","station_id":"249823630"},"geometry":{"type":"Point","coordinates":[77.122743,28.649037]}},{"type":"Feature","properties":{"osm_id":"663798999","station_name":"Tagore Garden","element_type":"node","station_id":"663798999"},"geometry":{"type":"Point","coordinates":[77.11287,28.643729]}},{"type":"Feature","properties":{"osm_id":"610886106","station_name":"Subhash Nagar","element_type":"node","station_id":"610886106"},"geometry":{"type":"Point","coordinates":[77.105235,28.640463]}},{"type":"Feature","properties":{"osm_id":"347677816","station_name":"Tilak Nagar","element_type":"node","station_id":"347677816"},"geometry":{"type":"Point","coordinates":[77.096482,28.636527]}},{"type":"Feature","properties":{"osm_id":"913550169","station_name":"Janakpuri East","element_type":"node","station_id":"913550169"},"geometry":{"type":"Point","coordinates":[77.086727,28.632989]}},{"type":"Feature","properties":{"osm_id":"347685192","station_name":"Janakpuri West","element_type":"node","station_id":"JPW"},"geometry":{"type":"Point","coordinates":[77.078009,28.629258]}},{"type":"Feature","properties":{"osm_id":"347685176","station_name":"Uttam Nagar East","element_type":"node","station_id":"347685176"},"geometry":{"type":"Point","coordinates":[77.065297,28.62483]}},{"type":"Feature","properties":{"osm_id":"249823566","station_name":"Uttam Nagar West","element_type":"node","station_id":"249823566"},"geometry":{"type":"Point","coordinates":[77.055719,28.621737]}},{"type":"Feature","properties":{"osm_id":"249823558","station_name":"Nawada","element_type":"node","station_id":"249823558"},"geometry":{"type":"Point","coordinates":[77.045084,28.620256]}},{"type":"Feature","properties":{"osm_id":"249823552","station_name":"Dwarka Mor","element_type":"node","station_id":"DM"},"geometry":{"type":"Point","coordinates":[77.033284,28.619291]}},{"type":"Feature","properties":{"osm_id":"249235048","station_name":"Dwarka - Kakrola (Blue Line)","element_type":"node","station_id":"DW"},"geometry":{"type":"Point","coordinates":[77.022786,28.614932]}},{"type":"Feature","properties":{"osm_id":"249823531","station_name":"Dwarka Sector 14","element_type":"node","station_id":"DSFN"},"geometry":{"type":"Point","coordinates":[77.025994,28.602234]}},{"type":"Feature","properties":{"osm_id":"249235042","station_name":"Dwarka Sector 13","element_type":"node","station_id":"DSTN"},"geometry":{"type":"Point","coordinates":[77.033556,28.597025]}},{"type":"Feature","properties":{"osm_id":"249235041","station_name":"Dwarka Sector 12","element_type":"node","station_id":"DSW"},"geometry":{"type":"Point","coordinates":[77.040746,28.592252]}},{"type":"Feature","properties":{"osm_id":"347688420","station_name":"Dwarka Sector 11","element_type":"node","station_id":"DSE"},"geometry":{"type":"Point","coordinates":[77.049455,28.586462]}},{"type":"Feature","properties":{"osm_id":"347688434","station_name":"Dwarka Sector 10","element_type":"node","station_id":"DST"},"geometry":{"type":"Point","coordinates":[77.057515,28.581073]}},{"type":"Feature","properties":{"osm_id":"347688615","station_name":"Dwarka Sector 9","element_type":"node","station_id":"DSN"},"geometry":{"type":"Point","coordinates":[77.065351,28.574282]}},{"type":"Feature","properties":{"osm_id":"347688730","station_name":"Dwarka Sector 8","element_type":"node","station_id":"DSET"},"geometry":{"type":"Point","coordinates":[77.067062,28.565608]}},{"type":"Feature","properties":{"osm_id":"347688731","station_name":"Dwarka Sector 21","element_type":"node","station_id":"347688731"},"geometry":{"type":"Point","coordinates":[77.058557,28.551912]}},{"type":"Feature","properties":{"route_company":"","route_id":"538930428","element_type":"way","color":"#3cb44b","route_name":"Botanical Garden to Noida Sector 142 (Route-2)","osm_id":"538930428","railway":"subway","status":"proposed"},"geometry":{"type":"LineString","coordinates":[[77.334278,28.563483],[77.337475,28.554985],[77.337119,28.553239],[77.333773,28.549427],[77.335745,28.547015],[77.376221,28.520937],[77.390199,28.507469],[77.406651,28.500476],[77.41047,28.499773]]}},{"type":"Feature","properties":{"route_company":"","route_id":"538930429","element_type":"way","color":"#4363d8","route_name":"Aqua Line - Extension Sector 51 to Knowledge Park V","osm_id":"538930429","railway":"subway","status":"proposed"},"geometry":{"type":"LineString","coordinates":[[77.375049,28.588175],[77.375165,28.590263],[77.372436,28.595966],[77.3733,28.600908],[77.388698,28.600759],[77.389298,28.594787],[77.43829,28.60707],[77.443302,28.606523],[77.447803,28.604245],[77.456696,28.59568],[77.470219,28.572007],[77.490921,28.547398]]}}]}