{"type":"FeatureCollection","generator":"metroOsmFetch (OpenStreetMap / Overpass, ODbL)","features":[{"type":"Feature","properties":{"route_company":"MahaMetro","route_id":"2","element_type":"way","color":"#007cb0","route_name":"Aqua Line: Ramwadi => Vanaz","osm_id":"13916704","railway":"subway","status":"open"},"geometry":{"type":"LineString","coordinates":[[73.908125,18.556727],[73.905712,18.544449],[73.886624,18.545282],[73.883454,18.54058],[73.877763,18.532707],[73.872597,18.529723],[73.865058,18.530052],[73.857223,18.526573],[73.852823,18.522497],[73.846971,18.519659],[73.844458,18.516426],[73.838062,18.511974],[73.828789,18.507341],[73.822125,18.508877],[73.814079,18.509553],[73.805227,18.507174]]}},{"type":"Feature","properties":{"route_company":"MahaMetro","route_id":"1","element_type":"way","color":"#903373","route_name":"Purple Line: Swargate → PCMC Bhavan","osm_id":"13917122","railway":"subway","status":"open"},"geometry":{"type":"LineString","coordinates":[[73.857406,18.49975],[73.856953,18.512904],[73.859557,18.521422],[73.857223,18.526573],[73.849601,18.532155],[73.845786,18.550287],[73.842065,18.562251],[73.837898,18.57014],[73.833754,18.583733],[73.831128,18.591101],[73.827245,18.599614],[73.820081,18.609294],[73.81573,18.614512],[73.803275,18.629303]]}},{"type":"Feature","properties":{"osm_id":"11699340656","station_name":"Ramwadi","element_type":"node","station_id":"11699340656"},"geometry":{"type":"Point","coordinates":[73.908125,18.556727]}},{"type":"Feature","properties":{"osm_id":"11699340654","station_name":"Kalyani Nagar","element_type":"node","station_id":"11699340654"},"geometry":{"type":"Point","coordinates":[73.905712,18.544449]}},{"type":"Feature","properties":{"osm_id":"11699340651","station_name":"Yerwada","element_type":"node","station_id":"11699340651"},"geometry":{"type":"Point","coordinates":[73.886624,18.545282]}},{"type":"Feature","properties":{"osm_id":"11699340648","station_name":"Bund Garden","element_type":"node","station_id":"11699340648"},"geometry":{"type":"Point","coordinates":[73.883454,18.54058]}},{"type":"Feature","properties":{"osm_id":"11097527711","station_name":"Ruby Hall Clinic","element_type":"node","station_id":"11097527711"},"geometry":{"type":"Point","coordinates":[73.877763,18.532707]}},{"type":"Feature","properties":{"osm_id":"11097527713","station_name":"Pune Railway Station","element_type":"node","station_id":"11097527713"},"geometry":{"type":"Point","coordinates":[73.872597,18.529723]}},{"type":"Feature","properties":{"osm_id":"11097527716","station_name":"Mangalwar Peth","element_type":"node","station_id":"11097527716"},"geometry":{"type":"Point","coordinates":[73.865058,18.530052]}},{"type":"Feature","properties":{"osm_id":"11097527720","station_name":"District Court (Aqua Line)","element_type":"node","station_id":"11097527720"},"geometry":{"type":"Point","coordinates":[73.857223,18.526573]}},{"type":"Feature","properties":{"osm_id":"11097527722","station_name":"PMC Bhavan","element_type":"node","station_id":"11097527722"},"geometry":{"type":"Point","coordinates":[73.852823,18.522497]}},{"type":"Feature","properties":{"osm_id":"11097527717","station_name":"Chhatrapati Sambhaji Udyan","element_type":"node","station_id":"11097527717"},"geometry":{"type":"Point","coordinates":[73.846971,18.519659]}},{"type":"Feature","properties":{"osm_id":"7944584968","station_name":"Deccan Gymkhana","element_type":"node","station_id":"7944584968"},"geometry":{"type":"Point","coordinates":[73.844458,18.516426]}},{"type":"Feature","properties":{"osm_id":"9572608811","station_name":"Garware College","element_type":"node","station_id":"9572608811"},"geometry":{"type":"Point","coordinates":[73.838062,18.511974]}},{"type":"Feature","properties":{"osm_id":"9572650936","station_name":"SNDT College","element_type":"node","station_id":"9572650936"},"geometry":{"type":"Point","coordinates":[73.828789,18.507341]}},{"type":"Feature","properties":{"osm_id":"9572650877","station_name":"Paud Phata","element_type":"node","station_id":"9572650877"},"geometry":{"type":"Point","coordinates":[73.822125,18.508877]}},{"type":"Feature","properties":{"osm_id":"9572650850","station_name":"Anandnagar","element_type":"node","station_id":"9572650850"},"geometry":{"type":"Point","coordinates":[73.814079,18.509553]}},{"type":"Feature","properties":{"osm_id":"9572650829","station_name":"Vanaz","element_type":"node","station_id":"9572650829"},"geometry":{"type":"Point","coordinates":[73.805227,18.507174]}},{"type":"Feature","properties":{"osm_id":"12211960138","station_name":"Swargate","element_type":"node","station_id":"12211960138"},"geometry":{"type":"Point","coordinates":[73.857406,18.49975]}},{"type":"Feature","properties":{"osm_id":"12211960102","station_name":"महात्मा फुले मंदाई","element_type":"node","station_id":"12211960102"},"geometry":{"type":"Point","coordinates":[73.856953,18.512904]}},{"type":"Feature","properties":{"osm_id":"5573156998","station_name":"कसबा पेठ","element_type":"node","station_id":"5573156998"},"geometry":{"type":"Point","coordinates":[73.859557,18.521422]}},{"type":"Feature","properties":{"osm_id":"11097510270","station_name":"Shivaji Nagar","element_type":"node","station_id":"11097510270"},"geometry":{"type":"Point","coordinates":[73.849601,18.532155]}},{"type":"Feature","properties":{"osm_id":"13658400784","station_name":"Range Hills","element_type":"node","station_id":"13658400784"},"geometry":{"type":"Point","coordinates":[73.845786,18.550287]}},{"type":"Feature","properties":{"osm_id":"13658400786","station_name":"Khadki","element_type":"node","station_id":"13658400786"},"geometry":{"type":"Point","coordinates":[73.842065,18.562251]}},{"type":"Feature","properties":{"osm_id":"11098863084","station_name":"Bopodi","element_type":"node","station_id":"11098863084"},"geometry":{"type":"Point","coordinates":[73.837898,18.57014]}},{"type":"Feature","properties":{"osm_id":"11098863102","station_name":"Dapodi","element_type":"node","station_id":"11098863102"},"geometry":{"type":"Point","coordinates":[73.833754,18.583733]}},{"type":"Feature","properties":{"osm_id":"9572921037","station_name":"Phugewadi","element_type":"node","station_id":"9572921037"},"geometry":{"type":"Point","coordinates":[73.831128,18.591101]}},{"type":"Feature","properties":{"osm_id":"9572921043","station_name":"Kasarwadi","element_type":"node","station_id":"9572921043"},"geometry":{"type":"Point","coordinates":[73.827245,18.599614]}},{"type":"Feature","properties":{"osm_id":"9572921098","station_name":"Nashik Phata","element_type":"node","station_id":"9572921098"},"geometry":{"type":"Point","coordinates":[73.820081,18.609294]}},{"type":"Feature","properties":{"osm_id":"9572921112","station_name":"Sant Tukaram Nagar","element_type":"node","station_id":"9572921112"},"geometry":{"type":"Point","coordinates":[73.81573,18.614512]}},{"type":"Feature","properties":{"osm_id":"9572921031","station_name":"PCMC Bhavan","element_type":"node","station_id":"9572921031"},"geometry":{"type":"Point","coordinates":[73.803275,18.629303]}}]}