{"type":"FeatureCollection","generator":"metroOsmFetch (OpenStreetMap / Overpass, ODbL)","features":[{"type":"Feature","properties":{"osm_id":"11699340656","station_name":"Ramwadi","element_type":"node","station_id":"11699340656"},"geometry":{"type":"Point","coordinates":[73.908553,18.557035]}},{"type":"Feature","properties":{"osm_id":"11699340654","station_name":"Kalyani Nagar","element_type":"node","station_id":"11699340654"},"geometry":{"type":"Point","coordinates":[73.90569,18.544457]}},{"type":"Feature","properties":{"osm_id":"11699340651","station_name":"Yerwada","element_type":"node","station_id":"11699340651"},"geometry":{"type":"Point","coordinates":[73.886621,18.545301]}},{"type":"Feature","properties":{"osm_id":"11699340648","station_name":"Bund Garden","element_type":"node","station_id":"11699340648"},"geometry":{"type":"Point","coordinates":[73.883436,18.54059]}},{"type":"Feature","properties":{"osm_id":"11097527711","station_name":"Ruby Hall Clinic","element_type":"node","station_id":"11097527711"},"geometry":{"type":"Point","coordinates":[73.877747,18.532722]}},{"type":"Feature","properties":{"osm_id":"11097527713","station_name":"Pune Railway Station","element_type":"node","station_id":"11097527713"},"geometry":{"type":"Point","coordinates":[73.872598,18.529751]}},{"type":"Feature","properties":{"osm_id":"11097527716","station_name":"Mangalwar Peth","element_type":"node","station_id":"11097527716"},"geometry":{"type":"Point","coordinates":[73.865056,18.530078]}},{"type":"Feature","properties":{"osm_id":"11097527720","station_name":"District Court (Aqua Line)","element_type":"node","station_id":"11097527720"},"geometry":{"type":"Point","coordinates":[73.85736,18.526804]}},{"type":"Feature","properties":{"osm_id":"11097527722","station_name":"PMC Bhavan","element_type":"node","station_id":"11097527722"},"geometry":{"type":"Point","coordinates":[73.853293,18.522717]}},{"type":"Feature","properties":{"osm_id":"11097527717","station_name":"Chhatrapati Sambhaji Udyan","element_type":"node","station_id":"11097527717"},"geometry":{"type":"Point","coordinates":[73.847392,18.520095]}},{"type":"Feature","properties":{"osm_id":"7944584968","station_name":"Deccan Gymkhana","element_type":"node","station_id":"7944584968"},"geometry":{"type":"Point","coordinates":[73.844442,18.516447]}},{"type":"Feature","properties":{"osm_id":"9572608811","station_name":"Garware College","element_type":"node","station_id":"9572608811"},"geometry":{"type":"Point","coordinates":[73.838052,18.511989]}},{"type":"Feature","properties":{"osm_id":"9572650936","station_name":"SNDT College","element_type":"node","station_id":"9572650936"},"geometry":{"type":"Point","coordinates":[73.828781,18.507357]}},{"type":"Feature","properties":{"osm_id":"9572650877","station_name":"Paud Phata","element_type":"node","station_id":"9572650877"},"geometry":{"type":"Point","coordinates":[73.822143,18.508885]}},{"type":"Feature","properties":{"osm_id":"9572650850","station_name":"Anandnagar","element_type":"node","station_id":"9572650850"},"geometry":{"type":"Point","coordinates":[73.814076,18.509571]}},{"type":"Feature","properties":{"osm_id":"9572650829","station_name":"Vanaz","element_type":"node","station_id":"9572650829"},"geometry":{"type":"Point","coordinates":[73.805227,18.507193]}},{"type":"Feature","properties":{"osm_id":"9572921031","station_name":"PCMC Bhavan","element_type":"node","station_id":"9572921031"},"geometry":{"type":"Point","coordinates":[73.803288,18.629317]}},{"type":"Feature","properties":{"osm_id":"9572921112","station_name":"Sant Tukaram Nagar","element_type":"node","station_id":"9572921112"},"geometry":{"type":"Point","coordinates":[73.815744,18.614524]}},{"type":"Feature","properties":{"osm_id":"9572921098","station_name":"Nashik Phata","element_type":"node","station_id":"9572921098"},"geometry":{"type":"Point","coordinates":[73.820097,18.609305]}},{"type":"Feature","properties":{"osm_id":"9572921043","station_name":"Kasarwadi","element_type":"node","station_id":"9572921043"},"geometry":{"type":"Point","coordinates":[73.827263,18.599621]}},{"type":"Feature","properties":{"osm_id":"9572921037","station_name":"Phugewadi","element_type":"node","station_id":"9572921037"},"geometry":{"type":"Point","coordinates":[73.831146,18.591107]}},{"type":"Feature","properties":{"osm_id":"11098863102","station_name":"Dapodi","element_type":"node","station_id":"11098863102"},"geometry":{"type":"Point","coordinates":[73.833775,18.58374]}},{"type":"Feature","properties":{"osm_id":"11098863084","station_name":"Bopodi","element_type":"node","station_id":"11098863084"},"geometry":{"type":"Point","coordinates":[73.838107,18.569654]}},{"type":"Feature","properties":{"osm_id":"13658400786","station_name":"Khadki","element_type":"node","station_id":"13658400786"},"geometry":{"type":"Point","coordinates":[73.842085,18.562263]}},{"type":"Feature","properties":{"osm_id":"13658400784","station_name":"Range Hills","element_type":"node","station_id":"13658400784"},"geometry":{"type":"Point","coordinates":[73.845811,18.550293]}},{"type":"Feature","properties":{"osm_id":"11097510270","station_name":"Shivaji Nagar","element_type":"node","station_id":"11097510270"},"geometry":{"type":"Point","coordinates":[73.849664,18.532169]}},{"type":"Feature","properties":{"osm_id":"5573156998","station_name":"कसबा पेठ","element_type":"node","station_id":"5573156998"},"geometry":{"type":"Point","coordinates":[73.85962,18.521393]}},{"type":"Feature","properties":{"osm_id":"12211960102","station_name":"महात्मा फुले मंदाई","element_type":"node","station_id":"12211960102"},"geometry":{"type":"Point","coordinates":[73.857017,18.512912]}},{"type":"Feature","properties":{"osm_id":"12211960138","station_name":"Swargate","element_type":"node","station_id":"12211960138"},"geometry":{"type":"Point","coordinates":[73.857463,18.49974]}},{"type":"Feature","properties":{"route_company":"MahaMetro","route_id":"2","element_type":"way","color":"#e6194b","route_name":"Aqua Line: Ramwadi => Vanaz","osm_id":"13916704","railway":"subway","status":"open"},"geometry":{"type":"LineString","coordinates":[[73.908553,18.557035],[73.90569,18.544457],[73.886621,18.545301],[73.883436,18.54059],[73.877747,18.532722],[73.872598,18.529751],[73.865056,18.530078],[73.85736,18.526804]]}},{"type":"Feature","properties":{"route_company":"MahaMetro","route_id":"2","element_type":"way","color":"#e6194b","route_name":"Aqua Line: Ramwadi => Vanaz","osm_id":"13916704","railway":"subway","status":"open"},"geometry":{"type":"LineString","coordinates":[[73.85736,18.526804],[73.853293,18.522717],[73.847392,18.520095],[73.844442,18.516447],[73.838052,18.511989],[73.828781,18.507357],[73.822143,18.508885],[73.814076,18.509571],[73.805227,18.507193]]}},{"type":"Feature","properties":{"route_company":"MahaMetro","route_id":"1","element_type":"way","color":"#3cb44b","route_name":"Purple Line: Swargate → PCMC Bhavan","osm_id":"13917122","railway":"subway","status":"open"},"geometry":{"type":"LineString","coordinates":[[73.803288,18.629317],[73.815744,18.614524],[73.820097,18.609305],[73.827263,18.599621],[73.831146,18.591107],[73.833775,18.58374],[73.838107,18.569654],[73.842085,18.562263],[73.845811,18.550293],[73.849664,18.532169],[73.85736,18.526804]]}},{"type":"Feature","properties":{"route_company":"MahaMetro","route_id":"1","element_type":"way","color":"#3cb44b","route_name":"Purple Line: Swargate → PCMC Bhavan","osm_id":"13917122","railway":"subway","status":"open"},"geometry":{"type":"LineString","coordinates":[[73.85736,18.526804],[73.85962,18.521393],[73.857017,18.512912],[73.857463,18.49974]]}}]}