{"type":"FeatureCollection","generator":"metroOsmFetch (OpenStreetMap / Overpass, ODbL)","features":[{"type":"Feature","properties":{"route_company":"MahaMetro","route_id":"2","element_type":"way","color":"#e6194b","route_name":"Aqua Line: Ramwadi => Vanaz","osm_id":"13916704","railway":"subway","status":"open"},"geometry":{"type":"LineString","coordinates":[[73.908125,18.556727],[73.905712,18.544449],[73.886624,18.545282],[73.883454,18.54058],[73.877763,18.532707],[73.872597,18.529723],[73.865445,18.53007],[73.857223,18.526573],[73.852823,18.522497],[73.846971,18.519659],[73.844458,18.516426],[73.838062,18.511974],[73.828789,18.507341],[73.822125,18.508877],[73.814079,18.509553],[73.805227,18.507174]]}},{"type":"Feature","properties":{"route_company":"MahaMetro","route_id":"1","element_type":"way","color":"#3cb44b","route_name":"Purple Line: Swargate → PCMC Bhavan","osm_id":"13917122","railway":"subway","status":"open"},"geometry":{"type":"LineString","coordinates":[[73.857406,18.49975],[73.856953,18.512904],[73.859557,18.521422],[73.857223,18.526573],[73.849601,18.532155],[73.845786,18.550287],[73.842065,18.562251],[73.837898,18.57014],[73.833754,18.583733],[73.831128,18.591101],[73.827245,18.599614],[73.820081,18.609294],[73.81573,18.614512],[73.803275,18.629303]]}},{"type":"Feature","properties":{"osm_id":"11699340656","station_name":"Ramwadi","element_type":"node","station_id":"11699340656"},"geometry":{"type":"Point","coordinates":[73.908125,18.556727]}},{"type":"Feature","properties":{"osm_id":"11699340654","station_name":"Kalyani Nagar","element_type":"node","station_id":"11699340654"},"geometry":{"type":"Point","coordinates":[73.905712,18.544449]}},{"type":"Feature","properties":{"osm_id":"11699340651","station_name":"Yerwada","element_type":"node","station_id":"11699340651"},"geometry":{"type":"Point","coordinates":[73.886624,18.545282]}},{"type":"Feature","properties":{"osm_id":"11699340648","station_name":"Bund Garden","element_type":"node","station_id":"11699340648"},"geometry":{"type":"Point","coordinates":[73.883454,18.54058]}},{"type":"Feature","properties":{"osm_id":"11097527711","station_name":"Ruby Hall Clinic","element_type":"node","station_id":"11097527711"},"geometry":{"type":"Point","coordinates":[73.877763,18.532707]}},{"type":"Feature","properties":{"osm_id":"11097527713","station_name":"Pune Railway Station","element_type":"node","station_id":"11097527713"},"geometry":{"type":"Point","coordinates":[73.872597,18.529723]}},{"type":"Feature","properties":{"osm_id":"11097527716","station_name":"Mangalwar Peth","element_type":"node","station_id":"11097527716"},"geometry":{"type":"Point","coordinates":[73.865445,18.53007]}},{"type":"Feature","properties":{"osm_id":"11097527720","station_name":"District Court (Aqua Line)","element_type":"node","station_id":"11097527720"},"geometry":{"type":"Point","coordinates":[73.857223,18.526573]}},{"type":"Feature","properties":{"osm_id":"11097527722","station_name":"PMC Bhavan","element_type":"node","station_id":"11097527722"},"geometry":{"type":"Point","coordinates":[73.852823,18.522497]}},{"type":"Feature","properties":{"osm_id":"11097527717","station_name":"Chhatrapati Sambhaji Udyan","element_type":"node","station_id":"11097527717"},"geometry":{"type":"Point","coordinates":[73.846971,18.519659]}},{"type":"Feature","properties":{"osm_id":"7944584968","station_name":"Deccan Gymkhana","element_type":"node","station_id":"7944584968"},"geometry":{"type":"Point","coordinates":[73.844458,18.516426]}},{"type":"Feature","properties":{"osm_id":"9572608811","station_name":"Garware College","element_type":"node","station_id":"9572608811"},"geometry":{"type":"Point","coordinates":[73.838062,18.511974]}},{"type":"Feature","properties":{"osm_id":"9572650936","station_name":"SNDT College","element_type":"node","station_id":"9572650936"},"geometry":{"type":"Point","coordinates":[73.828789,18.507341]}},{"type":"Feature","properties":{"osm_id":"9572650877","station_name":"Paud Phata","element_type":"node","station_id":"9572650877"},"geometry":{"type":"Point","coordinates":[73.822125,18.508877]}},{"type":"Feature","properties":{"osm_id":"9572650850","station_name":"Anandnagar","element_type":"node","station_id":"9572650850"},"geometry":{"type":"Point","coordinates":[73.814079,18.509553]}},{"type":"Feature","properties":{"osm_id":"9572650829","station_name":"Vanaz","element_type":"node","station_id":"9572650829"},"geometry":{"type":"Point","coordinates":[73.805227,18.507174]}},{"type":"Feature","properties":{"osm_id":"12211960138","station_name":"स्वारगेट","element_type":"node","station_id":"12211960138"},"geometry":{"type":"Point","coordinates":[73.857406,18.49975]}},{"type":"Feature","properties":{"osm_id":"12211960102","station_name":"महात्मा फुले मंदाई","element_type":"node","station_id":"12211960102"},"geometry":{"type":"Point","coordinates":[73.856953,18.512904]}},{"type":"Feature","properties":{"osm_id":"5573156998","station_name":"कसबा पेठ","element_type":"node","station_id":"5573156998"},"geometry":{"type":"Point","coordinates":[73.859557,18.521422]}},{"type":"Feature","properties":{"osm_id":"11097510270","station_name":"Shivaji Nagar","element_type":"node","station_id":"11097510270"},"geometry":{"type":"Point","coordinates":[73.849601,18.532155]}},{"type":"Feature","properties":{"osm_id":"13658400784","station_name":"Range Hills","element_type":"node","station_id":"13658400784"},"geometry":{"type":"Point","coordinates":[73.845786,18.550287]}},{"type":"Feature","properties":{"osm_id":"13658400786","station_name":"Khadki","element_type":"node","station_id":"13658400786"},"geometry":{"type":"Point","coordinates":[73.842065,18.562251]}},{"type":"Feature","properties":{"osm_id":"11098863084","station_name":"Bopodi","element_type":"node","station_id":"11098863084"},"geometry":{"type":"Point","coordinates":[73.837898,18.57014]}},{"type":"Feature","properties":{"osm_id":"11098863102","station_name":"Dapodi","element_type":"node","station_id":"11098863102"},"geometry":{"type":"Point","coordinates":[73.833754,18.583733]}},{"type":"Feature","properties":{"osm_id":"9572921037","station_name":"Phugewadi","element_type":"node","station_id":"9572921037"},"geometry":{"type":"Point","coordinates":[73.831128,18.591101]}},{"type":"Feature","properties":{"osm_id":"9572921043","station_name":"Kasarwadi","element_type":"node","station_id":"9572921043"},"geometry":{"type":"Point","coordinates":[73.827245,18.599614]}},{"type":"Feature","properties":{"osm_id":"9572921098","station_name":"Nashik Phata","element_type":"node","station_id":"9572921098"},"geometry":{"type":"Point","coordinates":[73.820081,18.609294]}},{"type":"Feature","properties":{"osm_id":"9572921112","station_name":"Sant Tukaram Nagar","element_type":"node","station_id":"9572921112"},"geometry":{"type":"Point","coordinates":[73.81573,18.614512]}},{"type":"Feature","properties":{"osm_id":"9572921031","station_name":"PCMC Bhavan","element_type":"node","station_id":"9572921031"},"geometry":{"type":"Point","coordinates":[73.803275,18.629303]}},{"type":"Feature","properties":{"route_company":"","route_id":"586117038","element_type":"way","color":"#4363d8","route_name":"Pune Metro Line 3 (Shivajinagar-Hinjawadi Phase 3)","osm_id":"586117038","railway":"subway","status":"construction"},"geometry":{"type":"LineString","coordinates":[[73.698584,18.581213],[73.695785,18.578451],[73.692886,18.573434],[73.688753,18.573996],[73.688261,18.58238],[73.693401,18.583358],[73.704671,18.588649],[73.707956,18.593466],[73.712954,18.595969],[73.719171,18.596921],[73.722602,18.594673],[73.735212,18.593874],[73.738805,18.591405],[73.741226,18.591023],[73.751402,18.590841],[73.756579,18.591844],[73.763168,18.575563],[73.769516,18.575208],[73.774358,18.573474],[73.775051,18.568992],[73.777319,18.564366],[73.782658,18.563703],[73.784447,18.561858],[73.787205,18.561388],[73.791872,18.558661],[73.79577,18.555205],[73.801261,18.55454],[73.805516,18.550852],[73.822795,18.545217],[73.826079,18.542625],[73.829237,18.541796],[73.843326,18.531825],[73.859217,18.528157]]}}]}