{"type":"FeatureCollection","generator":"metroOsmFetch (OpenStreetMap / Overpass, ODbL)","features":[{"type":"Feature","properties":{"osm_id":"9814154914","station_name":"Brignole","element_type":"node","station_id":"9814154914"},"geometry":{"type":"Point","coordinates":[8.948501,44.407269]}},{"type":"Feature","properties":{"osm_id":"9814107554","station_name":"De Ferrari","element_type":"node","station_id":"9814107554"},"geometry":{"type":"Point","coordinates":[8.934758,44.407178]}},{"type":"Feature","properties":{"osm_id":"9530873691","station_name":"Sarzano/Sant'Agostino","element_type":"node","station_id":"9530873691"},"geometry":{"type":"Point","coordinates":[8.931725,44.404308]}},{"type":"Feature","properties":{"osm_id":"9814117602","station_name":"San Giorgio","element_type":"node","station_id":"9814117602"},"geometry":{"type":"Point","coordinates":[8.928601,44.408782]}},{"type":"Feature","properties":{"osm_id":"9814117601","station_name":"Darsena","element_type":"node","station_id":"9814117601"},"geometry":{"type":"Point","coordinates":[8.926628,44.413042]}},{"type":"Feature","properties":{"osm_id":"9814110927","station_name":"Principe","element_type":"node","station_id":"9814110927"},"geometry":{"type":"Point","coordinates":[8.918996,44.416284]}},{"type":"Feature","properties":{"osm_id":"9812760052","station_name":"Dinegro","element_type":"node","station_id":"9812760052"},"geometry":{"type":"Point","coordinates":[8.912229,44.413958]}},{"type":"Feature","properties":{"osm_id":"9165358494","station_name":"Brin","element_type":"node","station_id":"9165358494"},"geometry":{"type":"Point","coordinates":[8.895685,44.427992]}},{"type":"Feature","properties":{"route_company":"AMT","route_id":"Metropolitana","element_type":"way","color":"#e6194b","route_name":"Metropolitana Brignole - Brin","osm_id":"386165","railway":"subway","status":"open"},"geometry":{"type":"LineString","coordinates":[[8.948501,44.407269],[8.934758,44.407178],[8.931725,44.404308],[8.928601,44.408782],[8.926628,44.413042],[8.918996,44.416284],[8.912229,44.413958],[8.895685,44.427992]]}}]}