{"type":"FeatureCollection","generator":"metroOsmFetch (OpenStreetMap / Overpass, ODbL)","features":[{"type":"Feature","properties":{"route_company":"AMT","route_id":"Metropolitana","element_type":"way","color":"#e82218","route_name":"Metropolitana","osm_id":"386165","railway":"subway"},"geometry":{"type":"LineString","coordinates":[[8.948514,44.40728],[8.934703,44.407206],[8.931687,44.404352],[8.928675,44.408774],[8.926678,44.413082],[8.918023,44.417275],[8.912219,44.41397],[8.895701,44.428007]]}},{"type":"Feature","properties":{"route_company":"AMT","route_id":"Principe-Granarolo","element_type":"way","color":"#3cb44b","route_name":"Ferrovia a cremagliera di Granarolo","osm_id":"2581231","railway":"light_rail"},"geometry":{"type":"LineString","coordinates":[[8.913587,44.424892],[8.916408,44.421052],[8.918023,44.417275],[8.913587,44.424892]]}},{"type":"Feature","properties":{"osm_id":"9814154914","station_name":"Brignole","element_type":"node","station_id":"9814154914"},"geometry":{"type":"Point","coordinates":[8.948514,44.40728]}},{"type":"Feature","properties":{"osm_id":"9814107554","station_name":"De Ferrari","element_type":"node","station_id":"9814107554"},"geometry":{"type":"Point","coordinates":[8.934703,44.407206]}},{"type":"Feature","properties":{"osm_id":"9530873691","station_name":"Sarzano/Sant'Agostino","element_type":"node","station_id":"9530873691"},"geometry":{"type":"Point","coordinates":[8.931687,44.404352]}},{"type":"Feature","properties":{"osm_id":"9814117602","station_name":"San Giorgio","element_type":"node","station_id":"9814117602"},"geometry":{"type":"Point","coordinates":[8.928675,44.408774]}},{"type":"Feature","properties":{"osm_id":"9814117601","station_name":"Darsena","element_type":"node","station_id":"9814117601"},"geometry":{"type":"Point","coordinates":[8.926678,44.413082]}},{"type":"Feature","properties":{"osm_id":"9814110927","station_name":"Principe","element_type":"node","station_id":"9814110927"},"geometry":{"type":"Point","coordinates":[8.918023,44.417275]}},{"type":"Feature","properties":{"osm_id":"9812760052","station_name":"Dinegro","element_type":"node","station_id":"9812760052"},"geometry":{"type":"Point","coordinates":[8.912219,44.41397]}},{"type":"Feature","properties":{"osm_id":"9165358494","station_name":"Brin","element_type":"node","station_id":"9165358494"},"geometry":{"type":"Point","coordinates":[8.895701,44.428007]}},{"type":"Feature","properties":{"osm_id":"2019700588","station_name":"Granarolo","element_type":"node","station_id":"2019700588"},"geometry":{"type":"Point","coordinates":[8.913587,44.424892]}},{"type":"Feature","properties":{"osm_id":"247613086","station_name":"Cambiaso","element_type":"node","station_id":"247613086"},"geometry":{"type":"Point","coordinates":[8.916408,44.421052]}}]}