{"type":"FeatureCollection","generator":"metroOsmFetch (OpenStreetMap / Overpass, ODbL)","features":[{"type":"Feature","properties":{"route_company":"神戸市交通局","route_id":"S","element_type":"way","color":"#00ae8e","route_name":"西神・山手線","osm_id":"7720717","railway":"subway"},"geometry":{"type":"LineString","coordinates":[[135.017396,34.7194],[135.030083,34.699585],[135.041325,34.687867],[135.05751,34.681531],[135.075816,34.681694],[135.09465,34.679434],[135.110142,34.675063],[135.134397,34.660131],[135.145714,34.657368],[135.151321,34.668433],[135.158774,34.673533],[135.166528,34.678768],[135.174627,34.68469],[135.18398,34.69103],[135.192432,34.693917],[135.195645,34.704711],[135.17146,34.761614]]}},{"type":"Feature","properties":{"route_company":"大阪市高速電気軌道","route_id":"C","element_type":"way","color":"#019a66","route_name":"中央線","osm_id":"444881","railway":"subway"},"geometry":{"type":"LineString","coordinates":[[135.39059,34.652924],[135.412216,34.642603],[135.434401,34.653965],[135.448799,34.66087],[135.462086,34.668434],[135.473524,34.675318],[135.488091,34.681379],[135.49872,34.682039],[135.506934,34.681896],[135.51747,34.68147],[135.532034,34.681499],[135.545747,34.680676],[135.557457,34.679132],[135.571921,34.6784],[135.591061,34.678779]]}},{"type":"Feature","properties":{"route_company":"神戸市交通局","route_id":"K","element_type":"way","color":"#267dce","route_name":"海岸線","osm_id":"7712959","railway":"subway"},"geometry":{"type":"LineString","coordinates":[[135.145714,34.657368],[135.149976,34.651723],[135.157487,34.654011],[135.166154,34.654891],[135.17679,34.658735],[135.175856,34.666152],[135.178865,34.679009],[135.183542,34.685656],[135.190557,34.689614],[135.195897,34.691781]]}},{"type":"Feature","properties":{"osm_id":"3903196455","station_name":"西神中央","element_type":"node","station_id":"3903196455"},"geometry":{"type":"Point","coordinates":[135.017396,34.7194]}},{"type":"Feature","properties":{"osm_id":"519684147","station_name":"西神南","element_type":"node","station_id":"519684147"},"geometry":{"type":"Point","coordinates":[135.030083,34.699585]}},{"type":"Feature","properties":{"osm_id":"519682827","station_name":"伊川谷","element_type":"node","station_id":"519682827"},"geometry":{"type":"Point","coordinates":[135.041325,34.687867]}},{"type":"Feature","properties":{"osm_id":"519685287","station_name":"学園都市","element_type":"node","station_id":"519685287"},"geometry":{"type":"Point","coordinates":[135.05751,34.681531]}},{"type":"Feature","properties":{"osm_id":"519686539","station_name":"総合運動公園","element_type":"node","station_id":"S13"},"geometry":{"type":"Point","coordinates":[135.075816,34.681694]}},{"type":"Feature","properties":{"osm_id":"3720362729","station_name":"名谷","element_type":"node","station_id":"S12"},"geometry":{"type":"Point","coordinates":[135.09465,34.679434]}},{"type":"Feature","properties":{"osm_id":"7598270851","station_name":"妙法寺","element_type":"node","station_id":"S11"},"geometry":{"type":"Point","coordinates":[135.110142,34.675063]}},{"type":"Feature","properties":{"osm_id":"8039799653","station_name":"板宿","element_type":"node","station_id":"S10"},"geometry":{"type":"Point","coordinates":[135.134397,34.660131]}},{"type":"Feature","properties":{"osm_id":"8039799609","station_name":"新長田","element_type":"node","station_id":"K10"},"geometry":{"type":"Point","coordinates":[135.145714,34.657368]}},{"type":"Feature","properties":{"osm_id":"8039799586","station_name":"長田","element_type":"node","station_id":"S08"},"geometry":{"type":"Point","coordinates":[135.151321,34.668433]}},{"type":"Feature","properties":{"osm_id":"8039799591","station_name":"上沢","element_type":"node","station_id":"S07"},"geometry":{"type":"Point","coordinates":[135.158774,34.673533]}},{"type":"Feature","properties":{"osm_id":"8039799595","station_name":"湊川公園","element_type":"node","station_id":"8039799595"},"geometry":{"type":"Point","coordinates":[135.166528,34.678768]}},{"type":"Feature","properties":{"osm_id":"8039785450","station_name":"大倉山","element_type":"node","station_id":"8039785450"},"geometry":{"type":"Point","coordinates":[135.174627,34.68469]}},{"type":"Feature","properties":{"osm_id":"8039785417","station_name":"県庁前","element_type":"node","station_id":"S04"},"geometry":{"type":"Point","coordinates":[135.18398,34.69103]}},{"type":"Feature","properties":{"osm_id":"8039785435","station_name":"三宮","element_type":"node","station_id":"S03"},"geometry":{"type":"Point","coordinates":[135.192432,34.693917]}},{"type":"Feature","properties":{"osm_id":"7595528335","station_name":"新神戸","element_type":"node","station_id":"S02"},"geometry":{"type":"Point","coordinates":[135.195645,34.704711]}},{"type":"Feature","properties":{"osm_id":"4005770522","station_name":"谷上駅4･5番線","element_type":"node","station_id":"S01"},"geometry":{"type":"Point","coordinates":[135.17146,34.761614]}},{"type":"Feature","properties":{"osm_id":"12517912680","station_name":"夢洲","element_type":"node","station_id":"C09"},"geometry":{"type":"Point","coordinates":[135.39059,34.652924]}},{"type":"Feature","properties":{"osm_id":"6621493574","station_name":"コスモスクエア","element_type":"node","station_id":"C10"},"geometry":{"type":"Point","coordinates":[135.412216,34.642603]}},{"type":"Feature","properties":{"osm_id":"5470490421","station_name":"大阪港","element_type":"node","station_id":"C11"},"geometry":{"type":"Point","coordinates":[135.434401,34.653965]}},{"type":"Feature","properties":{"osm_id":"537520677","station_name":"朝潮橋","element_type":"node","station_id":"C12"},"geometry":{"type":"Point","coordinates":[135.448799,34.66087]}},{"type":"Feature","properties":{"osm_id":"537520788","station_name":"弁天町","element_type":"node","station_id":"C13"},"geometry":{"type":"Point","coordinates":[135.462086,34.668434]}},{"type":"Feature","properties":{"osm_id":"537520917","station_name":"九条","element_type":"node","station_id":"C14"},"geometry":{"type":"Point","coordinates":[135.473524,34.675318]}},{"type":"Feature","properties":{"osm_id":"7944112747","station_name":"阿波座","element_type":"node","station_id":"C15"},"geometry":{"type":"Point","coordinates":[135.488091,34.681379]}},{"type":"Feature","properties":{"osm_id":"7944112740","station_name":"本町","element_type":"node","station_id":"C16"},"geometry":{"type":"Point","coordinates":[135.49872,34.682039]}},{"type":"Feature","properties":{"osm_id":"7944112736","station_name":"堺筋本町","element_type":"node","station_id":"C17"},"geometry":{"type":"Point","coordinates":[135.506934,34.681896]}},{"type":"Feature","properties":{"osm_id":"7944112730","station_name":"谷町四丁目","element_type":"node","station_id":"C18"},"geometry":{"type":"Point","coordinates":[135.51747,34.68147]}},{"type":"Feature","properties":{"osm_id":"7944112719","station_name":"森ノ宮","element_type":"node","station_id":"C19"},"geometry":{"type":"Point","coordinates":[135.532034,34.681499]}},{"type":"Feature","properties":{"osm_id":"7944112708","station_name":"緑橋","element_type":"node","station_id":"C20"},"geometry":{"type":"Point","coordinates":[135.545747,34.680676]}},{"type":"Feature","properties":{"osm_id":"7944112703","station_name":"深江橋","element_type":"node","station_id":"C21"},"geometry":{"type":"Point","coordinates":[135.557457,34.679132]}},{"type":"Feature","properties":{"osm_id":"7944112692","station_name":"高井田","element_type":"node","station_id":"C22"},"geometry":{"type":"Point","coordinates":[135.571921,34.6784]}},{"type":"Feature","properties":{"osm_id":"7944112751","station_name":"長田","element_type":"node","station_id":"C23"},"geometry":{"type":"Point","coordinates":[135.591061,34.678779]}},{"type":"Feature","properties":{"osm_id":"7862176722","station_name":"駒ヶ林","element_type":"node","station_id":"K09"},"geometry":{"type":"Point","coordinates":[135.149976,34.651723]}},{"type":"Feature","properties":{"osm_id":"7862176725","station_name":"苅藻","element_type":"node","station_id":"K08"},"geometry":{"type":"Point","coordinates":[135.157487,34.654011]}},{"type":"Feature","properties":{"osm_id":"7862176727","station_name":"御崎公園","element_type":"node","station_id":"K07"},"geometry":{"type":"Point","coordinates":[135.166154,34.654891]}},{"type":"Feature","properties":{"osm_id":"7862176736","station_name":"和田岬","element_type":"node","station_id":"K06"},"geometry":{"type":"Point","coordinates":[135.17679,34.658735]}},{"type":"Feature","properties":{"osm_id":"7862176753","station_name":"中央市場前","element_type":"node","station_id":"K05"},"geometry":{"type":"Point","coordinates":[135.175856,34.666152]}},{"type":"Feature","properties":{"osm_id":"7862176769","station_name":"ハーバーランド","element_type":"node","station_id":"K04"},"geometry":{"type":"Point","coordinates":[135.178865,34.679009]}},{"type":"Feature","properties":{"osm_id":"7862176693","station_name":"みなと元町","element_type":"node","station_id":"K03"},"geometry":{"type":"Point","coordinates":[135.183542,34.685656]}},{"type":"Feature","properties":{"osm_id":"7862176706","station_name":"旧居留地・大丸前","element_type":"node","station_id":"K02"},"geometry":{"type":"Point","coordinates":[135.190557,34.689614]}},{"type":"Feature","properties":{"osm_id":"7862176712","station_name":"三宮・花時計前","element_type":"node","station_id":"7862176712"},"geometry":{"type":"Point","coordinates":[135.195897,34.691781]}}]}