{"type":"FeatureCollection","generator":"metroOsmFetch (OpenStreetMap / Overpass, ODbL)","features":[{"type":"Feature","properties":{"route_company":"神戸新交通","route_id":"P","element_type":"way","color":"#3573bd","route_name":"ポートライナー (三宮=>北埠頭=>三宮)","osm_id":"2431076","railway":"light_rail","status":"open"},"geometry":{"type":"LineString","coordinates":[[135.194284,34.694352],[135.199458,34.689421],[135.202292,34.68138],[135.207438,34.673293],[135.21014,34.668975],[135.212636,34.664818],[135.216972,34.664679],[135.21712,34.669443],[135.214606,34.673641],[135.207438,34.673293],[135.202292,34.68138],[135.199458,34.689421],[135.194284,34.694352]]}},{"type":"Feature","properties":{"route_company":"神戸新交通","route_id":"R","element_type":"way","color":"#9686bd","route_name":"六甲ライナー","osm_id":"6015207","railway":"light_rail","status":"open"},"geometry":{"type":"LineString","coordinates":[[135.262292,34.719529],[135.268624,34.713756],[135.267773,34.706812],[135.268825,34.693211],[135.269359,34.689237],[135.270167,34.6843]]}},{"type":"Feature","properties":{"osm_id":"3854376875","station_name":"三宮","element_type":"node","station_id":"P01"},"geometry":{"type":"Point","coordinates":[135.194284,34.694352]}},{"type":"Feature","properties":{"osm_id":"3854376856","station_name":"貿易センター","element_type":"node","station_id":"P02"},"geometry":{"type":"Point","coordinates":[135.199458,34.689421]}},{"type":"Feature","properties":{"osm_id":"3854376849","station_name":"ポートターミナル","element_type":"node","station_id":"P03"},"geometry":{"type":"Point","coordinates":[135.202292,34.68138]}},{"type":"Feature","properties":{"osm_id":"3854376826","station_name":"中公園","element_type":"node","station_id":"P04"},"geometry":{"type":"Point","coordinates":[135.207438,34.673293]}},{"type":"Feature","properties":{"osm_id":"5214342253","station_name":"みなとじま","element_type":"node","station_id":"P05"},"geometry":{"type":"Point","coordinates":[135.21014,34.668975]}},{"type":"Feature","properties":{"osm_id":"3854376786","station_name":"市民広場","element_type":"node","station_id":"P06"},"geometry":{"type":"Point","coordinates":[135.212636,34.664818]}},{"type":"Feature","properties":{"osm_id":"3854376791","station_name":"南公園","element_type":"node","station_id":"PL07"},"geometry":{"type":"Point","coordinates":[135.216972,34.664679]}},{"type":"Feature","properties":{"osm_id":"3854376794","station_name":"中埠頭","element_type":"node","station_id":"PL08"},"geometry":{"type":"Point","coordinates":[135.21712,34.669443]}},{"type":"Feature","properties":{"osm_id":"3854376805","station_name":"北埠頭","element_type":"node","station_id":"PL09"},"geometry":{"type":"Point","coordinates":[135.214606,34.673641]}},{"type":"Feature","properties":{"osm_id":"5214160712","station_name":"住吉","element_type":"node","station_id":"5214160712"},"geometry":{"type":"Point","coordinates":[135.262292,34.719529]}},{"type":"Feature","properties":{"osm_id":"5214161149","station_name":"魚崎","element_type":"node","station_id":"5214161149"},"geometry":{"type":"Point","coordinates":[135.268624,34.713756]}},{"type":"Feature","properties":{"osm_id":"5214161154","station_name":"南魚崎","element_type":"node","station_id":"5214161154"},"geometry":{"type":"Point","coordinates":[135.267773,34.706812]}},{"type":"Feature","properties":{"osm_id":"517746410","station_name":"アイランド北口","element_type":"node","station_id":"517746410"},"geometry":{"type":"Point","coordinates":[135.268825,34.693211]}},{"type":"Feature","properties":{"osm_id":"5214161170","station_name":"アイランドセンター","element_type":"node","station_id":"5214161170"},"geometry":{"type":"Point","coordinates":[135.269359,34.689237]}},{"type":"Feature","properties":{"osm_id":"5214161168","station_name":"マリンパーク","element_type":"node","station_id":"5214161168"},"geometry":{"type":"Point","coordinates":[135.270167,34.6843]}}]}