{"type":"FeatureCollection","generator":"metroOsmFetch (OpenStreetMap / Overpass, ODbL)","features":[{"type":"Feature","properties":{"route_company":"名古屋市","route_id":"M","element_type":"way","color":"#b074d6","route_name":"名古屋市営名城線 (右回り)","osm_id":"1905460","railway":"subway","status":"open"},"geometry":{"type":"LineString","coordinates":[[136.901961,35.143979],[136.904625,35.150137],[136.906744,35.15793],[136.908641,35.16309],[136.9087,35.169688],[136.908026,35.17372],[136.905495,35.181605],[136.904715,35.190991],[136.910598,35.197174],[136.921586,35.19632],[136.93005,35.195908],[136.936216,35.19279],[136.944402,35.190883],[136.95502,35.188675],[136.962523,35.184377],[136.966669,35.174851],[136.963666,35.163562],[136.966686,35.154298],[136.965032,35.14453],[136.963985,35.136713],[136.954517,35.130425],[136.948403,35.122735],[136.936857,35.118243],[136.929304,35.117074],[136.921233,35.116451],[136.910122,35.120877],[136.906695,35.127936],[136.90161,35.13511],[136.901961,35.143979]]}},{"type":"Feature","properties":{"route_company":"名古屋市","route_id":"H","element_type":"way","color":"#fab123","route_name":"名古屋市営1号線東山線","osm_id":"421984","railway":"subway","status":"open"},"geometry":{"type":"LineString","coordinates":[[136.853386,35.139056],[136.853201,35.148621],[136.854353,35.15784],[136.854854,35.167751],[136.861991,35.172582],[136.867138,35.177018],[136.877564,35.177569],[136.883327,35.171291],[136.897229,35.169092],[136.9087,35.169688],[136.920218,35.170785],[136.929907,35.170676],[136.937525,35.169175],[136.946033,35.167842],[136.952151,35.166525],[136.963666,35.163562],[136.972448,35.160723],[136.985537,35.162656],[136.995743,35.168246],[137.007065,35.173776],[137.013966,35.175465],[137.021631,35.182439]]}},{"type":"Feature","properties":{"route_company":"名古屋市","route_id":"S","element_type":"way","color":"#c92f44","route_name":"名古屋市営6号線桜通線 (中村区役所 --> 徳重)","osm_id":"6566407","railway":"subway","status":"open"},"geometry":{"type":"LineString","coordinates":[[136.873246,35.16765],[136.883327,35.171291],[136.889563,35.172167],[136.898093,35.174082],[136.908026,35.17372],[136.916891,35.174183],[136.930201,35.173345],[136.937525,35.169175],[136.935183,35.158384],[136.934084,35.149483],[136.933432,35.139522],[136.934534,35.131619],[136.935568,35.124664],[136.936857,35.118243],[136.936767,35.108884],[136.944804,35.105527],[136.9554,35.102418],[136.966781,35.102783],[136.976938,35.10253],[136.989886,35.098339],[136.998155,35.094495]]}},{"type":"Feature","properties":{"route_company":"名古屋市","route_id":"T","element_type":"way","color":"#009bbf","route_name":"名古屋市営3号線鶴舞線 (上小田井=>赤池)","osm_id":"1920724","railway":"subway","status":"open"},"geometry":{"type":"LineString","coordinates":[[136.876927,35.223518],[136.886667,35.214998],[136.891034,35.203831],[136.890821,35.192102],[136.890237,35.183286],[136.898093,35.174082],[136.897229,35.169092],[136.898096,35.161404],[136.906744,35.15793],[136.915343,35.156214],[136.925304,35.149615],[136.934084,35.149483],[136.948303,35.148732],[136.954617,35.14384],[136.963985,35.136713],[136.977278,35.132594],[136.988931,35.128404],[136.997134,35.126018],[137.007165,35.122718],[137.019086,35.121121]]}},{"type":"Feature","properties":{"route_company":"愛知高速交通株式会社","route_id":"L","element_type":"way","color":"#0067c0","route_name":"愛知高速交通株式会社 Linimo","osm_id":"9171166","railway":"light_rail","status":"open"},"geometry":{"type":"LineString","coordinates":[[137.021631,35.182439],[137.03515,35.177661],[137.03795,35.171867],[137.049783,35.171606],[137.060944,35.171987],[137.076644,35.174379],[137.087257,35.177657],[137.097154,35.179348],[137.106294,35.176721]]}},{"type":"Feature","properties":{"route_company":"名古屋市","route_id":"E","element_type":"way","color":"#b074d6","route_name":"名古屋市営名港線 (金山→名古屋港)","osm_id":"7712570","railway":"subway","status":"open"},"geometry":{"type":"LineString","coordinates":[[136.901961,35.143979],[136.89292,35.13245],[136.888385,35.124066],[136.886029,35.113468],[136.884823,35.106508],[136.883191,35.099996],[136.881935,35.093161]]}},{"type":"Feature","properties":{"route_company":"名古屋市","route_id":"K","element_type":"way","color":"#ea7ab2","route_name":"名古屋市営上飯田線","osm_id":"6566412","railway":"subway","status":"open"},"geometry":{"type":"LineString","coordinates":[[136.929692,35.203612],[136.93005,35.195908]]}},{"type":"Feature","properties":{"osm_id":"5214024836","station_name":"金山","element_type":"node","station_id":"M01"},"geometry":{"type":"Point","coordinates":[136.901961,35.143979]}},{"type":"Feature","properties":{"osm_id":"361009845","station_name":"東別院","element_type":"node","station_id":"M02"},"geometry":{"type":"Point","coordinates":[136.904625,35.150137]}},{"type":"Feature","properties":{"osm_id":"361009886","station_name":"上前津","element_type":"node","station_id":"M03"},"geometry":{"type":"Point","coordinates":[136.906744,35.15793]}},{"type":"Feature","properties":{"osm_id":"361009882","station_name":"矢場町","element_type":"node","station_id":"M04"},"geometry":{"type":"Point","coordinates":[136.908641,35.16309]}},{"type":"Feature","properties":{"osm_id":"361009814","station_name":"栄","element_type":"node","station_id":"M05"},"geometry":{"type":"Point","coordinates":[136.9087,35.169688]}},{"type":"Feature","properties":{"osm_id":"361009795","station_name":"久屋大通","element_type":"node","station_id":"M06"},"geometry":{"type":"Point","coordinates":[136.908026,35.17372]}},{"type":"Feature","properties":{"osm_id":"361009807","station_name":"名古屋城","element_type":"node","station_id":"M07"},"geometry":{"type":"Point","coordinates":[136.905495,35.181605]}},{"type":"Feature","properties":{"osm_id":"361009789","station_name":"名城公園","element_type":"node","station_id":"M08"},"geometry":{"type":"Point","coordinates":[136.904715,35.190991]}},{"type":"Feature","properties":{"osm_id":"361009792","station_name":"黒川","element_type":"node","station_id":"M09"},"geometry":{"type":"Point","coordinates":[136.910598,35.197174]}},{"type":"Feature","properties":{"osm_id":"361009828","station_name":"志賀本通","element_type":"node","station_id":"M10"},"geometry":{"type":"Point","coordinates":[136.921586,35.19632]}},{"type":"Feature","properties":{"osm_id":"361009803","station_name":"平安通","element_type":"node","station_id":"M11"},"geometry":{"type":"Point","coordinates":[136.93005,35.195908]}},{"type":"Feature","properties":{"osm_id":"361009826","station_name":"大曽根","element_type":"node","station_id":"M12"},"geometry":{"type":"Point","coordinates":[136.936216,35.19279]}},{"type":"Feature","properties":{"osm_id":"361011236","station_name":"ナゴヤドーム前矢田","element_type":"node","station_id":"M13"},"geometry":{"type":"Point","coordinates":[136.944402,35.190883]}},{"type":"Feature","properties":{"osm_id":"361011199","station_name":"砂田橋","element_type":"node","station_id":"M14"},"geometry":{"type":"Point","coordinates":[136.95502,35.188675]}},{"type":"Feature","properties":{"osm_id":"361011197","station_name":"茶屋ヶ坂","element_type":"node","station_id":"M15"},"geometry":{"type":"Point","coordinates":[136.962523,35.184377]}},{"type":"Feature","properties":{"osm_id":"361011086","station_name":"自由ヶ丘","element_type":"node","station_id":"M16"},"geometry":{"type":"Point","coordinates":[136.966669,35.174851]}},{"type":"Feature","properties":{"osm_id":"361011167","station_name":"本山","element_type":"node","station_id":"M17"},"geometry":{"type":"Point","coordinates":[136.963666,35.163562]}},{"type":"Feature","properties":{"osm_id":"361011078","station_name":"名古屋大学","element_type":"node","station_id":"M18"},"geometry":{"type":"Point","coordinates":[136.966686,35.154298]}},{"type":"Feature","properties":{"osm_id":"361011173","station_name":"八事日赤","element_type":"node","station_id":"M19"},"geometry":{"type":"Point","coordinates":[136.965032,35.14453]}},{"type":"Feature","properties":{"osm_id":"361011096","station_name":"八事","element_type":"node","station_id":"M20"},"geometry":{"type":"Point","coordinates":[136.963985,35.136713]}},{"type":"Feature","properties":{"osm_id":"361011500","station_name":"総合リハビリセンター","element_type":"node","station_id":"M21"},"geometry":{"type":"Point","coordinates":[136.954517,35.130425]}},{"type":"Feature","properties":{"osm_id":"361011251","station_name":"瑞穂運動場東","element_type":"node","station_id":"M22"},"geometry":{"type":"Point","coordinates":[136.948403,35.122735]}},{"type":"Feature","properties":{"osm_id":"9139714667","station_name":"新瑞橋","element_type":"node","station_id":"M23"},"geometry":{"type":"Point","coordinates":[136.936857,35.118243]}},{"type":"Feature","properties":{"osm_id":"361011224","station_name":"妙音通","element_type":"node","station_id":"M24"},"geometry":{"type":"Point","coordinates":[136.929304,35.117074]}},{"type":"Feature","properties":{"osm_id":"361011238","station_name":"堀田","element_type":"node","station_id":"M25"},"geometry":{"type":"Point","coordinates":[136.921233,35.116451]}},{"type":"Feature","properties":{"osm_id":"361011495","station_name":"熱田神宮伝馬町","element_type":"node","station_id":"M26"},"geometry":{"type":"Point","coordinates":[136.910122,35.120877]}},{"type":"Feature","properties":{"osm_id":"361011483","station_name":"熱田神宮西","element_type":"node","station_id":"M27"},"geometry":{"type":"Point","coordinates":[136.906695,35.127936]}},{"type":"Feature","properties":{"osm_id":"361011220","station_name":"西高蔵","element_type":"node","station_id":"M28"},"geometry":{"type":"Point","coordinates":[136.90161,35.13511]}},{"type":"Feature","properties":{"osm_id":"8244574137","station_name":"高畑","element_type":"node","station_id":"H01"},"geometry":{"type":"Point","coordinates":[136.853386,35.139056]}},{"type":"Feature","properties":{"osm_id":"8244574136","station_name":"八田","element_type":"node","station_id":"H02"},"geometry":{"type":"Point","coordinates":[136.853201,35.148621]}},{"type":"Feature","properties":{"osm_id":"8244574135","station_name":"岩塚","element_type":"node","station_id":"H03"},"geometry":{"type":"Point","coordinates":[136.854353,35.15784]}},{"type":"Feature","properties":{"osm_id":"8224160949","station_name":"中村公園","element_type":"node","station_id":"H04"},"geometry":{"type":"Point","coordinates":[136.854854,35.167751]}},{"type":"Feature","properties":{"osm_id":"11374269067","station_name":"中村日赤","element_type":"node","station_id":"H05"},"geometry":{"type":"Point","coordinates":[136.861991,35.172582]}},{"type":"Feature","properties":{"osm_id":"8244574134","station_name":"本陣","element_type":"node","station_id":"H06"},"geometry":{"type":"Point","coordinates":[136.867138,35.177018]}},{"type":"Feature","properties":{"osm_id":"8244604804","station_name":"亀島","element_type":"node","station_id":"H07"},"geometry":{"type":"Point","coordinates":[136.877564,35.177569]}},{"type":"Feature","properties":{"osm_id":"8244604803","station_name":"名古屋","element_type":"node","station_id":"H08"},"geometry":{"type":"Point","coordinates":[136.883327,35.171291]}},{"type":"Feature","properties":{"osm_id":"8244604802","station_name":"伏見","element_type":"node","station_id":"T07"},"geometry":{"type":"Point","coordinates":[136.897229,35.169092]}},{"type":"Feature","properties":{"osm_id":"8244604800","station_name":"新栄町","element_type":"node","station_id":"H11"},"geometry":{"type":"Point","coordinates":[136.920218,35.170785]}},{"type":"Feature","properties":{"osm_id":"8244604799","station_name":"千種","element_type":"node","station_id":"H12"},"geometry":{"type":"Point","coordinates":[136.929907,35.170676]}},{"type":"Feature","properties":{"osm_id":"8244670132","station_name":"今池","element_type":"node","station_id":"H13"},"geometry":{"type":"Point","coordinates":[136.937525,35.169175]}},{"type":"Feature","properties":{"osm_id":"8244670131","station_name":"池下","element_type":"node","station_id":"H14"},"geometry":{"type":"Point","coordinates":[136.946033,35.167842]}},{"type":"Feature","properties":{"osm_id":"8244670130","station_name":"覚王山","element_type":"node","station_id":"H15"},"geometry":{"type":"Point","coordinates":[136.952151,35.166525]}},{"type":"Feature","properties":{"osm_id":"8224109909","station_name":"東山公園","element_type":"node","station_id":"H17"},"geometry":{"type":"Point","coordinates":[136.972448,35.160723]}},{"type":"Feature","properties":{"osm_id":"8244670128","station_name":"星ヶ丘","element_type":"node","station_id":"H18"},"geometry":{"type":"Point","coordinates":[136.985537,35.162656]}},{"type":"Feature","properties":{"osm_id":"8244670127","station_name":"一社","element_type":"node","station_id":"H19"},"geometry":{"type":"Point","coordinates":[136.995743,35.168246]}},{"type":"Feature","properties":{"osm_id":"7256044930","station_name":"上社","element_type":"node","station_id":"7256044930"},"geometry":{"type":"Point","coordinates":[137.007065,35.173776]}},{"type":"Feature","properties":{"osm_id":"7256044968","station_name":"本郷","element_type":"node","station_id":"7256044968"},"geometry":{"type":"Point","coordinates":[137.013966,35.175465]}},{"type":"Feature","properties":{"osm_id":"7256044903","station_name":"藤が丘","element_type":"node","station_id":"7256044903"},"geometry":{"type":"Point","coordinates":[137.021631,35.182439]}},{"type":"Feature","properties":{"osm_id":"361018973","station_name":"太閤通","element_type":"node","station_id":"S01"},"geometry":{"type":"Point","coordinates":[136.873246,35.16765]}},{"type":"Feature","properties":{"osm_id":"361018983","station_name":"国際センター","element_type":"node","station_id":"S03"},"geometry":{"type":"Point","coordinates":[136.889563,35.172167]}},{"type":"Feature","properties":{"osm_id":"361018944","station_name":"丸の内","element_type":"node","station_id":"S04"},"geometry":{"type":"Point","coordinates":[136.898093,35.174082]}},{"type":"Feature","properties":{"osm_id":"361019048","station_name":"高岳","element_type":"node","station_id":"S06"},"geometry":{"type":"Point","coordinates":[136.916891,35.174183]}},{"type":"Feature","properties":{"osm_id":"361018932","station_name":"車道","element_type":"node","station_id":"S07"},"geometry":{"type":"Point","coordinates":[136.930201,35.173345]}},{"type":"Feature","properties":{"osm_id":"361018884","station_name":"吹上","element_type":"node","station_id":"S09"},"geometry":{"type":"Point","coordinates":[136.935183,35.158384]}},{"type":"Feature","properties":{"osm_id":"361018870","station_name":"御器所","element_type":"node","station_id":"S10"},"geometry":{"type":"Point","coordinates":[136.934084,35.149483]}},{"type":"Feature","properties":{"osm_id":"361019006","station_name":"桜山","element_type":"node","station_id":"S11"},"geometry":{"type":"Point","coordinates":[136.933432,35.139522]}},{"type":"Feature","properties":{"osm_id":"361018985","station_name":"瑞穂区役所","element_type":"node","station_id":"S12"},"geometry":{"type":"Point","coordinates":[136.934534,35.131619]}},{"type":"Feature","properties":{"osm_id":"361019015","station_name":"瑞穂運動場西","element_type":"node","station_id":"S13"},"geometry":{"type":"Point","coordinates":[136.935568,35.124664]}},{"type":"Feature","properties":{"osm_id":"361018924","station_name":"桜本町","element_type":"node","station_id":"S15"},"geometry":{"type":"Point","coordinates":[136.936767,35.108884]}},{"type":"Feature","properties":{"osm_id":"361018890","station_name":"鶴里","element_type":"node","station_id":"S16"},"geometry":{"type":"Point","coordinates":[136.944804,35.105527]}},{"type":"Feature","properties":{"osm_id":"361018852","station_name":"野並","element_type":"node","station_id":"S17"},"geometry":{"type":"Point","coordinates":[136.9554,35.102418]}},{"type":"Feature","properties":{"osm_id":"534688511","station_name":"鳴子北","element_type":"node","station_id":"S18"},"geometry":{"type":"Point","coordinates":[136.966781,35.102783]}},{"type":"Feature","properties":{"osm_id":"2496937121","station_name":"相生山","element_type":"node","station_id":"S19"},"geometry":{"type":"Point","coordinates":[136.976938,35.10253]}},{"type":"Feature","properties":{"osm_id":"2496937114","station_name":"神沢","element_type":"node","station_id":"S20"},"geometry":{"type":"Point","coordinates":[136.989886,35.098339]}},{"type":"Feature","properties":{"osm_id":"1655512542","station_name":"徳重","element_type":"node","station_id":"S21"},"geometry":{"type":"Point","coordinates":[136.998155,35.094495]}},{"type":"Feature","properties":{"osm_id":"5408576828","station_name":"上小田井","element_type":"node","station_id":"T-01"},"geometry":{"type":"Point","coordinates":[136.876927,35.223518]}},{"type":"Feature","properties":{"osm_id":"361014235","station_name":"庄内緑地公園","element_type":"node","station_id":"T02"},"geometry":{"type":"Point","coordinates":[136.886667,35.214998]}},{"type":"Feature","properties":{"osm_id":"361014414","station_name":"庄内通","element_type":"node","station_id":"T03"},"geometry":{"type":"Point","coordinates":[136.891034,35.203831]}},{"type":"Feature","properties":{"osm_id":"361014379","station_name":"浄心","element_type":"node","station_id":"T04"},"geometry":{"type":"Point","coordinates":[136.890821,35.192102]}},{"type":"Feature","properties":{"osm_id":"361014329","station_name":"浅間町","element_type":"node","station_id":"T05"},"geometry":{"type":"Point","coordinates":[136.890237,35.183286]}},{"type":"Feature","properties":{"osm_id":"361014399","station_name":"大須観音","element_type":"node","station_id":"T08"},"geometry":{"type":"Point","coordinates":[136.898096,35.161404]}},{"type":"Feature","properties":{"osm_id":"361014290","station_name":"鶴舞","element_type":"node","station_id":"T10"},"geometry":{"type":"Point","coordinates":[136.915343,35.156214]}},{"type":"Feature","properties":{"osm_id":"361014207","station_name":"荒畑","element_type":"node","station_id":"T11"},"geometry":{"type":"Point","coordinates":[136.925304,35.149615]}},{"type":"Feature","properties":{"osm_id":"361014318","station_name":"川名","element_type":"node","station_id":"T13"},"geometry":{"type":"Point","coordinates":[136.948303,35.148732]}},{"type":"Feature","properties":{"osm_id":"361014230","station_name":"いりなか","element_type":"node","station_id":"T14"},"geometry":{"type":"Point","coordinates":[136.954617,35.14384]}},{"type":"Feature","properties":{"osm_id":"1751864764","station_name":"塩釜口","element_type":"node","station_id":"T16"},"geometry":{"type":"Point","coordinates":[136.977278,35.132594]}},{"type":"Feature","properties":{"osm_id":"361014027","station_name":"植田","element_type":"node","station_id":"T17"},"geometry":{"type":"Point","coordinates":[136.988931,35.128404]}},{"type":"Feature","properties":{"osm_id":"361014098","station_name":"原","element_type":"node","station_id":"T18"},"geometry":{"type":"Point","coordinates":[136.997134,35.126018]}},{"type":"Feature","properties":{"osm_id":"361014021","station_name":"平針","element_type":"node","station_id":"T19"},"geometry":{"type":"Point","coordinates":[137.007165,35.122718]}},{"type":"Feature","properties":{"osm_id":"9986977631","station_name":"赤池","element_type":"node","station_id":"T20"},"geometry":{"type":"Point","coordinates":[137.019086,35.121121]}},{"type":"Feature","properties":{"osm_id":"722181563","station_name":"はなみずき通","element_type":"node","station_id":"722181563"},"geometry":{"type":"Point","coordinates":[137.03515,35.177661]}},{"type":"Feature","properties":{"osm_id":"573210505","station_name":"杁ヶ池公園","element_type":"node","station_id":"573210505"},"geometry":{"type":"Point","coordinates":[137.03795,35.171867]}},{"type":"Feature","properties":{"osm_id":"573210522","station_name":"長久手古戦場","element_type":"node","station_id":"573210522"},"geometry":{"type":"Point","coordinates":[137.049783,35.171606]}},{"type":"Feature","properties":{"osm_id":"6511864189","station_name":"芸大通","element_type":"node","station_id":"6511864189"},"geometry":{"type":"Point","coordinates":[137.060944,35.171987]}},{"type":"Feature","properties":{"osm_id":"2398413045","station_name":"公園西","element_type":"node","station_id":"2398413045"},"geometry":{"type":"Point","coordinates":[137.076644,35.174379]}},{"type":"Feature","properties":{"osm_id":"573210598","station_name":"愛・地球博記念公園","element_type":"node","station_id":"L07"},"geometry":{"type":"Point","coordinates":[137.087257,35.177657]}},{"type":"Feature","properties":{"osm_id":"573210615","station_name":"陶磁資料館南","element_type":"node","station_id":"573210615"},"geometry":{"type":"Point","coordinates":[137.097154,35.179348]}},{"type":"Feature","properties":{"osm_id":"573210631","station_name":"八草","element_type":"node","station_id":"573210631"},"geometry":{"type":"Point","coordinates":[137.106294,35.176721]}},{"type":"Feature","properties":{"osm_id":"7795652814","station_name":"日比野","element_type":"node","station_id":"E02"},"geometry":{"type":"Point","coordinates":[136.89292,35.13245]}},{"type":"Feature","properties":{"osm_id":"7795652821","station_name":"六番町","element_type":"node","station_id":"E03"},"geometry":{"type":"Point","coordinates":[136.888385,35.124066]}},{"type":"Feature","properties":{"osm_id":"8224003789","station_name":"東海通","element_type":"node","station_id":"E04"},"geometry":{"type":"Point","coordinates":[136.886029,35.113468]}},{"type":"Feature","properties":{"osm_id":"8244537677","station_name":"港区役所","element_type":"node","station_id":"E05"},"geometry":{"type":"Point","coordinates":[136.884823,35.106508]}},{"type":"Feature","properties":{"osm_id":"8244547854","station_name":"築地口","element_type":"node","station_id":"E06"},"geometry":{"type":"Point","coordinates":[136.883191,35.099996]}},{"type":"Feature","properties":{"osm_id":"7795652835","station_name":"名古屋港","element_type":"node","station_id":"E07"},"geometry":{"type":"Point","coordinates":[136.881935,35.093161]}},{"type":"Feature","properties":{"osm_id":"5214024840","station_name":"上飯田","element_type":"node","station_id":"5214024840"},"geometry":{"type":"Point","coordinates":[136.929692,35.203612]}}]}