{"type":"FeatureCollection","generator":"metroOsmFetch (OpenStreetMap / Overpass, ODbL)","features":[{"type":"Feature","properties":{"route_company":"札幌市交通局","route_id":"T","element_type":"way","color":"#ff8c00","route_name":"東西線","osm_id":"1827997","railway":"subway"},"geometry":{"type":"LineString","coordinates":[[141.277992,43.089521],[141.290228,43.08163],[141.304464,43.075474],[141.313632,43.070503],[141.314682,43.061007],[141.319441,43.055783],[141.330346,43.057257],[141.341383,43.058742],[141.352085,43.060219],[141.361958,43.061577],[141.372824,43.057374],[141.38477,43.05188],[141.395667,43.046461],[141.411019,43.040387],[141.422933,43.035804],[141.435281,43.030383],[141.453151,43.028],[141.464387,43.032288],[141.473949,43.038861]]}},{"type":"Feature","properties":{"route_company":"札幌市交通局","route_id":"N","element_type":"way","color":"#008800","route_name":"南北線","osm_id":"1827998","railway":"subway"},"geometry":{"type":"LineString","coordinates":[[141.338389,43.108388],[141.342077,43.100217],[141.344799,43.089495],[141.346806,43.081579],[141.348504,43.074774],[141.350729,43.065955],[141.352085,43.060219],[141.353406,43.055366],[141.355152,43.048333],[141.355984,43.040212],[141.361193,43.037544],[141.368305,43.034594],[141.371338,43.02652],[141.367354,43.017201],[141.36483,43.006329],[141.358448,42.991168]]}},{"type":"Feature","properties":{"route_company":"札幌市交通局","route_id":"H","element_type":"way","color":"#4363d8","route_name":"東豊線","osm_id":"1827999","railway":"subway"},"geometry":{"type":"LineString","coordinates":[[141.367161,43.113008],[141.369123,43.10474],[141.371732,43.094086],[141.374506,43.082427],[141.365374,43.078238],[141.354973,43.076824],[141.353939,43.066261],[141.355348,43.060727],[141.357071,43.054177],[141.369019,43.047786],[141.376219,43.042151],[141.385678,43.036299],[141.39675,43.029945],[141.402919,43.021863]]}},{"type":"Feature","properties":{"osm_id":"7656575994","station_name":"宮の沢","element_type":"node","station_id":"T01"},"geometry":{"type":"Point","coordinates":[141.277992,43.089521]}},{"type":"Feature","properties":{"osm_id":"7656576001","station_name":"発寒南","element_type":"node","station_id":"T02"},"geometry":{"type":"Point","coordinates":[141.290228,43.08163]}},{"type":"Feature","properties":{"osm_id":"7656576019","station_name":"琴似","element_type":"node","station_id":"T03"},"geometry":{"type":"Point","coordinates":[141.304464,43.075474]}},{"type":"Feature","properties":{"osm_id":"7656576022","station_name":"二十四軒","element_type":"node","station_id":"T04"},"geometry":{"type":"Point","coordinates":[141.313632,43.070503]}},{"type":"Feature","properties":{"osm_id":"7656576041","station_name":"西28丁目","element_type":"node","station_id":"T05"},"geometry":{"type":"Point","coordinates":[141.314682,43.061007]}},{"type":"Feature","properties":{"osm_id":"7656576051","station_name":"円山公園","element_type":"node","station_id":"T06"},"geometry":{"type":"Point","coordinates":[141.319441,43.055783]}},{"type":"Feature","properties":{"osm_id":"7656576052","station_name":"西18丁目","element_type":"node","station_id":"T07"},"geometry":{"type":"Point","coordinates":[141.330346,43.057257]}},{"type":"Feature","properties":{"osm_id":"7656576053","station_name":"西11丁目","element_type":"node","station_id":"T08"},"geometry":{"type":"Point","coordinates":[141.341383,43.058742]}},{"type":"Feature","properties":{"osm_id":"7656576057","station_name":"大通","element_type":"node","station_id":"T09"},"geometry":{"type":"Point","coordinates":[141.352085,43.060219]}},{"type":"Feature","properties":{"osm_id":"7656575905","station_name":"バスセンター前","element_type":"node","station_id":"T10"},"geometry":{"type":"Point","coordinates":[141.361958,43.061577]}},{"type":"Feature","properties":{"osm_id":"7656575922","station_name":"菊水","element_type":"node","station_id":"T11"},"geometry":{"type":"Point","coordinates":[141.372824,43.057374]}},{"type":"Feature","properties":{"osm_id":"7656575934","station_name":"東札幌","element_type":"node","station_id":"T12"},"geometry":{"type":"Point","coordinates":[141.38477,43.05188]}},{"type":"Feature","properties":{"osm_id":"7656575941","station_name":"白石","element_type":"node","station_id":"T13"},"geometry":{"type":"Point","coordinates":[141.395667,43.046461]}},{"type":"Feature","properties":{"osm_id":"7656575949","station_name":"南郷7丁目","element_type":"node","station_id":"T14"},"geometry":{"type":"Point","coordinates":[141.411019,43.040387]}},{"type":"Feature","properties":{"osm_id":"7656575952","station_name":"南郷13丁目","element_type":"node","station_id":"T15"},"geometry":{"type":"Point","coordinates":[141.422933,43.035804]}},{"type":"Feature","properties":{"osm_id":"7656575961","station_name":"南郷18丁目","element_type":"node","station_id":"T16"},"geometry":{"type":"Point","coordinates":[141.435281,43.030383]}},{"type":"Feature","properties":{"osm_id":"7656575973","station_name":"大谷地","element_type":"node","station_id":"T17"},"geometry":{"type":"Point","coordinates":[141.453151,43.028]}},{"type":"Feature","properties":{"osm_id":"7656575982","station_name":"ひばりが丘","element_type":"node","station_id":"T18"},"geometry":{"type":"Point","coordinates":[141.464387,43.032288]}},{"type":"Feature","properties":{"osm_id":"7656575992","station_name":"新さっぽろ","element_type":"node","station_id":"T19"},"geometry":{"type":"Point","coordinates":[141.473949,43.038861]}},{"type":"Feature","properties":{"osm_id":"353677263","station_name":"麻生","element_type":"node","station_id":"N01"},"geometry":{"type":"Point","coordinates":[141.338389,43.108388]}},{"type":"Feature","properties":{"osm_id":"353677261","station_name":"北34条","element_type":"node","station_id":"N02"},"geometry":{"type":"Point","coordinates":[141.342077,43.100217]}},{"type":"Feature","properties":{"osm_id":"353677323","station_name":"北24条","element_type":"node","station_id":"N03"},"geometry":{"type":"Point","coordinates":[141.344799,43.089495]}},{"type":"Feature","properties":{"osm_id":"353677278","station_name":"北18条","element_type":"node","station_id":"N04"},"geometry":{"type":"Point","coordinates":[141.346806,43.081579]}},{"type":"Feature","properties":{"osm_id":"353677268","station_name":"北12条","element_type":"node","station_id":"N05"},"geometry":{"type":"Point","coordinates":[141.348504,43.074774]}},{"type":"Feature","properties":{"osm_id":"353677329","station_name":"さっぽろ","element_type":"node","station_id":"N06"},"geometry":{"type":"Point","coordinates":[141.350729,43.065955]}},{"type":"Feature","properties":{"osm_id":"353677501","station_name":"すすきの","element_type":"node","station_id":"N08"},"geometry":{"type":"Point","coordinates":[141.353406,43.055366]}},{"type":"Feature","properties":{"osm_id":"353677515","station_name":"中島公園","element_type":"node","station_id":"N09"},"geometry":{"type":"Point","coordinates":[141.355152,43.048333]}},{"type":"Feature","properties":{"osm_id":"353677463","station_name":"幌平橋","element_type":"node","station_id":"N10"},"geometry":{"type":"Point","coordinates":[141.355984,43.040212]}},{"type":"Feature","properties":{"osm_id":"353677681","station_name":"中の島","element_type":"node","station_id":"N11"},"geometry":{"type":"Point","coordinates":[141.361193,43.037544]}},{"type":"Feature","properties":{"osm_id":"353677878","station_name":"平岸","element_type":"node","station_id":"N12"},"geometry":{"type":"Point","coordinates":[141.368305,43.034594]}},{"type":"Feature","properties":{"osm_id":"353677843","station_name":"南平岸","element_type":"node","station_id":"N13"},"geometry":{"type":"Point","coordinates":[141.371338,43.02652]}},{"type":"Feature","properties":{"osm_id":"353677470","station_name":"澄川","element_type":"node","station_id":"N14"},"geometry":{"type":"Point","coordinates":[141.367354,43.017201]}},{"type":"Feature","properties":{"osm_id":"353677574","station_name":"自衛隊前","element_type":"node","station_id":"N15"},"geometry":{"type":"Point","coordinates":[141.36483,43.006329]}},{"type":"Feature","properties":{"osm_id":"353677480","station_name":"真駒内","element_type":"node","station_id":"N16"},"geometry":{"type":"Point","coordinates":[141.358448,42.991168]}},{"type":"Feature","properties":{"osm_id":"5729328868","station_name":"栄町","element_type":"node","station_id":"H01"},"geometry":{"type":"Point","coordinates":[141.367161,43.113008]}},{"type":"Feature","properties":{"osm_id":"353689366","station_name":"新道東","element_type":"node","station_id":"H02"},"geometry":{"type":"Point","coordinates":[141.369123,43.10474]}},{"type":"Feature","properties":{"osm_id":"353689313","station_name":"元町","element_type":"node","station_id":"H03"},"geometry":{"type":"Point","coordinates":[141.371732,43.094086]}},{"type":"Feature","properties":{"osm_id":"353690073","station_name":"環状通東","element_type":"node","station_id":"H04"},"geometry":{"type":"Point","coordinates":[141.374506,43.082427]}},{"type":"Feature","properties":{"osm_id":"353689299","station_name":"東区役所前","element_type":"node","station_id":"H05"},"geometry":{"type":"Point","coordinates":[141.365374,43.078238]}},{"type":"Feature","properties":{"osm_id":"353689341","station_name":"北13条東","element_type":"node","station_id":"H06"},"geometry":{"type":"Point","coordinates":[141.354973,43.076824]}},{"type":"Feature","properties":{"osm_id":"353689263","station_name":"さっぽろ","element_type":"node","station_id":"H07"},"geometry":{"type":"Point","coordinates":[141.353939,43.066261]}},{"type":"Feature","properties":{"osm_id":"6516226625","station_name":"大通","element_type":"node","station_id":"H08"},"geometry":{"type":"Point","coordinates":[141.355348,43.060727]}},{"type":"Feature","properties":{"osm_id":"353690112","station_name":"豊水すすきの","element_type":"node","station_id":"H09"},"geometry":{"type":"Point","coordinates":[141.357071,43.054177]}},{"type":"Feature","properties":{"osm_id":"353690394","station_name":"学園前","element_type":"node","station_id":"H10"},"geometry":{"type":"Point","coordinates":[141.369019,43.047786]}},{"type":"Feature","properties":{"osm_id":"353690290","station_name":"豊平公園","element_type":"node","station_id":"H11"},"geometry":{"type":"Point","coordinates":[141.376219,43.042151]}},{"type":"Feature","properties":{"osm_id":"353690339","station_name":"美園","element_type":"node","station_id":"H12"},"geometry":{"type":"Point","coordinates":[141.385678,43.036299]}},{"type":"Feature","properties":{"osm_id":"353690247","station_name":"月寒中央","element_type":"node","station_id":"H13"},"geometry":{"type":"Point","coordinates":[141.39675,43.029945]}},{"type":"Feature","properties":{"osm_id":"353690349","station_name":"福住","element_type":"node","station_id":"H14"},"geometry":{"type":"Point","coordinates":[141.402919,43.021863]}}]}