{"type":"FeatureCollection","generator":"metroOsmFetch (OpenStreetMap / Overpass, ODbL)","features":[{"type":"Feature","properties":{"route_company":"札幌市交通局","route_id":"T","element_type":"way","color":"#ff8c00","route_name":"東西線","osm_id":"1827997","railway":"subway","status":"open"},"geometry":{"type":"LineString","coordinates":[[141.277971,43.089503],[141.290211,43.081611],[141.304445,43.075457],[141.313618,43.070484],[141.314652,43.061004],[141.319447,43.055761],[141.330352,43.057235],[141.34139,43.058719],[141.353152,43.060378],[141.361964,43.061555],[141.372799,43.057362],[141.384754,43.051866],[141.395656,43.046441],[141.411005,43.040368],[141.422917,43.035787],[141.43527,43.030362],[141.453165,43.02798],[141.464401,43.032269],[141.473979,43.038857]]}},{"type":"Feature","properties":{"route_company":"札幌市交通局","route_id":"N","element_type":"way","color":"#008800","route_name":"南北線","osm_id":"1827998","railway":"subway","status":"open"},"geometry":{"type":"LineString","coordinates":[[141.338359,43.108384],[141.342047,43.100213],[141.344765,43.089491],[141.346776,43.081575],[141.348474,43.07477],[141.352302,43.066104],[141.353152,43.060378],[141.353376,43.055362],[141.355121,43.048331],[141.355961,43.040195],[141.361175,43.037526],[141.368299,43.034572],[141.371289,43.026526],[141.367324,43.017203],[141.364793,43.006333],[141.358428,42.991171]]}},{"type":"Feature","properties":{"route_company":"札幌市交通局","route_id":"H","element_type":"way","color":"#4363d8","route_name":"東豊線","osm_id":"1827999","railway":"subway","status":"open"},"geometry":{"type":"LineString","coordinates":[[141.367125,43.113005],[141.369087,43.104736],[141.371696,43.094083],[141.374471,43.082424],[141.365363,43.07826],[141.354963,43.076846],[141.352302,43.066104],[141.353152,43.060378],[141.357006,43.054166],[141.36896,43.047776],[141.376159,43.042124],[141.385654,43.036273],[141.396708,43.029931],[141.40288,43.021845]]}},{"type":"Feature","properties":{"osm_id":"7656575994","station_name":"宮の沢","element_type":"node","station_id":"T01"},"geometry":{"type":"Point","coordinates":[141.277971,43.089503]}},{"type":"Feature","properties":{"osm_id":"7656576001","station_name":"発寒南","element_type":"node","station_id":"T02"},"geometry":{"type":"Point","coordinates":[141.290211,43.081611]}},{"type":"Feature","properties":{"osm_id":"7656576019","station_name":"琴似","element_type":"node","station_id":"T03"},"geometry":{"type":"Point","coordinates":[141.304445,43.075457]}},{"type":"Feature","properties":{"osm_id":"7656576022","station_name":"二十四軒","element_type":"node","station_id":"T04"},"geometry":{"type":"Point","coordinates":[141.313618,43.070484]}},{"type":"Feature","properties":{"osm_id":"7656576041","station_name":"西28丁目","element_type":"node","station_id":"T05"},"geometry":{"type":"Point","coordinates":[141.314652,43.061004]}},{"type":"Feature","properties":{"osm_id":"7656576051","station_name":"円山公園","element_type":"node","station_id":"T06"},"geometry":{"type":"Point","coordinates":[141.319447,43.055761]}},{"type":"Feature","properties":{"osm_id":"7656576052","station_name":"西18丁目","element_type":"node","station_id":"T07"},"geometry":{"type":"Point","coordinates":[141.330352,43.057235]}},{"type":"Feature","properties":{"osm_id":"7656576053","station_name":"西11丁目","element_type":"node","station_id":"T08"},"geometry":{"type":"Point","coordinates":[141.34139,43.058719]}},{"type":"Feature","properties":{"osm_id":"7656576057","station_name":"大通","element_type":"node","station_id":"T09"},"geometry":{"type":"Point","coordinates":[141.353152,43.060378]}},{"type":"Feature","properties":{"osm_id":"7656575905","station_name":"バスセンター前","element_type":"node","station_id":"T10"},"geometry":{"type":"Point","coordinates":[141.361964,43.061555]}},{"type":"Feature","properties":{"osm_id":"7656575922","station_name":"菊水","element_type":"node","station_id":"T11"},"geometry":{"type":"Point","coordinates":[141.372799,43.057362]}},{"type":"Feature","properties":{"osm_id":"7656575934","station_name":"東札幌","element_type":"node","station_id":"T12"},"geometry":{"type":"Point","coordinates":[141.384754,43.051866]}},{"type":"Feature","properties":{"osm_id":"7656575941","station_name":"白石","element_type":"node","station_id":"T13"},"geometry":{"type":"Point","coordinates":[141.395656,43.046441]}},{"type":"Feature","properties":{"osm_id":"7656575949","station_name":"南郷7丁目","element_type":"node","station_id":"T14"},"geometry":{"type":"Point","coordinates":[141.411005,43.040368]}},{"type":"Feature","properties":{"osm_id":"7656575952","station_name":"南郷13丁目","element_type":"node","station_id":"T15"},"geometry":{"type":"Point","coordinates":[141.422917,43.035787]}},{"type":"Feature","properties":{"osm_id":"7656575961","station_name":"南郷18丁目","element_type":"node","station_id":"T16"},"geometry":{"type":"Point","coordinates":[141.43527,43.030362]}},{"type":"Feature","properties":{"osm_id":"7656575973","station_name":"大谷地","element_type":"node","station_id":"T17"},"geometry":{"type":"Point","coordinates":[141.453165,43.02798]}},{"type":"Feature","properties":{"osm_id":"7656575982","station_name":"ひばりが丘","element_type":"node","station_id":"T18"},"geometry":{"type":"Point","coordinates":[141.464401,43.032269]}},{"type":"Feature","properties":{"osm_id":"7656575992","station_name":"新さっぽろ","element_type":"node","station_id":"T19"},"geometry":{"type":"Point","coordinates":[141.473979,43.038857]}},{"type":"Feature","properties":{"osm_id":"353677263","station_name":"麻生","element_type":"node","station_id":"N01"},"geometry":{"type":"Point","coordinates":[141.338359,43.108384]}},{"type":"Feature","properties":{"osm_id":"353677261","station_name":"北34条","element_type":"node","station_id":"N02"},"geometry":{"type":"Point","coordinates":[141.342047,43.100213]}},{"type":"Feature","properties":{"osm_id":"353677323","station_name":"北24条","element_type":"node","station_id":"N03"},"geometry":{"type":"Point","coordinates":[141.344765,43.089491]}},{"type":"Feature","properties":{"osm_id":"353677278","station_name":"北18条","element_type":"node","station_id":"N04"},"geometry":{"type":"Point","coordinates":[141.346776,43.081575]}},{"type":"Feature","properties":{"osm_id":"353677268","station_name":"北12条","element_type":"node","station_id":"N05"},"geometry":{"type":"Point","coordinates":[141.348474,43.07477]}},{"type":"Feature","properties":{"osm_id":"353677329","station_name":"さっぽろ","element_type":"node","station_id":"N06"},"geometry":{"type":"Point","coordinates":[141.352302,43.066104]}},{"type":"Feature","properties":{"osm_id":"353677501","station_name":"すすきの","element_type":"node","station_id":"N08"},"geometry":{"type":"Point","coordinates":[141.353376,43.055362]}},{"type":"Feature","properties":{"osm_id":"353677515","station_name":"中島公園","element_type":"node","station_id":"N09"},"geometry":{"type":"Point","coordinates":[141.355121,43.048331]}},{"type":"Feature","properties":{"osm_id":"353677463","station_name":"幌平橋","element_type":"node","station_id":"N10"},"geometry":{"type":"Point","coordinates":[141.355961,43.040195]}},{"type":"Feature","properties":{"osm_id":"353677681","station_name":"中の島","element_type":"node","station_id":"N11"},"geometry":{"type":"Point","coordinates":[141.361175,43.037526]}},{"type":"Feature","properties":{"osm_id":"353677878","station_name":"平岸","element_type":"node","station_id":"N12"},"geometry":{"type":"Point","coordinates":[141.368299,43.034572]}},{"type":"Feature","properties":{"osm_id":"353677843","station_name":"南平岸","element_type":"node","station_id":"N13"},"geometry":{"type":"Point","coordinates":[141.371289,43.026526]}},{"type":"Feature","properties":{"osm_id":"353677470","station_name":"澄川","element_type":"node","station_id":"N14"},"geometry":{"type":"Point","coordinates":[141.367324,43.017203]}},{"type":"Feature","properties":{"osm_id":"353677574","station_name":"自衛隊前","element_type":"node","station_id":"N15"},"geometry":{"type":"Point","coordinates":[141.364793,43.006333]}},{"type":"Feature","properties":{"osm_id":"353677480","station_name":"真駒内","element_type":"node","station_id":"N16"},"geometry":{"type":"Point","coordinates":[141.358428,42.991171]}},{"type":"Feature","properties":{"osm_id":"5729328868","station_name":"栄町","element_type":"node","station_id":"H01"},"geometry":{"type":"Point","coordinates":[141.367125,43.113005]}},{"type":"Feature","properties":{"osm_id":"353689366","station_name":"新道東","element_type":"node","station_id":"H02"},"geometry":{"type":"Point","coordinates":[141.369087,43.104736]}},{"type":"Feature","properties":{"osm_id":"353689313","station_name":"元町","element_type":"node","station_id":"H03"},"geometry":{"type":"Point","coordinates":[141.371696,43.094083]}},{"type":"Feature","properties":{"osm_id":"353690073","station_name":"環状通東","element_type":"node","station_id":"H04"},"geometry":{"type":"Point","coordinates":[141.374471,43.082424]}},{"type":"Feature","properties":{"osm_id":"353689299","station_name":"東区役所前","element_type":"node","station_id":"H05"},"geometry":{"type":"Point","coordinates":[141.365363,43.07826]}},{"type":"Feature","properties":{"osm_id":"353689341","station_name":"北13条東","element_type":"node","station_id":"H06"},"geometry":{"type":"Point","coordinates":[141.354963,43.076846]}},{"type":"Feature","properties":{"osm_id":"353690112","station_name":"豊水すすきの","element_type":"node","station_id":"H09"},"geometry":{"type":"Point","coordinates":[141.357006,43.054166]}},{"type":"Feature","properties":{"osm_id":"353690394","station_name":"学園前","element_type":"node","station_id":"H10"},"geometry":{"type":"Point","coordinates":[141.36896,43.047776]}},{"type":"Feature","properties":{"osm_id":"353690290","station_name":"豊平公園","element_type":"node","station_id":"H11"},"geometry":{"type":"Point","coordinates":[141.376159,43.042124]}},{"type":"Feature","properties":{"osm_id":"353690339","station_name":"美園","element_type":"node","station_id":"H12"},"geometry":{"type":"Point","coordinates":[141.385654,43.036273]}},{"type":"Feature","properties":{"osm_id":"353690247","station_name":"月寒中央","element_type":"node","station_id":"H13"},"geometry":{"type":"Point","coordinates":[141.396708,43.029931]}},{"type":"Feature","properties":{"osm_id":"353690349","station_name":"福住","element_type":"node","station_id":"H14"},"geometry":{"type":"Point","coordinates":[141.40288,43.021845]}}]}