{"type":"FeatureCollection","generator":"metroOsmFetch (OpenStreetMap / Overpass, ODbL)","features":[{"type":"Feature","properties":{"osm_id":"12638915293","station_name":"Pablo Adón Guzmán","element_type":"node","station_id":""},"geometry":{"type":"Point","coordinates":[-70.010382,18.519648]}},{"type":"Feature","properties":{"osm_id":"12638997083","station_name":"Freddy Gatón Arce","element_type":"node","station_id":""},"geometry":{"type":"Point","coordinates":[-70.008255,18.510469]}},{"type":"Feature","properties":{"osm_id":"12638857544","station_name":"27 de Febrero","element_type":"node","station_id":""},"geometry":{"type":"Point","coordinates":[-69.999389,18.502628]}},{"type":"Feature","properties":{"osm_id":"12638855053","station_name":"Franklin Mieses Burgos","element_type":"node","station_id":""},"geometry":{"type":"Point","coordinates":[-69.99106,18.496464]}},{"type":"Feature","properties":{"osm_id":"12638676675","station_name":"Pedro Martínez","element_type":"node","station_id":""},"geometry":{"type":"Point","coordinates":[-69.978161,18.485768]}},{"type":"Feature","properties":{"osm_id":"2324956457","station_name":"María Montez","element_type":"node","station_id":""},"geometry":{"type":"Point","coordinates":[-69.96819,18.478707]}},{"type":"Feature","properties":{"osm_id":"4119545007","station_name":"Pedro Francisco Bonó","element_type":"node","station_id":""},"geometry":{"type":"Point","coordinates":[-69.962009,18.47984]}},{"type":"Feature","properties":{"osm_id":"4119588390","station_name":"Francisco Gregorio Billini","element_type":"node","station_id":""},"geometry":{"type":"Point","coordinates":[-69.954479,18.481465]}},{"type":"Feature","properties":{"osm_id":"4119588420","station_name":"Ulises Francisco Espaillat","element_type":"node","station_id":""},"geometry":{"type":"Point","coordinates":[-69.946566,18.482017]}},{"type":"Feature","properties":{"osm_id":"5226305553","station_name":"Pedro Mir","element_type":"node","station_id":""},"geometry":{"type":"Point","coordinates":[-69.940773,18.483743]}},{"type":"Feature","properties":{"osm_id":"2324955715","station_name":"Freddy Beras-Goico","element_type":"node","station_id":""},"geometry":{"type":"Point","coordinates":[-69.930837,18.482568]}},{"type":"Feature","properties":{"osm_id":"309520913","station_name":"Juan Ulises García Saleta","element_type":"node","station_id":""},"geometry":{"type":"Point","coordinates":[-69.920472,18.481948]}},{"type":"Feature","properties":{"osm_id":"5226305563","station_name":"Juan Pablo Duarte","element_type":"node","station_id":""},"geometry":{"type":"Point","coordinates":[-69.914466,18.481556]}},{"type":"Feature","properties":{"osm_id":"2324959619","station_name":"Coronel Rafael Tomás Fernández Domínguez","element_type":"node","station_id":""},"geometry":{"type":"Point","coordinates":[-69.906836,18.481816]}},{"type":"Feature","properties":{"osm_id":"2324959692","station_name":"Mauricio Báez","element_type":"node","station_id":""},"geometry":{"type":"Point","coordinates":[-69.904612,18.48762]}},{"type":"Feature","properties":{"osm_id":"2324962072","station_name":"Ramón Cáceres","element_type":"node","station_id":""},"geometry":{"type":"Point","coordinates":[-69.899237,18.492928]}},{"type":"Feature","properties":{"osm_id":"5228521725","station_name":"Horacio Vásquez","element_type":"node","station_id":""},"geometry":{"type":"Point","coordinates":[-69.896176,18.495742]}},{"type":"Feature","properties":{"osm_id":"2324963155","station_name":"Manuel de Jesús Galván","element_type":"node","station_id":""},"geometry":{"type":"Point","coordinates":[-69.8899,18.499765]}},{"type":"Feature","properties":{"osm_id":"2324963154","station_name":"Eduardo Brito","element_type":"node","station_id":"20"},"geometry":{"type":"Point","coordinates":[-69.883953,18.504379]}},{"type":"Feature","properties":{"osm_id":"3723270045","station_name":"Ercilia Pepín","element_type":"node","station_id":""},"geometry":{"type":"Point","coordinates":[-69.876072,18.509882]}},{"type":"Feature","properties":{"osm_id":"3723270046","station_name":"Rosa Duarte","element_type":"node","station_id":""},"geometry":{"type":"Point","coordinates":[-69.869538,18.510151]}},{"type":"Feature","properties":{"osm_id":"3723289990","station_name":"Trina de Moya de Vásquez","element_type":"node","station_id":""},"geometry":{"type":"Point","coordinates":[-69.863418,18.509911]}},{"type":"Feature","properties":{"osm_id":"3723255425","station_name":"Concepción Bona","element_type":"node","station_id":"24"},"geometry":{"type":"Point","coordinates":[-69.857724,18.505252]}},{"type":"Feature","properties":{"osm_id":"12640548216","station_name":"Mamá Tingó","element_type":"node","station_id":""},"geometry":{"type":"Point","coordinates":[-69.900963,18.546682]}},{"type":"Feature","properties":{"osm_id":"12640538688","station_name":"Gregorio Urbano Gilbert","element_type":"node","station_id":""},"geometry":{"type":"Point","coordinates":[-69.90447,18.539997]}},{"type":"Feature","properties":{"osm_id":"12640873974","station_name":"Gregorio Luperón","element_type":"node","station_id":""},"geometry":{"type":"Point","coordinates":[-69.908453,18.529519]}},{"type":"Feature","properties":{"osm_id":"12640873973","station_name":"José Francisco Peña Gómez","element_type":"node","station_id":""},"geometry":{"type":"Point","coordinates":[-69.916249,18.525352]}},{"type":"Feature","properties":{"osm_id":"12640873972","station_name":"Hermanas Mirabal","element_type":"node","station_id":""},"geometry":{"type":"Point","coordinates":[-69.915024,18.517916]}},{"type":"Feature","properties":{"osm_id":"12640720540","station_name":"Máximo Gómez","element_type":"node","station_id":""},"geometry":{"type":"Point","coordinates":[-69.915849,18.507573]}},{"type":"Feature","properties":{"osm_id":"12640722123","station_name":"Los Taínos","element_type":"node","station_id":""},"geometry":{"type":"Point","coordinates":[-69.915469,18.499985]}},{"type":"Feature","properties":{"osm_id":"12640722124","station_name":"Pedro Livio Cedeño","element_type":"node","station_id":""},"geometry":{"type":"Point","coordinates":[-69.915067,18.49386]}},{"type":"Feature","properties":{"osm_id":"12640721531","station_name":"Manuel Arturo Peña Batlle","element_type":"node","station_id":""},"geometry":{"type":"Point","coordinates":[-69.914525,18.485794]}},{"type":"Feature","properties":{"osm_id":"12640845085","station_name":"Profesor Juan Bosch","element_type":"node","station_id":""},"geometry":{"type":"Point","coordinates":[-69.913812,18.476683]}},{"type":"Feature","properties":{"osm_id":"12640845087","station_name":"Casandra Damirón","element_type":"node","station_id":""},"geometry":{"type":"Point","coordinates":[-69.912098,18.471221]}},{"type":"Feature","properties":{"osm_id":"12640845091","station_name":"Joaquín Balaguer","element_type":"node","station_id":""},"geometry":{"type":"Point","coordinates":[-69.909941,18.464576]}},{"type":"Feature","properties":{"osm_id":"12640845097","station_name":"Amín Abel Hasbún","element_type":"node","station_id":""},"geometry":{"type":"Point","coordinates":[-69.916331,18.459196]}},{"type":"Feature","properties":{"osm_id":"12640845098","station_name":"Francisco Alberto Caamaño Deñó","element_type":"node","station_id":""},"geometry":{"type":"Point","coordinates":[-69.92404,18.455553]}},{"type":"Feature","properties":{"osm_id":"12640873607","station_name":"Centro de los Héroes","element_type":"node","station_id":""},"geometry":{"type":"Point","coordinates":[-69.92747,18.450848]}},{"type":"Feature","properties":{"route_company":"OPRET","route_id":"2","element_type":"way","color":"#3cb44b","route_name":"Línea 2: Pablo Adón Guzmán → Concepción Bona","osm_id":"7730098","railway":"subway","status":"open"},"geometry":{"type":"LineString","coordinates":[[-70.010382,18.519648],[-70.008255,18.510469],[-69.999389,18.502628],[-69.99106,18.496464],[-69.978161,18.485768],[-69.96819,18.478707],[-69.962009,18.47984],[-69.954479,18.481465],[-69.946566,18.482017],[-69.940773,18.483743],[-69.930837,18.482568],[-69.920472,18.481948],[-69.914466,18.481556]]}},{"type":"Feature","properties":{"route_company":"OPRET","route_id":"2","element_type":"way","color":"#3cb44b","route_name":"Línea 2: Pablo Adón Guzmán → Concepción Bona","osm_id":"7730098","railway":"subway","status":"open"},"geometry":{"type":"LineString","coordinates":[[-69.914466,18.481556],[-69.906836,18.481816],[-69.904612,18.48762],[-69.899237,18.492928],[-69.896176,18.495742],[-69.8899,18.499765],[-69.883953,18.504379],[-69.876072,18.509882],[-69.869538,18.510151],[-69.863418,18.509911],[-69.857724,18.505252]]}},{"type":"Feature","properties":{"route_company":"OPRET","route_id":"1","element_type":"way","color":"#e6194b","route_name":"Línea 1: Mamá Tingó → Centro de los Héroes","osm_id":"1325782","railway":"subway","status":"open"},"geometry":{"type":"LineString","coordinates":[[-69.900963,18.546682],[-69.90447,18.539997],[-69.908453,18.529519],[-69.916249,18.525352],[-69.915024,18.517916],[-69.915849,18.507573],[-69.915469,18.499985],[-69.915067,18.49386],[-69.914525,18.485794],[-69.914466,18.481556]]}},{"type":"Feature","properties":{"route_company":"OPRET","route_id":"1","element_type":"way","color":"#e6194b","route_name":"Línea 1: Mamá Tingó → Centro de los Héroes","osm_id":"1325782","railway":"subway","status":"open"},"geometry":{"type":"LineString","coordinates":[[-69.914466,18.481556],[-69.913812,18.476683],[-69.912098,18.471221],[-69.909941,18.464576],[-69.916331,18.459196],[-69.92404,18.455553],[-69.92747,18.450848]]}}]}