{"type":"FeatureCollection","generator":"metroOsmFetch (OpenStreetMap / Overpass, ODbL)","features":[{"type":"Feature","properties":{"route_company":"Казанский метрополитен","route_id":"1","element_type":"way","color":"#e6194b","route_name":"Метро 1: Авиастроительная → Дубравная","osm_id":"1180910","railway":"subway","status":"open"},"geometry":{"type":"LineString","coordinates":[[49.08454,55.855689],[49.08195,55.841893],[49.082566,55.828138],[49.098407,55.81653],[49.107234,55.795115],[49.124964,55.785597],[49.142663,55.777143],[49.16653,55.765129],[49.190959,55.760188],[49.208399,55.749838],[49.218947,55.743857]]}},{"type":"Feature","properties":{"osm_id":"1420931656","station_name":"Авиастроительная","element_type":"node","station_id":"1420931656"},"geometry":{"type":"Point","coordinates":[49.08454,55.855689]}},{"type":"Feature","properties":{"osm_id":"1420931658","station_name":"Северный вокзал","element_type":"node","station_id":"1420931658"},"geometry":{"type":"Point","coordinates":[49.08195,55.841893]}},{"type":"Feature","properties":{"osm_id":"1420931684","station_name":"Яшьлек","element_type":"node","station_id":"1420931684"},"geometry":{"type":"Point","coordinates":[49.082566,55.828138]}},{"type":"Feature","properties":{"osm_id":"819347415","station_name":"Козья слобода","element_type":"node","station_id":"819347415"},"geometry":{"type":"Point","coordinates":[49.098407,55.81653]}},{"type":"Feature","properties":{"osm_id":"441886281","station_name":"Кремлёвская","element_type":"node","station_id":"441886281"},"geometry":{"type":"Point","coordinates":[49.107234,55.795115]}},{"type":"Feature","properties":{"osm_id":"441886280","station_name":"Площадь Габдуллы Тукая","element_type":"node","station_id":"441886280"},"geometry":{"type":"Point","coordinates":[49.124964,55.785597]}},{"type":"Feature","properties":{"osm_id":"441886279","station_name":"Суконная слобода","element_type":"node","station_id":"441886279"},"geometry":{"type":"Point","coordinates":[49.142663,55.777143]}},{"type":"Feature","properties":{"osm_id":"913287042","station_name":"Аметьево","element_type":"node","station_id":"913287042"},"geometry":{"type":"Point","coordinates":[49.16653,55.765129]}},{"type":"Feature","properties":{"osm_id":"441886277","station_name":"Горки","element_type":"node","station_id":"441886277"},"geometry":{"type":"Point","coordinates":[49.190959,55.760188]}},{"type":"Feature","properties":{"osm_id":"441886276","station_name":"Проспект Победы","element_type":"node","station_id":"441886276"},"geometry":{"type":"Point","coordinates":[49.208399,55.749838]}},{"type":"Feature","properties":{"osm_id":"9017835959","station_name":"Дубравная","element_type":"node","station_id":"9017835959"},"geometry":{"type":"Point","coordinates":[49.218947,55.743857]}}]}