{"type":"FeatureCollection","generator":"metroOsmFetch (OpenStreetMap / Overpass, ODbL)","features":[{"type":"Feature","properties":{"route_company":"Казанский метрополитен","route_id":"1","element_type":"way","color":"#e6194b","route_name":"Метро 1: Авиастроительная → Дубравная","osm_id":"1180910","railway":"subway"},"geometry":{"type":"LineString","coordinates":[[49.084413,55.855691],[49.081833,55.841915],[49.082451,55.828103],[49.098305,55.81651],[49.107206,55.795088],[49.124919,55.785571],[49.142598,55.7771],[49.16651,55.765074],[49.19089,55.760152],[49.208322,55.749798],[49.218881,55.743822]]}},{"type":"Feature","properties":{"osm_id":"1420931656","station_name":"Авиастроительная","element_type":"node","station_id":"1420931656"},"geometry":{"type":"Point","coordinates":[49.084413,55.855691]}},{"type":"Feature","properties":{"osm_id":"1420931658","station_name":"Северный вокзал","element_type":"node","station_id":"1420931658"},"geometry":{"type":"Point","coordinates":[49.081833,55.841915]}},{"type":"Feature","properties":{"osm_id":"1420931684","station_name":"Яшьлек","element_type":"node","station_id":"1420931684"},"geometry":{"type":"Point","coordinates":[49.082451,55.828103]}},{"type":"Feature","properties":{"osm_id":"819347415","station_name":"Козья слобода","element_type":"node","station_id":"819347415"},"geometry":{"type":"Point","coordinates":[49.098305,55.81651]}},{"type":"Feature","properties":{"osm_id":"441886281","station_name":"Кремлёвская","element_type":"node","station_id":"441886281"},"geometry":{"type":"Point","coordinates":[49.107206,55.795088]}},{"type":"Feature","properties":{"osm_id":"441886280","station_name":"Площадь Габдуллы Тукая","element_type":"node","station_id":"441886280"},"geometry":{"type":"Point","coordinates":[49.124919,55.785571]}},{"type":"Feature","properties":{"osm_id":"441886279","station_name":"Суконная слобода","element_type":"node","station_id":"441886279"},"geometry":{"type":"Point","coordinates":[49.142598,55.7771]}},{"type":"Feature","properties":{"osm_id":"913287042","station_name":"Аметьево","element_type":"node","station_id":"913287042"},"geometry":{"type":"Point","coordinates":[49.16651,55.765074]}},{"type":"Feature","properties":{"osm_id":"441886277","station_name":"Горки","element_type":"node","station_id":"441886277"},"geometry":{"type":"Point","coordinates":[49.19089,55.760152]}},{"type":"Feature","properties":{"osm_id":"441886276","station_name":"Проспект Победы","element_type":"node","station_id":"441886276"},"geometry":{"type":"Point","coordinates":[49.208322,55.749798]}},{"type":"Feature","properties":{"osm_id":"9017835959","station_name":"Дубравная","element_type":"node","station_id":"9017835959"},"geometry":{"type":"Point","coordinates":[49.218881,55.743822]}}]}