{"type":"FeatureCollection","generator":"metroOsmFetch (OpenStreetMap / Overpass, ODbL)","features":[{"type":"Feature","properties":{"route_company":"","route_id":"1","element_type":"way","color":"#f11013","route_name":"Автозаводско-Нагорная линия","osm_id":"283406","railway":"subway","status":"open"},"geometry":{"type":"LineString","coordinates":[[43.994028,56.313883],[43.947131,56.320946],[43.937171,56.310594],[43.938154,56.299056],[43.927774,56.285142],[43.921315,56.276461],[43.913272,56.266449],[43.9009,56.257127],[43.890042,56.252899],[43.876884,56.247768],[43.858045,56.242125]]}},{"type":"Feature","properties":{"route_company":"Нижегородский метрополитен","route_id":"2","element_type":"way","color":"#137cb5","route_name":"Сормовско-Мещерская линия","osm_id":"283405","railway":"subway","status":"open"},"geometry":{"type":"LineString","coordinates":[[43.894817,56.333246],[43.912036,56.325732],[43.926508,56.320547],[43.947131,56.320946],[43.949575,56.33531]]}},{"type":"Feature","properties":{"osm_id":"1997063929","station_name":"Горьковская","element_type":"node","station_id":"1997063929"},"geometry":{"type":"Point","coordinates":[43.994028,56.313883]}},{"type":"Feature","properties":{"osm_id":"442018450","station_name":"Московская","element_type":"node","station_id":"442018450"},"geometry":{"type":"Point","coordinates":[43.947131,56.320946]}},{"type":"Feature","properties":{"osm_id":"8907713700","station_name":"Чкаловская","element_type":"node","station_id":"8907713700"},"geometry":{"type":"Point","coordinates":[43.937171,56.310594]}},{"type":"Feature","properties":{"osm_id":"8907696190","station_name":"Ленинская","element_type":"node","station_id":"8907696190"},"geometry":{"type":"Point","coordinates":[43.938154,56.299056]}},{"type":"Feature","properties":{"osm_id":"8907620206","station_name":"Заречная","element_type":"node","station_id":"8907620206"},"geometry":{"type":"Point","coordinates":[43.927774,56.285142]}},{"type":"Feature","properties":{"osm_id":"8907593559","station_name":"Двигатель Революции","element_type":"node","station_id":"8907593559"},"geometry":{"type":"Point","coordinates":[43.921315,56.276461]}},{"type":"Feature","properties":{"osm_id":"8907551159","station_name":"Пролетарская","element_type":"node","station_id":"8907551159"},"geometry":{"type":"Point","coordinates":[43.913272,56.266449]}},{"type":"Feature","properties":{"osm_id":"8907406759","station_name":"Автозаводская","element_type":"node","station_id":"8907406759"},"geometry":{"type":"Point","coordinates":[43.9009,56.257127]}},{"type":"Feature","properties":{"osm_id":"8907399562","station_name":"Комсомольская","element_type":"node","station_id":"8907399562"},"geometry":{"type":"Point","coordinates":[43.890042,56.252899]}},{"type":"Feature","properties":{"osm_id":"8907339002","station_name":"Кировская","element_type":"node","station_id":"8907339002"},"geometry":{"type":"Point","coordinates":[43.876884,56.247768]}},{"type":"Feature","properties":{"osm_id":"8501034783","station_name":"Парк культуры","element_type":"node","station_id":"8501034783"},"geometry":{"type":"Point","coordinates":[43.858045,56.242125]}},{"type":"Feature","properties":{"osm_id":"2018941890","station_name":"Буревестник","element_type":"node","station_id":"2018941890"},"geometry":{"type":"Point","coordinates":[43.894817,56.333246]}},{"type":"Feature","properties":{"osm_id":"2018941879","station_name":"Бурнаковская","element_type":"node","station_id":"2018941879"},"geometry":{"type":"Point","coordinates":[43.912036,56.325732]}},{"type":"Feature","properties":{"osm_id":"1824520086","station_name":"Канавинская","element_type":"node","station_id":"1824520086"},"geometry":{"type":"Point","coordinates":[43.926508,56.320547]}},{"type":"Feature","properties":{"osm_id":"5627149862","station_name":"Стрелка","element_type":"node","station_id":"5627149862"},"geometry":{"type":"Point","coordinates":[43.949575,56.33531]}}]}