{"type":"FeatureCollection","generator":"metroOsmFetch (OpenStreetMap / Overpass, ODbL)","features":[{"type":"Feature","properties":{"route_company":"МУП «Новосибирский метрополитен»","route_id":"1","element_type":"way","color":"#e53027","route_name":"Ленинская линия","osm_id":"3737231","railway":"subway"},"geometry":{"type":"LineString","coordinates":[[82.912407,55.059438],[82.914664,55.051143],[82.917983,55.041938],[82.9204,55.030101],[82.939101,55.018911],[82.938363,55.008959],[82.920411,54.996945],[82.906569,54.989346],[82.893026,54.983095]]}},{"type":"Feature","properties":{"route_company":"МУП «Новосибирский метрополитен»","route_id":"2","element_type":"way","color":"#35b55f","route_name":"Дзержинская линия","osm_id":"3737317","railway":"subway"},"geometry":{"type":"LineString","coordinates":[[82.97677,55.037714],[82.953145,55.043379],[82.934988,55.04375],[82.917983,55.041938],[82.898745,55.035417]]}},{"type":"Feature","properties":{"osm_id":"13129024391","station_name":"Заельцовская","element_type":"node","station_id":"13129024391"},"geometry":{"type":"Point","coordinates":[82.912407,55.059438]}},{"type":"Feature","properties":{"osm_id":"7547777103","station_name":"Гагаринская","element_type":"node","station_id":"7547777103"},"geometry":{"type":"Point","coordinates":[82.914664,55.051143]}},{"type":"Feature","properties":{"osm_id":"7547777107","station_name":"Красный проспект","element_type":"node","station_id":"7547777107"},"geometry":{"type":"Point","coordinates":[82.917983,55.041938]}},{"type":"Feature","properties":{"osm_id":"7547777108","station_name":"Площадь Ленина","element_type":"node","station_id":"7547777108"},"geometry":{"type":"Point","coordinates":[82.9204,55.030101]}},{"type":"Feature","properties":{"osm_id":"13129024392","station_name":"Октябрьская","element_type":"node","station_id":"13129024392"},"geometry":{"type":"Point","coordinates":[82.939101,55.018911]}},{"type":"Feature","properties":{"osm_id":"7547777137","station_name":"Речной вокзал","element_type":"node","station_id":"7547777137"},"geometry":{"type":"Point","coordinates":[82.938363,55.008959]}},{"type":"Feature","properties":{"osm_id":"13129024396","station_name":"Спортивная","element_type":"node","station_id":"13129024396"},"geometry":{"type":"Point","coordinates":[82.920411,54.996945]}},{"type":"Feature","properties":{"osm_id":"13129024393","station_name":"Студенческая","element_type":"node","station_id":"13129024393"},"geometry":{"type":"Point","coordinates":[82.906569,54.989346]}},{"type":"Feature","properties":{"osm_id":"7547584640","station_name":"Площадь Маркса","element_type":"node","station_id":"7547584640"},"geometry":{"type":"Point","coordinates":[82.893026,54.983095]}},{"type":"Feature","properties":{"osm_id":"939067063","station_name":"Золотая Нива","element_type":"node","station_id":"939067063"},"geometry":{"type":"Point","coordinates":[82.97677,55.037714]}},{"type":"Feature","properties":{"osm_id":"8409914528","station_name":"Берёзовая роща","element_type":"node","station_id":"8409914528"},"geometry":{"type":"Point","coordinates":[82.953145,55.043379]}},{"type":"Feature","properties":{"osm_id":"8409914529","station_name":"Маршала Покрышкина","element_type":"node","station_id":"8409914529"},"geometry":{"type":"Point","coordinates":[82.934988,55.04375]}},{"type":"Feature","properties":{"osm_id":"8409914530","station_name":"Площадь Гарина-Михайловского","element_type":"node","station_id":"8409914530"},"geometry":{"type":"Point","coordinates":[82.898745,55.035417]}}]}