{"type":"FeatureCollection","generator":"metroOsmFetch (OpenStreetMap / Overpass, ODbL)","features":[{"type":"Feature","properties":{"route_company":"Петербургский метрополитен","route_id":"1","element_type":"way","color":"#4363d8","route_name":"Кировско-Выборгская линия: Проспект Ветеранов — Девяткино","osm_id":"252539","railway":"subway","status":"open"},"geometry":{"type":"LineString","coordinates":[[30.253494,59.841831],[30.268558,59.850647],[30.261193,59.8665],[30.261512,59.878001],[30.274239,59.899683],[30.302744,59.907574],[30.317863,59.915275],[30.332856,59.921594],[30.346626,59.926417],[30.358465,59.930266],[30.360997,59.943145],[30.355515,59.957234],[30.349732,59.969364],[30.345798,59.986523],[30.367489,60.001481],[30.374361,60.00978],[30.392802,60.012031],[30.417004,60.033215],[30.44316,60.050953]]}},{"type":"Feature","properties":{"route_company":"Петербургский метрополитен","route_id":"2","element_type":"way","color":"#f58231","route_name":"Московско-Петроградская линия: Парнас — Купчино","osm_id":"252540","railway":"subway","status":"open"},"geometry":{"type":"LineString","coordinates":[[30.334967,60.066696],[30.332787,60.049443],[30.320859,60.035328],[30.318054,60.017974],[30.296195,60.004283],[30.300739,59.987224],[30.31272,59.964893],[30.319279,59.955125],[30.329213,59.934148],[30.318783,59.926897],[30.317863,59.915275],[30.317866,59.892661],[30.3189,59.880279],[30.322133,59.851398],[30.351424,59.832818],[30.375719,59.829116]]}},{"type":"Feature","properties":{"route_company":"Петербургский метрополитен","route_id":"5","element_type":"way","color":"#911eb4","route_name":"Фрунзенско-Приморская линия: Шушары — Комендантский проспект","osm_id":"252541","railway":"subway","status":"open"},"geometry":{"type":"LineString","coordinates":[[30.432246,59.820694],[30.410913,59.839998],[30.39552,59.856729],[30.381963,59.868654],[30.370478,59.882352],[30.360642,59.896616],[30.351042,59.913144],[30.332856,59.921594],[30.318783,59.926897],[30.313945,59.936198],[30.289195,59.950099],[30.292632,59.959344],[30.262322,59.970675],[30.255764,59.987686],[30.256161,60.01091]]}},{"type":"Feature","properties":{"route_company":"Петербургский метрополитен","route_id":"3","element_type":"way","color":"#e6194b","route_name":"Невско-Василеостровская линия: Рыбацкое — Беговая","osm_id":"252536","railway":"subway","status":"open"},"geometry":{"type":"LineString","coordinates":[[30.499319,59.831227],[30.460007,59.849738],[30.467447,59.866365],[30.44032,59.878856],[30.421838,59.898105],[30.385885,59.922827],[30.358465,59.930266],[30.329213,59.934148],[30.275425,59.94326],[30.238017,59.948797],[30.211957,59.97222],[30.202539,59.987869]]}},{"type":"Feature","properties":{"route_company":"Петербургский метрополитен","route_id":"4","element_type":"way","color":"#3cb44b","route_name":"Правобережная линия: Улица Дыбенко — Горный институт","osm_id":"252537","railway":"subway","status":"open"},"geometry":{"type":"LineString","coordinates":[[30.481341,59.909518],[30.464102,59.921077],[30.44246,59.931565],[30.415175,59.929641],[30.385885,59.922827],[30.359356,59.921638],[30.346626,59.926417],[30.318783,59.926897],[30.262751,59.931848]]}},{"type":"Feature","properties":{"route_company":"Петербургский метрополитен","route_id":"6","element_type":"way","color":"#1ca8c9","route_name":"Красносельско-Калининская линия: Юго-Западная — Путиловская","osm_id":"20008262","railway":"subway","status":"open"},"geometry":{"type":"LineString","coordinates":[[30.231154,59.860091],[30.261512,59.878001]]}},{"type":"Feature","properties":{"osm_id":"2035112368","station_name":"Проспект Ветеранов","element_type":"node","station_id":"2035112368"},"geometry":{"type":"Point","coordinates":[30.253494,59.841831]}},{"type":"Feature","properties":{"osm_id":"2303004130","station_name":"Ленинский проспект","element_type":"node","station_id":"2303004130"},"geometry":{"type":"Point","coordinates":[30.268558,59.850647]}},{"type":"Feature","properties":{"osm_id":"8518165869","station_name":"Автово","element_type":"node","station_id":"8518165869"},"geometry":{"type":"Point","coordinates":[30.261193,59.8665]}},{"type":"Feature","properties":{"osm_id":"2035112401","station_name":"Кировский завод","element_type":"node","station_id":"2035112401"},"geometry":{"type":"Point","coordinates":[30.261512,59.878001]}},{"type":"Feature","properties":{"osm_id":"8518165873","station_name":"Нарвская","element_type":"node","station_id":"8518165873"},"geometry":{"type":"Point","coordinates":[30.274239,59.899683]}},{"type":"Feature","properties":{"osm_id":"2035073232","station_name":"Балтийская","element_type":"node","station_id":"2035073232"},"geometry":{"type":"Point","coordinates":[30.302744,59.907574]}},{"type":"Feature","properties":{"osm_id":"1669571980","station_name":"Технологический институт 2","element_type":"node","station_id":"1669571980"},"geometry":{"type":"Point","coordinates":[30.317863,59.915275]}},{"type":"Feature","properties":{"osm_id":"2080774911","station_name":"Пушкинская","element_type":"node","station_id":"2080774911"},"geometry":{"type":"Point","coordinates":[30.332856,59.921594]}},{"type":"Feature","properties":{"osm_id":"2035477552","station_name":"Владимирская","element_type":"node","station_id":"2035477552"},"geometry":{"type":"Point","coordinates":[30.346626,59.926417]}},{"type":"Feature","properties":{"osm_id":"2532392165","station_name":"Площадь Восстания","element_type":"node","station_id":"2532392165"},"geometry":{"type":"Point","coordinates":[30.358465,59.930266]}},{"type":"Feature","properties":{"osm_id":"8518165884","station_name":"Чернышевская","element_type":"node","station_id":"8518165884"},"geometry":{"type":"Point","coordinates":[30.360997,59.943145]}},{"type":"Feature","properties":{"osm_id":"8518165887","station_name":"Площадь Ленина","element_type":"node","station_id":"8518165887"},"geometry":{"type":"Point","coordinates":[30.355515,59.957234]}},{"type":"Feature","properties":{"osm_id":"8518165888","station_name":"Выборгская","element_type":"node","station_id":"8518165888"},"geometry":{"type":"Point","coordinates":[30.349732,59.969364]}},{"type":"Feature","properties":{"osm_id":"8518165890","station_name":"Лесная","element_type":"node","station_id":"8518165890"},"geometry":{"type":"Point","coordinates":[30.345798,59.986523]}},{"type":"Feature","properties":{"osm_id":"8518165892","station_name":"Площадь Мужества","element_type":"node","station_id":"8518165892"},"geometry":{"type":"Point","coordinates":[30.367489,60.001481]}},{"type":"Feature","properties":{"osm_id":"8518165894","station_name":"Политехническая","element_type":"node","station_id":"8518165894"},"geometry":{"type":"Point","coordinates":[30.374361,60.00978]}},{"type":"Feature","properties":{"osm_id":"8518165896","station_name":"Академическая","element_type":"node","station_id":"8518165896"},"geometry":{"type":"Point","coordinates":[30.392802,60.012031]}},{"type":"Feature","properties":{"osm_id":"8518165898","station_name":"Гражданский проспект","element_type":"node","station_id":"8518165898"},"geometry":{"type":"Point","coordinates":[30.417004,60.033215]}},{"type":"Feature","properties":{"osm_id":"3516091354","station_name":"Девяткино","element_type":"node","station_id":"3516091354"},"geometry":{"type":"Point","coordinates":[30.44316,60.050953]}},{"type":"Feature","properties":{"osm_id":"1941204769","station_name":"Парнас","element_type":"node","station_id":"1941204769"},"geometry":{"type":"Point","coordinates":[30.334967,60.066696]}},{"type":"Feature","properties":{"osm_id":"8511707887","station_name":"Проспект Просвещения","element_type":"node","station_id":"8511707887"},"geometry":{"type":"Point","coordinates":[30.332787,60.049443]}},{"type":"Feature","properties":{"osm_id":"8511707885","station_name":"Озерки","element_type":"node","station_id":"8511707885"},"geometry":{"type":"Point","coordinates":[30.320859,60.035328]}},{"type":"Feature","properties":{"osm_id":"8511707883","station_name":"Удельная","element_type":"node","station_id":"8511707883"},"geometry":{"type":"Point","coordinates":[30.318054,60.017974]}},{"type":"Feature","properties":{"osm_id":"8511707881","station_name":"Пионерская","element_type":"node","station_id":"8511707881"},"geometry":{"type":"Point","coordinates":[30.296195,60.004283]}},{"type":"Feature","properties":{"osm_id":"8511707879","station_name":"Чёрная речка","element_type":"node","station_id":"8511707879"},"geometry":{"type":"Point","coordinates":[30.300739,59.987224]}},{"type":"Feature","properties":{"osm_id":"8511707876","station_name":"Петроградская","element_type":"node","station_id":"8511707876"},"geometry":{"type":"Point","coordinates":[30.31272,59.964893]}},{"type":"Feature","properties":{"osm_id":"8511707875","station_name":"Горьковская","element_type":"node","station_id":"8511707875"},"geometry":{"type":"Point","coordinates":[30.319279,59.955125]}},{"type":"Feature","properties":{"osm_id":"8511707873","station_name":"Невский проспект","element_type":"node","station_id":"8511707873"},"geometry":{"type":"Point","coordinates":[30.329213,59.934148]}},{"type":"Feature","properties":{"osm_id":"2056804601","station_name":"Сенная площадь","element_type":"node","station_id":"2056804601"},"geometry":{"type":"Point","coordinates":[30.318783,59.926897]}},{"type":"Feature","properties":{"osm_id":"2035297582","station_name":"Московские ворота","element_type":"node","station_id":"2035297582"},"geometry":{"type":"Point","coordinates":[30.317866,59.892661]}},{"type":"Feature","properties":{"osm_id":"8511707867","station_name":"Электросила","element_type":"node","station_id":"8511707867"},"geometry":{"type":"Point","coordinates":[30.3189,59.880279]}},{"type":"Feature","properties":{"osm_id":"2035297551","station_name":"Московская","element_type":"node","station_id":"2035297551"},"geometry":{"type":"Point","coordinates":[30.322133,59.851398]}},{"type":"Feature","properties":{"osm_id":"8511707863","station_name":"Звёздная","element_type":"node","station_id":"8511707863"},"geometry":{"type":"Point","coordinates":[30.351424,59.832818]}},{"type":"Feature","properties":{"osm_id":"2035297520","station_name":"Купчино","element_type":"node","station_id":"2035297520"},"geometry":{"type":"Point","coordinates":[30.375719,59.829116]}},{"type":"Feature","properties":{"osm_id":"4709806345","station_name":"Шушары","element_type":"node","station_id":"4709806345"},"geometry":{"type":"Point","coordinates":[30.432246,59.820694]}},{"type":"Feature","properties":{"osm_id":"8508603344","station_name":"Дунайская","element_type":"node","station_id":"8508603344"},"geometry":{"type":"Point","coordinates":[30.410913,59.839998]}},{"type":"Feature","properties":{"osm_id":"8508603347","station_name":"Проспект Славы","element_type":"node","station_id":"8508603347"},"geometry":{"type":"Point","coordinates":[30.39552,59.856729]}},{"type":"Feature","properties":{"osm_id":"2035003042","station_name":"Международная","element_type":"node","station_id":"2035003042"},"geometry":{"type":"Point","coordinates":[30.381963,59.868654]}},{"type":"Feature","properties":{"osm_id":"2035003043","station_name":"Бухарестская","element_type":"node","station_id":"2035003043"},"geometry":{"type":"Point","coordinates":[30.370478,59.882352]}},{"type":"Feature","properties":{"osm_id":"2470718784","station_name":"Волковская","element_type":"node","station_id":"2470718784"},"geometry":{"type":"Point","coordinates":[30.360642,59.896616]}},{"type":"Feature","properties":{"osm_id":"2035003070","station_name":"Обводный канал","element_type":"node","station_id":"2035003070"},"geometry":{"type":"Point","coordinates":[30.351042,59.913144]}},{"type":"Feature","properties":{"osm_id":"2470718782","station_name":"Адмиралтейская","element_type":"node","station_id":"2470718782"},"geometry":{"type":"Point","coordinates":[30.313945,59.936198]}},{"type":"Feature","properties":{"osm_id":"5040600576","station_name":"Спортивная","element_type":"node","station_id":"5040600576"},"geometry":{"type":"Point","coordinates":[30.289195,59.950099]}},{"type":"Feature","properties":{"osm_id":"6214545148","station_name":"Чкаловская","element_type":"node","station_id":"6214545148"},"geometry":{"type":"Point","coordinates":[30.292632,59.959344]}},{"type":"Feature","properties":{"osm_id":"2470718786","station_name":"Крестовский остров","element_type":"node","station_id":"2470718786"},"geometry":{"type":"Point","coordinates":[30.262322,59.970675]}},{"type":"Feature","properties":{"osm_id":"2470718790","station_name":"Старая Деревня","element_type":"node","station_id":"2470718790"},"geometry":{"type":"Point","coordinates":[30.255764,59.987686]}},{"type":"Feature","properties":{"osm_id":"2035003146","station_name":"Комендантский проспект","element_type":"node","station_id":"2035003146"},"geometry":{"type":"Point","coordinates":[30.256161,60.01091]}},{"type":"Feature","properties":{"osm_id":"8504823754","station_name":"Рыбацкое","element_type":"node","station_id":"8504823754"},"geometry":{"type":"Point","coordinates":[30.499319,59.831227]}},{"type":"Feature","properties":{"osm_id":"8504823755","station_name":"Обухово","element_type":"node","station_id":"8504823755"},"geometry":{"type":"Point","coordinates":[30.460007,59.849738]}},{"type":"Feature","properties":{"osm_id":"2035435020","station_name":"Пролетарская","element_type":"node","station_id":"2035435020"},"geometry":{"type":"Point","coordinates":[30.467447,59.866365]}},{"type":"Feature","properties":{"osm_id":"8504823757","station_name":"Ломоносовская","element_type":"node","station_id":"8504823757"},"geometry":{"type":"Point","coordinates":[30.44032,59.878856]}},{"type":"Feature","properties":{"osm_id":"8504823759","station_name":"Елизаровская","element_type":"node","station_id":"8504823759"},"geometry":{"type":"Point","coordinates":[30.421838,59.898105]}},{"type":"Feature","properties":{"osm_id":"8504823762","station_name":"Площадь Александра Невского 1","element_type":"node","station_id":"8504823762"},"geometry":{"type":"Point","coordinates":[30.385885,59.922827]}},{"type":"Feature","properties":{"osm_id":"2045866989","station_name":"Василеостровская","element_type":"node","station_id":"2045866989"},"geometry":{"type":"Point","coordinates":[30.275425,59.94326]}},{"type":"Feature","properties":{"osm_id":"8504823766","station_name":"Приморская","element_type":"node","station_id":"8504823766"},"geometry":{"type":"Point","coordinates":[30.238017,59.948797]}},{"type":"Feature","properties":{"osm_id":"5644519215","station_name":"Зенит","element_type":"node","station_id":"5644519215"},"geometry":{"type":"Point","coordinates":[30.211957,59.97222]}},{"type":"Feature","properties":{"osm_id":"2982994575","station_name":"Беговая","element_type":"node","station_id":"2982994575"},"geometry":{"type":"Point","coordinates":[30.202539,59.987869]}},{"type":"Feature","properties":{"osm_id":"8512025927","station_name":"Улица Дыбенко","element_type":"node","station_id":"8512025927"},"geometry":{"type":"Point","coordinates":[30.481341,59.909518]}},{"type":"Feature","properties":{"osm_id":"8512025930","station_name":"Проспект Большевиков","element_type":"node","station_id":"8512025930"},"geometry":{"type":"Point","coordinates":[30.464102,59.921077]}},{"type":"Feature","properties":{"osm_id":"8512025931","station_name":"Ладожская","element_type":"node","station_id":"8512025931"},"geometry":{"type":"Point","coordinates":[30.44246,59.931565]}},{"type":"Feature","properties":{"osm_id":"2302967364","station_name":"Новочеркасская","element_type":"node","station_id":"2302967364"},"geometry":{"type":"Point","coordinates":[30.415175,59.929641]}},{"type":"Feature","properties":{"osm_id":"8512025937","station_name":"Лиговский проспект","element_type":"node","station_id":"8512025937"},"geometry":{"type":"Point","coordinates":[30.359356,59.921638]}},{"type":"Feature","properties":{"osm_id":"12456153995","station_name":"Горный институт","element_type":"node","station_id":"12456153995"},"geometry":{"type":"Point","coordinates":[30.262751,59.931848]}},{"type":"Feature","properties":{"osm_id":"13408956409","station_name":"Юго-Западная","element_type":"node","station_id":"13408956409"},"geometry":{"type":"Point","coordinates":[30.231154,59.860091]}}]}