{"type":"FeatureCollection","generator":"metroOsmFetch (OpenStreetMap / Overpass, ODbL)","features":[{"type":"Feature","properties":{"route_company":"Петербургский метрополитен","route_id":"1","element_type":"way","color":"#4363d8","route_name":"Кировско-Выборгская линия: Проспект Ветеранов — Девяткино","osm_id":"252539","railway":"subway","status":"open"},"geometry":{"type":"LineString","coordinates":[[30.252001,59.841948],[30.268388,59.850646],[30.261002,59.86648],[30.261491,59.877987],[30.274054,59.899708],[30.302677,59.907683],[30.317865,59.91527],[30.33283,59.921606],[30.346583,59.926407],[30.358306,59.930246],[30.360771,59.943112],[30.355343,59.957216],[30.349507,59.969372],[30.34566,59.986547],[30.367346,60.001495],[30.374289,60.009859],[30.392742,60.012114],[30.416816,60.033246],[30.442631,60.050271]]}},{"type":"Feature","properties":{"route_company":"Петербургский метрополитен","route_id":"2","element_type":"way","color":"#f58231","route_name":"Московско-Петроградская линия: Парнас — Купчино","osm_id":"252540","railway":"subway","status":"open"},"geometry":{"type":"LineString","coordinates":[[30.333991,60.066914],[30.33291,60.049425],[30.321027,60.035318],[30.318162,60.017925],[30.296344,60.004294],[30.3009,59.987227],[30.312837,59.964917],[30.319454,59.955155],[30.329298,59.9341],[30.319031,59.926678],[30.317865,59.91527],[30.318061,59.892652],[30.319069,59.88026],[30.322396,59.851403],[30.351462,59.832876],[30.375493,59.829678]]}},{"type":"Feature","properties":{"route_company":"Петербургский метрополитен","route_id":"5","element_type":"way","color":"#911eb4","route_name":"Фрунзенско-Приморская линия: Шушары — Комендантский проспект","osm_id":"252541","railway":"subway","status":"open"},"geometry":{"type":"LineString","coordinates":[[30.432819,59.820079],[30.410894,59.839993],[30.395325,59.856681],[30.381877,59.868623],[30.370313,59.882328],[30.360394,59.89658],[30.350874,59.913171],[30.33283,59.921606],[30.319031,59.926678],[30.313872,59.936139],[30.289189,59.950101],[30.292424,59.959335],[30.262196,59.970599],[30.255636,59.987679],[30.256475,60.010328]]}},{"type":"Feature","properties":{"route_company":"Петербургский метрополитен","route_id":"3","element_type":"way","color":"#e6194b","route_name":"Невско-Василеостровская линия: Рыбацкое — Беговая","osm_id":"252536","railway":"subway","status":"open"},"geometry":{"type":"LineString","coordinates":[[30.500237,59.830859],[30.459924,59.849785],[30.467324,59.86627],[30.44016,59.878818],[30.4217,59.898057],[30.385842,59.922785],[30.358306,59.930246],[30.329298,59.9341],[30.275356,59.943174],[30.237936,59.948734],[30.211913,59.971956],[30.202185,59.987269]]}},{"type":"Feature","properties":{"route_company":"Петербургский метрополитен","route_id":"4","element_type":"way","color":"#3cb44b","route_name":"Правобережная линия: Улица Дыбенко — Горный институт","osm_id":"252537","railway":"subway","status":"open"},"geometry":{"type":"LineString","coordinates":[[30.48173,59.909055],[30.464013,59.921029],[30.44242,59.93153],[30.415208,59.929596],[30.385842,59.922785],[30.359277,59.921588],[30.346583,59.926407],[30.319031,59.926678],[30.263753,59.931181]]}},{"type":"Feature","properties":{"route_company":"Петербургский метрополитен","route_id":"6","element_type":"way","color":"#1ca8c9","route_name":"Красносельско-Калининская линия: Юго-Западная — Путиловская","osm_id":"20008262","railway":"subway","status":"open"},"geometry":{"type":"LineString","coordinates":[[30.231335,59.860028],[30.261491,59.877987]]}},{"type":"Feature","properties":{"osm_id":"2035112368","station_name":"Проспект Ветеранов","element_type":"node","station_id":"2035112368"},"geometry":{"type":"Point","coordinates":[30.252001,59.841948]}},{"type":"Feature","properties":{"osm_id":"2303004130","station_name":"Ленинский проспект","element_type":"node","station_id":"2303004130"},"geometry":{"type":"Point","coordinates":[30.268388,59.850646]}},{"type":"Feature","properties":{"osm_id":"8518165869","station_name":"Автово","element_type":"node","station_id":"8518165869"},"geometry":{"type":"Point","coordinates":[30.261002,59.86648]}},{"type":"Feature","properties":{"osm_id":"2035112401","station_name":"Кировский завод","element_type":"node","station_id":"2035112401"},"geometry":{"type":"Point","coordinates":[30.261491,59.877987]}},{"type":"Feature","properties":{"osm_id":"8518165873","station_name":"Нарвская","element_type":"node","station_id":"8518165873"},"geometry":{"type":"Point","coordinates":[30.274054,59.899708]}},{"type":"Feature","properties":{"osm_id":"2035073232","station_name":"Балтийская","element_type":"node","station_id":"2035073232"},"geometry":{"type":"Point","coordinates":[30.302677,59.907683]}},{"type":"Feature","properties":{"osm_id":"1669571980","station_name":"Технологический институт 2","element_type":"node","station_id":"1669571980"},"geometry":{"type":"Point","coordinates":[30.317865,59.91527]}},{"type":"Feature","properties":{"osm_id":"2080774911","station_name":"Пушкинская","element_type":"node","station_id":"2080774911"},"geometry":{"type":"Point","coordinates":[30.33283,59.921606]}},{"type":"Feature","properties":{"osm_id":"2035477552","station_name":"Владимирская","element_type":"node","station_id":"2035477552"},"geometry":{"type":"Point","coordinates":[30.346583,59.926407]}},{"type":"Feature","properties":{"osm_id":"2532392165","station_name":"Площадь Восстания","element_type":"node","station_id":"2532392165"},"geometry":{"type":"Point","coordinates":[30.358306,59.930246]}},{"type":"Feature","properties":{"osm_id":"8518165884","station_name":"Чернышевская","element_type":"node","station_id":"8518165884"},"geometry":{"type":"Point","coordinates":[30.360771,59.943112]}},{"type":"Feature","properties":{"osm_id":"8518165887","station_name":"Площадь Ленина","element_type":"node","station_id":"8518165887"},"geometry":{"type":"Point","coordinates":[30.355343,59.957216]}},{"type":"Feature","properties":{"osm_id":"8518165888","station_name":"Выборгская","element_type":"node","station_id":"8518165888"},"geometry":{"type":"Point","coordinates":[30.349507,59.969372]}},{"type":"Feature","properties":{"osm_id":"8518165890","station_name":"Лесная","element_type":"node","station_id":"8518165890"},"geometry":{"type":"Point","coordinates":[30.34566,59.986547]}},{"type":"Feature","properties":{"osm_id":"8518165892","station_name":"Площадь Мужества","element_type":"node","station_id":"8518165892"},"geometry":{"type":"Point","coordinates":[30.367346,60.001495]}},{"type":"Feature","properties":{"osm_id":"8518165894","station_name":"Политехническая","element_type":"node","station_id":"8518165894"},"geometry":{"type":"Point","coordinates":[30.374289,60.009859]}},{"type":"Feature","properties":{"osm_id":"8518165896","station_name":"Академическая","element_type":"node","station_id":"8518165896"},"geometry":{"type":"Point","coordinates":[30.392742,60.012114]}},{"type":"Feature","properties":{"osm_id":"8518165898","station_name":"Гражданский проспект","element_type":"node","station_id":"8518165898"},"geometry":{"type":"Point","coordinates":[30.416816,60.033246]}},{"type":"Feature","properties":{"osm_id":"3516091354","station_name":"Девяткино","element_type":"node","station_id":"3516091354"},"geometry":{"type":"Point","coordinates":[30.442631,60.050271]}},{"type":"Feature","properties":{"osm_id":"1941204769","station_name":"Парнас","element_type":"node","station_id":"1941204769"},"geometry":{"type":"Point","coordinates":[30.333991,60.066914]}},{"type":"Feature","properties":{"osm_id":"8511707887","station_name":"Проспект Просвещения","element_type":"node","station_id":"8511707887"},"geometry":{"type":"Point","coordinates":[30.33291,60.049425]}},{"type":"Feature","properties":{"osm_id":"8511707885","station_name":"Озерки","element_type":"node","station_id":"8511707885"},"geometry":{"type":"Point","coordinates":[30.321027,60.035318]}},{"type":"Feature","properties":{"osm_id":"8511707883","station_name":"Удельная","element_type":"node","station_id":"8511707883"},"geometry":{"type":"Point","coordinates":[30.318162,60.017925]}},{"type":"Feature","properties":{"osm_id":"8511707881","station_name":"Пионерская","element_type":"node","station_id":"8511707881"},"geometry":{"type":"Point","coordinates":[30.296344,60.004294]}},{"type":"Feature","properties":{"osm_id":"8511707879","station_name":"Чёрная речка","element_type":"node","station_id":"8511707879"},"geometry":{"type":"Point","coordinates":[30.3009,59.987227]}},{"type":"Feature","properties":{"osm_id":"8511707876","station_name":"Петроградская","element_type":"node","station_id":"8511707876"},"geometry":{"type":"Point","coordinates":[30.312837,59.964917]}},{"type":"Feature","properties":{"osm_id":"8511707875","station_name":"Горьковская","element_type":"node","station_id":"8511707875"},"geometry":{"type":"Point","coordinates":[30.319454,59.955155]}},{"type":"Feature","properties":{"osm_id":"8511707873","station_name":"Невский проспект","element_type":"node","station_id":"8511707873"},"geometry":{"type":"Point","coordinates":[30.329298,59.9341]}},{"type":"Feature","properties":{"osm_id":"2056804601","station_name":"Сенная площадь","element_type":"node","station_id":"2056804601"},"geometry":{"type":"Point","coordinates":[30.319031,59.926678]}},{"type":"Feature","properties":{"osm_id":"2035297582","station_name":"Московские ворота","element_type":"node","station_id":"2035297582"},"geometry":{"type":"Point","coordinates":[30.318061,59.892652]}},{"type":"Feature","properties":{"osm_id":"8511707867","station_name":"Электросила","element_type":"node","station_id":"8511707867"},"geometry":{"type":"Point","coordinates":[30.319069,59.88026]}},{"type":"Feature","properties":{"osm_id":"2035297551","station_name":"Московская","element_type":"node","station_id":"2035297551"},"geometry":{"type":"Point","coordinates":[30.322396,59.851403]}},{"type":"Feature","properties":{"osm_id":"8511707863","station_name":"Звёздная","element_type":"node","station_id":"8511707863"},"geometry":{"type":"Point","coordinates":[30.351462,59.832876]}},{"type":"Feature","properties":{"osm_id":"2035297520","station_name":"Купчино","element_type":"node","station_id":"2035297520"},"geometry":{"type":"Point","coordinates":[30.375493,59.829678]}},{"type":"Feature","properties":{"osm_id":"4709806345","station_name":"Шушары","element_type":"node","station_id":"4709806345"},"geometry":{"type":"Point","coordinates":[30.432819,59.820079]}},{"type":"Feature","properties":{"osm_id":"8508603344","station_name":"Дунайская","element_type":"node","station_id":"8508603344"},"geometry":{"type":"Point","coordinates":[30.410894,59.839993]}},{"type":"Feature","properties":{"osm_id":"8508603347","station_name":"Проспект Славы","element_type":"node","station_id":"8508603347"},"geometry":{"type":"Point","coordinates":[30.395325,59.856681]}},{"type":"Feature","properties":{"osm_id":"2035003042","station_name":"Международная","element_type":"node","station_id":"2035003042"},"geometry":{"type":"Point","coordinates":[30.381877,59.868623]}},{"type":"Feature","properties":{"osm_id":"2035003043","station_name":"Бухарестская","element_type":"node","station_id":"2035003043"},"geometry":{"type":"Point","coordinates":[30.370313,59.882328]}},{"type":"Feature","properties":{"osm_id":"2470718784","station_name":"Волковская","element_type":"node","station_id":"2470718784"},"geometry":{"type":"Point","coordinates":[30.360394,59.89658]}},{"type":"Feature","properties":{"osm_id":"2035003070","station_name":"Обводный канал","element_type":"node","station_id":"2035003070"},"geometry":{"type":"Point","coordinates":[30.350874,59.913171]}},{"type":"Feature","properties":{"osm_id":"2470718782","station_name":"Адмиралтейская","element_type":"node","station_id":"2470718782"},"geometry":{"type":"Point","coordinates":[30.313872,59.936139]}},{"type":"Feature","properties":{"osm_id":"5040600576","station_name":"Спортивная","element_type":"node","station_id":"5040600576"},"geometry":{"type":"Point","coordinates":[30.289189,59.950101]}},{"type":"Feature","properties":{"osm_id":"6214545148","station_name":"Чкаловская","element_type":"node","station_id":"6214545148"},"geometry":{"type":"Point","coordinates":[30.292424,59.959335]}},{"type":"Feature","properties":{"osm_id":"2470718786","station_name":"Крестовский остров","element_type":"node","station_id":"2470718786"},"geometry":{"type":"Point","coordinates":[30.262196,59.970599]}},{"type":"Feature","properties":{"osm_id":"2470718790","station_name":"Старая Деревня","element_type":"node","station_id":"2470718790"},"geometry":{"type":"Point","coordinates":[30.255636,59.987679]}},{"type":"Feature","properties":{"osm_id":"2035003146","station_name":"Комендантский проспект","element_type":"node","station_id":"2035003146"},"geometry":{"type":"Point","coordinates":[30.256475,60.010328]}},{"type":"Feature","properties":{"osm_id":"8504823754","station_name":"Рыбацкое","element_type":"node","station_id":"8504823754"},"geometry":{"type":"Point","coordinates":[30.500237,59.830859]}},{"type":"Feature","properties":{"osm_id":"8504823755","station_name":"Обухово","element_type":"node","station_id":"8504823755"},"geometry":{"type":"Point","coordinates":[30.459924,59.849785]}},{"type":"Feature","properties":{"osm_id":"2035435020","station_name":"Пролетарская","element_type":"node","station_id":"2035435020"},"geometry":{"type":"Point","coordinates":[30.467324,59.86627]}},{"type":"Feature","properties":{"osm_id":"8504823757","station_name":"Ломоносовская","element_type":"node","station_id":"8504823757"},"geometry":{"type":"Point","coordinates":[30.44016,59.878818]}},{"type":"Feature","properties":{"osm_id":"8504823759","station_name":"Елизаровская","element_type":"node","station_id":"8504823759"},"geometry":{"type":"Point","coordinates":[30.4217,59.898057]}},{"type":"Feature","properties":{"osm_id":"8504823762","station_name":"Площадь Александра Невского 1","element_type":"node","station_id":"8504823762"},"geometry":{"type":"Point","coordinates":[30.385842,59.922785]}},{"type":"Feature","properties":{"osm_id":"2045866989","station_name":"Василеостровская","element_type":"node","station_id":"2045866989"},"geometry":{"type":"Point","coordinates":[30.275356,59.943174]}},{"type":"Feature","properties":{"osm_id":"8504823766","station_name":"Приморская","element_type":"node","station_id":"8504823766"},"geometry":{"type":"Point","coordinates":[30.237936,59.948734]}},{"type":"Feature","properties":{"osm_id":"5644519215","station_name":"Зенит","element_type":"node","station_id":"5644519215"},"geometry":{"type":"Point","coordinates":[30.211913,59.971956]}},{"type":"Feature","properties":{"osm_id":"2982994575","station_name":"Беговая","element_type":"node","station_id":"2982994575"},"geometry":{"type":"Point","coordinates":[30.202185,59.987269]}},{"type":"Feature","properties":{"osm_id":"8512025927","station_name":"Улица Дыбенко","element_type":"node","station_id":"8512025927"},"geometry":{"type":"Point","coordinates":[30.48173,59.909055]}},{"type":"Feature","properties":{"osm_id":"8512025930","station_name":"Проспект Большевиков","element_type":"node","station_id":"8512025930"},"geometry":{"type":"Point","coordinates":[30.464013,59.921029]}},{"type":"Feature","properties":{"osm_id":"8512025931","station_name":"Ладожская","element_type":"node","station_id":"8512025931"},"geometry":{"type":"Point","coordinates":[30.44242,59.93153]}},{"type":"Feature","properties":{"osm_id":"2302967364","station_name":"Новочеркасская","element_type":"node","station_id":"2302967364"},"geometry":{"type":"Point","coordinates":[30.415208,59.929596]}},{"type":"Feature","properties":{"osm_id":"8512025937","station_name":"Лиговский проспект","element_type":"node","station_id":"8512025937"},"geometry":{"type":"Point","coordinates":[30.359277,59.921588]}},{"type":"Feature","properties":{"osm_id":"12456153995","station_name":"Горный институт","element_type":"node","station_id":"12456153995"},"geometry":{"type":"Point","coordinates":[30.263753,59.931181]}},{"type":"Feature","properties":{"osm_id":"13408956409","station_name":"Юго-Западная","element_type":"node","station_id":"13408956409"},"geometry":{"type":"Point","coordinates":[30.231335,59.860028]}}]}