{"type":"FeatureCollection","generator":"metroOsmFetch (OpenStreetMap / Overpass, ODbL)","features":[{"type":"Feature","properties":{"osm_id":"10765874594","station_name":"大連北站（2號線）","element_type":"node","station_id":""},"geometry":{"type":"Point","coordinates":[121.602814,39.014023]}},{"type":"Feature","properties":{"osm_id":"10765887017","station_name":"南關嶺","element_type":"node","station_id":""},"geometry":{"type":"Point","coordinates":[121.583844,39.017194]}},{"type":"Feature","properties":{"osm_id":"10765887030","station_name":"體育中心","element_type":"node","station_id":""},"geometry":{"type":"Point","coordinates":[121.566734,39.015138]}},{"type":"Feature","properties":{"osm_id":"10765887039","station_name":"衛生中心","element_type":"node","station_id":""},"geometry":{"type":"Point","coordinates":[121.552513,39.014148]}},{"type":"Feature","properties":{"osm_id":"10765887043","station_name":"後革","element_type":"node","station_id":""},"geometry":{"type":"Point","coordinates":[121.537709,39.014048]}},{"type":"Feature","properties":{"osm_id":"10765887060","station_name":"革鎮堡","element_type":"node","station_id":""},"geometry":{"type":"Point","coordinates":[121.524874,39.007121]}},{"type":"Feature","properties":{"osm_id":"10765887071","station_name":"中革","element_type":"node","station_id":""},"geometry":{"type":"Point","coordinates":[121.517175,38.997768]}},{"type":"Feature","properties":{"osm_id":"10765887086","station_name":"前革","element_type":"node","station_id":""},"geometry":{"type":"Point","coordinates":[121.513367,38.982208]}},{"type":"Feature","properties":{"osm_id":"10731139427","station_name":"辛寨子","element_type":"node","station_id":""},"geometry":{"type":"Point","coordinates":[121.509668,38.97041]}},{"type":"Feature","properties":{"osm_id":"10731123681","station_name":"機場","element_type":"node","station_id":""},"geometry":{"type":"Point","coordinates":[121.534786,38.960781]}},{"type":"Feature","properties":{"osm_id":"10728837032","station_name":"虹港路","element_type":"node","station_id":""},"geometry":{"type":"Point","coordinates":[121.53827,38.954661]}},{"type":"Feature","properties":{"osm_id":"10728836965","station_name":"虹錦路","element_type":"node","station_id":""},"geometry":{"type":"Point","coordinates":[121.535091,38.946664]}},{"type":"Feature","properties":{"osm_id":"10728836887","station_name":"紅旗西路","element_type":"node","station_id":""},"geometry":{"type":"Point","coordinates":[121.528378,38.92687]}},{"type":"Feature","properties":{"osm_id":"10728836817","station_name":"灣家","element_type":"node","station_id":""},"geometry":{"type":"Point","coordinates":[121.536847,38.923773]}},{"type":"Feature","properties":{"osm_id":"10726799613","station_name":"馬欄廣場","element_type":"node","station_id":""},"geometry":{"type":"Point","coordinates":[121.549583,38.919299]}},{"type":"Feature","properties":{"osm_id":"10726799541","station_name":"遼師大","element_type":"node","station_id":""},"geometry":{"type":"Point","coordinates":[121.559175,38.915205]}},{"type":"Feature","properties":{"osm_id":"10726796386","station_name":"交通大學","element_type":"node","station_id":""},"geometry":{"type":"Point","coordinates":[121.566809,38.912116]}},{"type":"Feature","properties":{"osm_id":"10724048168","station_name":"西安路（2號線）","element_type":"node","station_id":""},"geometry":{"type":"Point","coordinates":[121.582346,38.908955]}},{"type":"Feature","properties":{"osm_id":"10722780361","station_name":"聯合路","element_type":"node","station_id":""},"geometry":{"type":"Point","coordinates":[121.591299,38.913259]}},{"type":"Feature","properties":{"osm_id":"10722780238","station_name":"人民廣場","element_type":"node","station_id":""},"geometry":{"type":"Point","coordinates":[121.605401,38.910007]}},{"type":"Feature","properties":{"osm_id":"10722771093","station_name":"一二九街","element_type":"node","station_id":""},"geometry":{"type":"Point","coordinates":[121.617808,38.91231]}},{"type":"Feature","properties":{"osm_id":"3733552184","station_name":"青泥窪橋（2號線）","element_type":"node","station_id":""},"geometry":{"type":"Point","coordinates":[121.627187,38.915198]}},{"type":"Feature","properties":{"osm_id":"3733552175","station_name":"友好廣場","element_type":"node","station_id":""},"geometry":{"type":"Point","coordinates":[121.633068,38.918959]}},{"type":"Feature","properties":{"osm_id":"10722121766","station_name":"中山廣場","element_type":"node","station_id":""},"geometry":{"type":"Point","coordinates":[121.638818,38.920754]}},{"type":"Feature","properties":{"osm_id":"7633796880","station_name":"港灣廣場","element_type":"node","station_id":""},"geometry":{"type":"Point","coordinates":[121.654987,38.925715]}},{"type":"Feature","properties":{"osm_id":"3733552174","station_name":"會議中心","element_type":"node","station_id":""},"geometry":{"type":"Point","coordinates":[121.670411,38.923687]}},{"type":"Feature","properties":{"osm_id":"5249568458","station_name":"東港","element_type":"node","station_id":""},"geometry":{"type":"Point","coordinates":[121.684494,38.919301]}},{"type":"Feature","properties":{"osm_id":"5249568439","station_name":"東海","element_type":"node","station_id":""},"geometry":{"type":"Point","coordinates":[121.697691,38.914295]}},{"type":"Feature","properties":{"osm_id":"5249568441","station_name":"海之韻","element_type":"node","station_id":""},"geometry":{"type":"Point","coordinates":[121.710286,38.910027]}},{"type":"Feature","properties":{"osm_id":"3808558070","station_name":"姚家","element_type":"node","station_id":""},"geometry":{"type":"Point","coordinates":[121.6143,39.022375]}},{"type":"Feature","properties":{"osm_id":"10755169457","station_name":"華北路","element_type":"node","station_id":""},"geometry":{"type":"Point","coordinates":[121.589317,39.007713]}},{"type":"Feature","properties":{"osm_id":"10754605963","station_name":"華南北","element_type":"node","station_id":""},"geometry":{"type":"Point","coordinates":[121.581016,38.999679]}},{"type":"Feature","properties":{"osm_id":"10754605931","station_name":"華南廣場","element_type":"node","station_id":""},"geometry":{"type":"Point","coordinates":[121.581336,38.988918]}},{"type":"Feature","properties":{"osm_id":"10754555868","station_name":"千山路","element_type":"node","station_id":""},"geometry":{"type":"Point","coordinates":[121.576698,38.97831]}},{"type":"Feature","properties":{"osm_id":"10753912571","station_name":"松江路","element_type":"node","station_id":""},"geometry":{"type":"Point","coordinates":[121.573092,38.968501]}},{"type":"Feature","properties":{"osm_id":"10751695361","station_name":"東緯路","element_type":"node","station_id":""},"geometry":{"type":"Point","coordinates":[121.575256,38.955286]}},{"type":"Feature","properties":{"osm_id":"4068315029","station_name":"春柳","element_type":"node","station_id":""},"geometry":{"type":"Point","coordinates":[121.577428,38.935228]}},{"type":"Feature","properties":{"osm_id":"4068315050","station_name":"香工街","element_type":"node","station_id":""},"geometry":{"type":"Point","coordinates":[121.583667,38.930516]}},{"type":"Feature","properties":{"osm_id":"4068315070","station_name":"中長街","element_type":"node","station_id":""},"geometry":{"type":"Point","coordinates":[121.587091,38.92319]}},{"type":"Feature","properties":{"osm_id":"4068315027","station_name":"興工街","element_type":"node","station_id":""},"geometry":{"type":"Point","coordinates":[121.583573,38.916016]}},{"type":"Feature","properties":{"osm_id":"4068315028","station_name":"富國街","element_type":"node","station_id":""},"geometry":{"type":"Point","coordinates":[121.579825,38.897988]}},{"type":"Feature","properties":{"osm_id":"4068315026","station_name":"會展中心","element_type":"node","station_id":""},"geometry":{"type":"Point","coordinates":[121.580731,38.89074]}},{"type":"Feature","properties":{"osm_id":"7605310225","station_name":"星海廣場","element_type":"node","station_id":""},"geometry":{"type":"Point","coordinates":[121.577397,38.883871]}},{"type":"Feature","properties":{"osm_id":"5249568423","station_name":"大醫二院","element_type":"node","station_id":""},"geometry":{"type":"Point","coordinates":[121.565911,38.880775]}},{"type":"Feature","properties":{"osm_id":"5249566813","station_name":"黑石礁","element_type":"node","station_id":""},"geometry":{"type":"Point","coordinates":[121.552469,38.873716]}},{"type":"Feature","properties":{"osm_id":"5249566799","station_name":"學苑廣場","element_type":"node","station_id":""},"geometry":{"type":"Point","coordinates":[121.540252,38.873856]}},{"type":"Feature","properties":{"osm_id":"5249566787","station_name":"海事大學","element_type":"node","station_id":""},"geometry":{"type":"Point","coordinates":[121.529471,38.865189]}},{"type":"Feature","properties":{"osm_id":"6574686985","station_name":"七賢嶺","element_type":"node","station_id":""},"geometry":{"type":"Point","coordinates":[121.522338,38.856178]}},{"type":"Feature","properties":{"osm_id":"8681688332","station_name":"河口（1號線）","element_type":"node","station_id":""},"geometry":{"type":"Point","coordinates":[121.508838,38.84283]}},{"type":"Feature","properties":{"osm_id":"12076312340","station_name":"虎灘新區","element_type":"node","station_id":""},"geometry":{"type":"Point","coordinates":[121.681582,38.877017]}},{"type":"Feature","properties":{"osm_id":"12076312329","station_name":"虎灘公園","element_type":"node","station_id":""},"geometry":{"type":"Point","coordinates":[121.668489,38.877167]}},{"type":"Feature","properties":{"osm_id":"12076312319","station_name":"秀月街","element_type":"node","station_id":""},"geometry":{"type":"Point","coordinates":[121.65476,38.882591]}},{"type":"Feature","properties":{"osm_id":"12076312300","station_name":"桃源","element_type":"node","station_id":""},"geometry":{"type":"Point","coordinates":[121.646544,38.886464]}},{"type":"Feature","properties":{"osm_id":"12076312293","station_name":"青雲街","element_type":"node","station_id":""},"geometry":{"type":"Point","coordinates":[121.644092,38.893123]}},{"type":"Feature","properties":{"osm_id":"12076312282","station_name":"石葵路","element_type":"node","station_id":""},"geometry":{"type":"Point","coordinates":[121.639912,38.899866]}},{"type":"Feature","properties":{"osm_id":"12076312274","station_name":"勞動公園","element_type":"node","station_id":""},"geometry":{"type":"Point","coordinates":[121.63491,38.909582]}},{"type":"Feature","properties":{"osm_id":"10776938731","station_name":"大連站（5號線）","element_type":"node","station_id":""},"geometry":{"type":"Point","coordinates":[121.624824,38.922508]}},{"type":"Feature","properties":{"osm_id":"10776938803","station_name":"梭魚灣南","element_type":"node","station_id":""},"geometry":{"type":"Point","coordinates":[121.614583,38.952903]}},{"type":"Feature","properties":{"osm_id":"10776938891","station_name":"梭魚灣","element_type":"node","station_id":""},"geometry":{"type":"Point","coordinates":[121.620834,38.961658]}},{"type":"Feature","properties":{"osm_id":"10776938961","station_name":"甘井子街","element_type":"node","station_id":""},"geometry":{"type":"Point","coordinates":[121.621954,38.973057]}},{"type":"Feature","properties":{"osm_id":"12076284798","station_name":"甘北路","element_type":"node","station_id":""},"geometry":{"type":"Point","coordinates":[121.626774,38.979422]}},{"type":"Feature","properties":{"osm_id":"12076284820","station_name":"中華東路","element_type":"node","station_id":""},"geometry":{"type":"Point","coordinates":[121.634719,38.995666]}},{"type":"Feature","properties":{"osm_id":"12076284835","station_name":"泉水東","element_type":"node","station_id":""},"geometry":{"type":"Point","coordinates":[121.630965,39.005465]}},{"type":"Feature","properties":{"osm_id":"12076284844","station_name":"龍華路","element_type":"node","station_id":""},"geometry":{"type":"Point","coordinates":[121.634402,39.012957]}},{"type":"Feature","properties":{"osm_id":"12076284853","station_name":"後鹽","element_type":"node","station_id":""},"geometry":{"type":"Point","coordinates":[121.633236,39.020727]}},{"type":"Feature","properties":{"osm_id":"12076289281","station_name":"後關","element_type":"node","station_id":""},"geometry":{"type":"Point","coordinates":[121.631885,39.052367]}},{"type":"Feature","properties":{"osm_id":"5343709502","station_name":"香爐礁","element_type":"node","station_id":""},"geometry":{"type":"Point","coordinates":[121.598664,38.927847]}},{"type":"Feature","properties":{"osm_id":"5343709501","station_name":"金家街","element_type":"node","station_id":""},"geometry":{"type":"Point","coordinates":[121.596585,38.967011]}},{"type":"Feature","properties":{"osm_id":"8681578899","station_name":"泉水","element_type":"node","station_id":""},"geometry":{"type":"Point","coordinates":[121.611826,39.000529]}},{"type":"Feature","properties":{"osm_id":"8681578901","station_name":"大連灣","element_type":"node","station_id":""},"geometry":{"type":"Point","coordinates":[121.704626,39.03442]}},{"type":"Feature","properties":{"osm_id":"8681578902","station_name":"金馬路","element_type":"node","station_id":""},"geometry":{"type":"Point","coordinates":[121.738579,39.048061]}},{"type":"Feature","properties":{"osm_id":"8681578904","station_name":"開發區","element_type":"node","station_id":""},"geometry":{"type":"Point","coordinates":[121.769353,39.05259]}},{"type":"Feature","properties":{"osm_id":"1980682181","station_name":"保稅區","element_type":"node","station_id":""},"geometry":{"type":"Point","coordinates":[121.797288,39.059348]}},{"type":"Feature","properties":{"osm_id":"8681578907","station_name":"雙D港","element_type":"node","station_id":""},"geometry":{"type":"Point","coordinates":[121.866837,39.062543]}},{"type":"Feature","properties":{"osm_id":"8681578908","station_name":"小窯灣","element_type":"node","station_id":""},"geometry":{"type":"Point","coordinates":[121.894213,39.075806]}},{"type":"Feature","properties":{"osm_id":"8681578910","station_name":"金石灘","element_type":"node","station_id":""},"geometry":{"type":"Point","coordinates":[122.000907,39.085487]}},{"type":"Feature","properties":{"osm_id":"10744592036","station_name":"旅順新港","element_type":"node","station_id":""},"geometry":{"type":"Point","coordinates":[121.139681,38.805906]}},{"type":"Feature","properties":{"osm_id":"10744592026","station_name":"鐵山","element_type":"node","station_id":""},"geometry":{"type":"Point","coordinates":[121.172465,38.801158]}},{"type":"Feature","properties":{"osm_id":"5343734987","station_name":"旅順","element_type":"node","station_id":""},"geometry":{"type":"Point","coordinates":[121.247585,38.843095]}},{"type":"Feature","properties":{"osm_id":"10744563159","station_name":"塔河灣","element_type":"node","station_id":""},"geometry":{"type":"Point","coordinates":[121.336166,38.822582]}},{"type":"Feature","properties":{"osm_id":"10744563502","station_name":"龍王塘","element_type":"node","station_id":""},"geometry":{"type":"Point","coordinates":[121.397998,38.834709]}},{"type":"Feature","properties":{"osm_id":"10744563367","station_name":"黃泥川","element_type":"node","station_id":""},"geometry":{"type":"Point","coordinates":[121.443639,38.854794]}},{"type":"Feature","properties":{"osm_id":"10744563262","station_name":"蔡大嶺","element_type":"node","station_id":""},"geometry":{"type":"Point","coordinates":[121.489535,38.850081]}},{"type":"Feature","properties":{"osm_id":"7707988401","station_name":"通世泰","element_type":"node","station_id":""},"geometry":{"type":"Point","coordinates":[121.762188,39.066843]}},{"type":"Feature","properties":{"osm_id":"8681578912","station_name":"鴻瑋瀾山","element_type":"node","station_id":""},"geometry":{"type":"Point","coordinates":[121.746277,39.081038]}},{"type":"Feature","properties":{"osm_id":"8681578913","station_name":"東山路","element_type":"node","station_id":""},"geometry":{"type":"Point","coordinates":[121.732277,39.091143]}},{"type":"Feature","properties":{"osm_id":"8681578915","station_name":"和平路","element_type":"node","station_id":""},"geometry":{"type":"Point","coordinates":[121.720146,39.106602]}},{"type":"Feature","properties":{"osm_id":"7605210316","station_name":"十九局","element_type":"node","station_id":""},"geometry":{"type":"Point","coordinates":[121.724986,39.128371]}},{"type":"Feature","properties":{"osm_id":"8681578916","station_name":"九里","element_type":"node","station_id":""},"geometry":{"type":"Point","coordinates":[121.736951,39.147185]}},{"type":"Feature","properties":{"route_company":"大連交通集團","route_id":"2","element_type":"way","color":"#0066a1","route_name":"大連地鐵2號線：海之韻-大連北站","osm_id":"5491623","railway":"subway","status":"open"},"geometry":{"type":"LineString","coordinates":[[121.602814,39.014023],[121.583844,39.017194],[121.566734,39.015138],[121.552513,39.014148],[121.537709,39.014048],[121.524874,39.007121],[121.517175,38.997768],[121.513367,38.982208],[121.509668,38.97041],[121.534786,38.960781],[121.53827,38.954661],[121.535091,38.946664],[121.528378,38.92687],[121.536847,38.923773],[121.549583,38.919299],[121.559175,38.915205],[121.566809,38.912116],[121.582346,38.908955]]}},{"type":"Feature","properties":{"route_company":"大連交通集團","route_id":"2","element_type":"way","color":"#0066a1","route_name":"大連地鐵2號線：海之韻-大連北站","osm_id":"5491623","railway":"subway","status":"open"},"geometry":{"type":"LineString","coordinates":[[121.582346,38.908955],[121.591299,38.913259],[121.605401,38.910007],[121.617808,38.91231],[121.627187,38.915198]]}},{"type":"Feature","properties":{"route_company":"大連交通集團","route_id":"2","element_type":"way","color":"#0066a1","route_name":"大連地鐵2號線：海之韻-大連北站","osm_id":"5491623","railway":"subway","status":"open"},"geometry":{"type":"LineString","coordinates":[[121.627187,38.915198],[121.633068,38.918959],[121.638818,38.920754],[121.654987,38.925715],[121.670411,38.923687],[121.684494,38.919301],[121.697691,38.914295],[121.710286,38.910027]]}},{"type":"Feature","properties":{"route_company":"大連交通集團","route_id":"1","element_type":"way","color":"#42b227","route_name":"大連地鐵1號線：姚家-河口","osm_id":"6185548","railway":"subway","status":"open"},"geometry":{"type":"LineString","coordinates":[[121.6143,39.022375],[121.602814,39.014023]]}},{"type":"Feature","properties":{"route_company":"大連交通集團","route_id":"1","element_type":"way","color":"#42b227","route_name":"大連地鐵1號線：姚家-河口","osm_id":"6185548","railway":"subway","status":"open"},"geometry":{"type":"LineString","coordinates":[[121.602814,39.014023],[121.589317,39.007713],[121.581016,38.999679],[121.581336,38.988918],[121.576698,38.97831],[121.573092,38.968501],[121.575256,38.955286],[121.577428,38.935228],[121.583667,38.930516],[121.587091,38.92319],[121.583573,38.916016],[121.582346,38.908955]]}},{"type":"Feature","properties":{"route_company":"大連交通集團","route_id":"1","element_type":"way","color":"#42b227","route_name":"大連地鐵1號線：姚家-河口","osm_id":"6185548","railway":"subway","status":"open"},"geometry":{"type":"LineString","coordinates":[[121.582346,38.908955],[121.579825,38.897988],[121.580731,38.89074],[121.577397,38.883871],[121.565911,38.880775],[121.552469,38.873716],[121.540252,38.873856],[121.529471,38.865189],[121.522338,38.856178],[121.508838,38.84283]]}},{"type":"Feature","properties":{"route_company":"大連交通集團","route_id":"5","element_type":"way","color":"#e60012","route_name":"大連地鐵5號線：虎灘新區→後關","osm_id":"15611185","railway":"subway","status":"open"},"geometry":{"type":"LineString","coordinates":[[121.681582,38.877017],[121.668489,38.877167],[121.65476,38.882591],[121.646544,38.886464],[121.644092,38.893123],[121.639912,38.899866],[121.63491,38.909582],[121.627187,38.915198]]}},{"type":"Feature","properties":{"route_company":"大連交通集團","route_id":"5","element_type":"way","color":"#e60012","route_name":"大連地鐵5號線：虎灘新區→後關","osm_id":"15611185","railway":"subway","status":"open"},"geometry":{"type":"LineString","coordinates":[[121.627187,38.915198],[121.624824,38.922508]]}},{"type":"Feature","properties":{"route_company":"大連交通集團","route_id":"5","element_type":"way","color":"#e60012","route_name":"大連地鐵5號線：虎灘新區→後關","osm_id":"15611185","railway":"subway","status":"open"},"geometry":{"type":"LineString","coordinates":[[121.624824,38.922508],[121.614583,38.952903],[121.620834,38.961658],[121.621954,38.973057],[121.626774,38.979422],[121.634719,38.995666],[121.630965,39.005465],[121.634402,39.012957],[121.633236,39.020727]]}},{"type":"Feature","properties":{"route_company":"大連交通集團","route_id":"5","element_type":"way","color":"#e60012","route_name":"大連地鐵5號線：虎灘新區→後關","osm_id":"15611185","railway":"subway","status":"open"},"geometry":{"type":"LineString","coordinates":[[121.633236,39.020727],[121.631885,39.052367]]}},{"type":"Feature","properties":{"route_company":"大連交通集團","route_id":"3","element_type":"way","color":"#dd00bb","route_name":"大連地鐵3號線支線：開發區-九里","osm_id":"3123050","railway":"subway","status":"open"},"geometry":{"type":"LineString","coordinates":[[121.624824,38.922508],[121.598664,38.927847],[121.596585,38.967011],[121.611826,39.000529],[121.633236,39.020727]]}},{"type":"Feature","properties":{"route_company":"大連交通集團","route_id":"3","element_type":"way","color":"#dd00bb","route_name":"大連地鐵3號線支線：開發區-九里","osm_id":"3123050","railway":"subway","status":"open"},"geometry":{"type":"LineString","coordinates":[[121.633236,39.020727],[121.704626,39.03442],[121.738579,39.048061],[121.769353,39.05259],[121.797288,39.059348],[121.866837,39.062543],[121.894213,39.075806],[122.000907,39.085487]]}},{"type":"Feature","properties":{"route_company":"大連交通集團","route_id":"12","element_type":"way","color":"#523e98","route_name":"大連地鐵12號線：河口-旅順新港","osm_id":"5492211","railway":"subway","status":"open"},"geometry":{"type":"LineString","coordinates":[[121.139681,38.805906],[121.172465,38.801158],[121.247585,38.843095],[121.336166,38.822582],[121.397998,38.834709],[121.443639,38.854794],[121.489535,38.850081],[121.508838,38.84283]]}},{"type":"Feature","properties":{"route_company":"大連交通集團","route_id":"3","element_type":"way","color":"#dd00bb","route_name":"大連地鐵3號線支線：開發區-九里","osm_id":"3123050","railway":"subway","status":"open"},"geometry":{"type":"LineString","coordinates":[[121.769353,39.05259],[121.762188,39.066843],[121.746277,39.081038],[121.732277,39.091143],[121.720146,39.106602],[121.724986,39.128371],[121.736951,39.147185]]}}]}