{"type":"FeatureCollection","generator":"metroOsmFetch (OpenStreetMap / Overpass, ODbL)","features":[{"type":"Feature","properties":{"osm_id":"9436427886","station_name":"白馬山","element_type":"node","station_id":""},"geometry":{"type":"Point","coordinates":[118.366963,31.247161]}},{"type":"Feature","properties":{"osm_id":"9436427902","station_name":"蕪湖南站","element_type":"node","station_id":""},"geometry":{"type":"Point","coordinates":[118.373286,31.252654]}},{"type":"Feature","properties":{"osm_id":"9436427923","station_name":"珩琅山路","element_type":"node","station_id":""},"geometry":{"type":"Point","coordinates":[118.383622,31.26708]}},{"type":"Feature","properties":{"osm_id":"9436427932","station_name":"文津東路","element_type":"node","station_id":""},"geometry":{"type":"Point","coordinates":[118.378647,31.285124]}},{"type":"Feature","properties":{"osm_id":"9436427937","station_name":"博覽中心","element_type":"node","station_id":""},"geometry":{"type":"Point","coordinates":[118.375513,31.295986]}},{"type":"Feature","properties":{"osm_id":"9436427943","station_name":"紅花山路","element_type":"node","station_id":""},"geometry":{"type":"Point","coordinates":[118.374467,31.303523]}},{"type":"Feature","properties":{"osm_id":"9436427945","station_name":"奧體中心","element_type":"node","station_id":""},"geometry":{"type":"Point","coordinates":[118.373487,31.313338]}},{"type":"Feature","properties":{"osm_id":"9436427966","station_name":"環城北路","element_type":"node","station_id":""},"geometry":{"type":"Point","coordinates":[118.375227,31.326844]}},{"type":"Feature","properties":{"osm_id":"9436427989","station_name":"鳩茲廣場","element_type":"node","station_id":""},"geometry":{"type":"Point","coordinates":[118.366806,31.334349]}},{"type":"Feature","properties":{"osm_id":"9436428009","station_name":"中山北路","element_type":"node","station_id":""},"geometry":{"type":"Point","coordinates":[118.363493,31.34124]}},{"type":"Feature","properties":{"osm_id":"9436428029","station_name":"赭山公園","element_type":"node","station_id":""},"geometry":{"type":"Point","coordinates":[118.367322,31.346984]}},{"type":"Feature","properties":{"osm_id":"9436428043","station_name":"赭山路","element_type":"node","station_id":""},"geometry":{"type":"Point","coordinates":[118.369531,31.353071]}},{"type":"Feature","properties":{"osm_id":"9436428045","station_name":"赤鑄山路","element_type":"node","station_id":""},"geometry":{"type":"Point","coordinates":[118.368855,31.363809]}},{"type":"Feature","properties":{"osm_id":"9436428047","station_name":"天門山路","element_type":"node","station_id":""},"geometry":{"type":"Point","coordinates":[118.368343,31.371843]}},{"type":"Feature","properties":{"osm_id":"9436428048","station_name":"天柱山路","element_type":"node","station_id":""},"geometry":{"type":"Point","coordinates":[118.367837,31.380339]}},{"type":"Feature","properties":{"osm_id":"9436428056","station_name":"港一路","element_type":"node","station_id":""},"geometry":{"type":"Point","coordinates":[118.367513,31.393313]}},{"type":"Feature","properties":{"osm_id":"9436428058","station_name":"武夷山路","element_type":"node","station_id":""},"geometry":{"type":"Point","coordinates":[118.368495,31.401145]}},{"type":"Feature","properties":{"osm_id":"9436428073","station_name":"裕安路","element_type":"node","station_id":""},"geometry":{"type":"Point","coordinates":[118.369784,31.411669]}},{"type":"Feature","properties":{"osm_id":"9436428089","station_name":"港灣路","element_type":"node","station_id":""},"geometry":{"type":"Point","coordinates":[118.375543,31.418631]}},{"type":"Feature","properties":{"osm_id":"9436428114","station_name":"鞍山路","element_type":"node","station_id":""},"geometry":{"type":"Point","coordinates":[118.377552,31.433538]}},{"type":"Feature","properties":{"osm_id":"9436428121","station_name":"龍山路","element_type":"node","station_id":""},"geometry":{"type":"Point","coordinates":[118.376024,31.441894]}},{"type":"Feature","properties":{"osm_id":"9436428168","station_name":"衡山路","element_type":"node","station_id":""},"geometry":{"type":"Point","coordinates":[118.388355,31.453454]}},{"type":"Feature","properties":{"osm_id":"9436428185","station_name":"泰山路","element_type":"node","station_id":""},"geometry":{"type":"Point","coordinates":[118.395475,31.461954]}},{"type":"Feature","properties":{"osm_id":"9436428194","station_name":"華山路","element_type":"node","station_id":""},"geometry":{"type":"Point","coordinates":[118.398387,31.472794]}},{"type":"Feature","properties":{"osm_id":"9436428232","station_name":"保順路","element_type":"node","station_id":""},"geometry":{"type":"Point","coordinates":[118.407006,31.481809]}},{"type":"Feature","properties":{"osm_id":"12162234727","station_name":"文化路","element_type":"node","station_id":""},"geometry":{"type":"Point","coordinates":[118.378766,31.337364]}},{"type":"Feature","properties":{"osm_id":"4590830249","station_name":"神山口","element_type":"node","station_id":""},"geometry":{"type":"Point","coordinates":[118.391462,31.339906]}},{"type":"Feature","properties":{"osm_id":"12162234704","station_name":"蕪湖火車站","element_type":"node","station_id":""},"geometry":{"type":"Point","coordinates":[118.389382,31.350239]}},{"type":"Feature","properties":{"osm_id":"9370052140","station_name":"神山公園","element_type":"node","station_id":""},"geometry":{"type":"Point","coordinates":[118.404609,31.359126]}},{"type":"Feature","properties":{"osm_id":"12162234466","station_name":"雲從路","element_type":"node","station_id":""},"geometry":{"type":"Point","coordinates":[118.416715,31.35919]}},{"type":"Feature","properties":{"osm_id":"12162234439","station_name":"政務中心","element_type":"node","station_id":""},"geometry":{"type":"Point","coordinates":[118.425341,31.35917]}},{"type":"Feature","properties":{"osm_id":"12162234413","station_name":"海晏路","element_type":"node","station_id":""},"geometry":{"type":"Point","coordinates":[118.435146,31.356797]}},{"type":"Feature","properties":{"osm_id":"12162234326","station_name":"徽州路","element_type":"node","station_id":""},"geometry":{"type":"Point","coordinates":[118.454356,31.358008]}},{"type":"Feature","properties":{"osm_id":"12162225897","station_name":"夢溪路","element_type":"node","station_id":""},"geometry":{"type":"Point","coordinates":[118.475849,31.353499]}},{"type":"Feature","properties":{"osm_id":"12162225883","station_name":"萬春湖路","element_type":"node","station_id":""},"geometry":{"type":"Point","coordinates":[118.490964,31.364495]}},{"type":"Feature","properties":{"route_company":"","route_id":"1","element_type":"way","color":"#e72718","route_name":"蕪湖軌道交通1號線: 白馬山→保順路","osm_id":"13401846","railway":"monorail","status":"open"},"geometry":{"type":"LineString","coordinates":[[118.366963,31.247161],[118.373286,31.252654],[118.383622,31.26708],[118.378647,31.285124],[118.375513,31.295986],[118.374467,31.303523],[118.373487,31.313338],[118.375227,31.326844],[118.366806,31.334349]]}},{"type":"Feature","properties":{"route_company":"","route_id":"1","element_type":"way","color":"#e72718","route_name":"蕪湖軌道交通1號線: 白馬山→保順路","osm_id":"13401846","railway":"monorail","status":"open"},"geometry":{"type":"LineString","coordinates":[[118.366806,31.334349],[118.363493,31.34124],[118.367322,31.346984],[118.369531,31.353071],[118.368855,31.363809],[118.368343,31.371843],[118.367837,31.380339],[118.367513,31.393313],[118.368495,31.401145],[118.369784,31.411669],[118.375543,31.418631],[118.377552,31.433538],[118.376024,31.441894],[118.388355,31.453454],[118.395475,31.461954],[118.398387,31.472794],[118.407006,31.481809]]}},{"type":"Feature","properties":{"route_company":"","route_id":"2","element_type":"way","color":"#00a3e8","route_name":"蕪湖軌道交通2號線: 鳩茲廣場→萬春湖路","osm_id":"13601036","railway":"monorail","status":"open"},"geometry":{"type":"LineString","coordinates":[[118.366806,31.334349],[118.378766,31.337364],[118.391462,31.339906],[118.389382,31.350239],[118.404609,31.359126],[118.416715,31.35919],[118.425341,31.35917],[118.435146,31.356797],[118.454356,31.358008],[118.475849,31.353499],[118.490964,31.364495]]}}]}