{"type":"FeatureCollection","generator":"metroOsmFetch (OpenStreetMap / Overpass, ODbL)","features":[{"type":"Feature","properties":{"osm_id":"10978063835","station_name":"Kualaka‘i / East Kapolei","element_type":"node","station_id":"10978063835"},"geometry":{"type":"Point","coordinates":[-158.051138,21.345478]}},{"type":"Feature","properties":{"osm_id":"12810632751","station_name":"Keone‘ae / University of Hawaiʻi at West Oʻahu","element_type":"node","station_id":"12810632751"},"geometry":{"type":"Point","coordinates":[-158.05123,21.358543]}},{"type":"Feature","properties":{"osm_id":"10977995194","station_name":"Honouliuli / Ho'opili","element_type":"node","station_id":"10977995194"},"geometry":{"type":"Point","coordinates":[-158.045345,21.366935]}},{"type":"Feature","properties":{"osm_id":"10977995185","station_name":"Hō‘ae‘ae / West Loch","element_type":"node","station_id":"10977995185"},"geometry":{"type":"Point","coordinates":[-158.022682,21.378204]}},{"type":"Feature","properties":{"osm_id":"10977995166","station_name":"Pouhala / Waipahu Transit Center","element_type":"node","station_id":"10977995166"},"geometry":{"type":"Point","coordinates":[-158.003814,21.384117]}},{"type":"Feature","properties":{"osm_id":"10977995150","station_name":"Hālaulani / Leeward Community College","element_type":"node","station_id":"10977995150"},"geometry":{"type":"Point","coordinates":[-157.985676,21.394366]}},{"type":"Feature","properties":{"osm_id":"10977995146","station_name":"Waiawa / Pearl Highlands","element_type":"node","station_id":"10977995146"},"geometry":{"type":"Point","coordinates":[-157.979865,21.396657]}},{"type":"Feature","properties":{"osm_id":"10978047047","station_name":"Kalauao / Pearlridge","element_type":"node","station_id":"10978047047"},"geometry":{"type":"Point","coordinates":[-157.947096,21.383872]}},{"type":"Feature","properties":{"osm_id":"13238891005","station_name":"Hālawa / Aloha Stadium","element_type":"node","station_id":"13238891005"},"geometry":{"type":"Point","coordinates":[-157.93385,21.371062]}},{"type":"Feature","properties":{"osm_id":"13235576526","station_name":"Makalapa / Joint Base Pearl Harbor–Hickam","element_type":"node","station_id":"13235576526"},"geometry":{"type":"Point","coordinates":[-157.9354,21.352063]}},{"type":"Feature","properties":{"osm_id":"13235576529","station_name":"Lelepaua / Daniel K. Inouye International Airport","element_type":"node","station_id":"10032"},"geometry":{"type":"Point","coordinates":[-157.920983,21.333782]}},{"type":"Feature","properties":{"osm_id":"6175734612","station_name":"Āhua / Lagoon Drive","element_type":"node","station_id":"10031"},"geometry":{"type":"Point","coordinates":[-157.901338,21.332776]}},{"type":"Feature","properties":{"osm_id":"11206927727","station_name":"Kahauiki / Middle Street–Kalihi Transit Center","element_type":"node","station_id":"11206927727"},"geometry":{"type":"Point","coordinates":[-157.888851,21.332757]}},{"type":"Feature","properties":{"route_company":"City and County of Honolulu","route_id":"15979955","element_type":"way","color":"#134574","route_name":"Skyline - Eastbound","osm_id":"15979955","railway":"subway","status":"open"},"geometry":{"type":"LineString","coordinates":[[-158.051138,21.345478],[-158.05123,21.358543],[-158.045345,21.366935],[-158.022682,21.378204],[-158.003814,21.384117],[-157.985676,21.394366],[-157.979865,21.396657],[-157.947096,21.383872],[-157.93385,21.371062],[-157.9354,21.352063],[-157.920983,21.333782],[-157.901338,21.332776],[-157.888851,21.332757]]}}]}