{"type":"FeatureCollection","generator":"metroOsmFetch (OpenStreetMap / Overpass, ODbL)","features":[{"type":"Feature","properties":{"route_company":"ATI","route_id":"Tren Urbano","element_type":"way","color":"#e6194b","route_name":"Tren Urbano: Sagrado Corazón => Bayamón","osm_id":"2623662","railway":"subway","status":"open"},"geometry":{"type":"LineString","coordinates":[[-66.060412,18.436311],[-66.060213,18.429339],[-66.058923,18.423234],[-66.056389,18.415268],[-66.055411,18.410873],[-66.051765,18.405365],[-66.052252,18.399181],[-66.062685,18.39084],[-66.074552,18.391395],[-66.08276,18.390788],[-66.093914,18.390779],[-66.101868,18.391171],[-66.119051,18.391846],[-66.127746,18.393972],[-66.149525,18.394302],[-66.153843,18.400275]]}},{"type":"Feature","properties":{"osm_id":"8512186398","station_name":"Sagrado Corazón","element_type":"node","station_id":"8512186398"},"geometry":{"type":"Point","coordinates":[-66.060412,18.436311]}},{"type":"Feature","properties":{"osm_id":"8512186392","station_name":"Hato Rey","element_type":"node","station_id":"8512186392"},"geometry":{"type":"Point","coordinates":[-66.060213,18.429339]}},{"type":"Feature","properties":{"osm_id":"8512193533","station_name":"Roosevelt","element_type":"node","station_id":"8512193533"},"geometry":{"type":"Point","coordinates":[-66.058923,18.423234]}},{"type":"Feature","properties":{"osm_id":"8512193411","station_name":"Domenech","element_type":"node","station_id":"8512193411"},"geometry":{"type":"Point","coordinates":[-66.056389,18.415268]}},{"type":"Feature","properties":{"osm_id":"8512193396","station_name":"Piñero","element_type":"node","station_id":"8512193396"},"geometry":{"type":"Point","coordinates":[-66.055411,18.410873]}},{"type":"Feature","properties":{"osm_id":"8512186390","station_name":"Universidad","element_type":"node","station_id":"8512186390"},"geometry":{"type":"Point","coordinates":[-66.051765,18.405365]}},{"type":"Feature","properties":{"osm_id":"8512186387","station_name":"Río Piedras","element_type":"node","station_id":"8512186387"},"geometry":{"type":"Point","coordinates":[-66.052252,18.399181]}},{"type":"Feature","properties":{"osm_id":"8512179301","station_name":"Cupey","element_type":"node","station_id":"8512179301"},"geometry":{"type":"Point","coordinates":[-66.062685,18.39084]}},{"type":"Feature","properties":{"osm_id":"8512186383","station_name":"Centro Médico","element_type":"node","station_id":"8512186383"},"geometry":{"type":"Point","coordinates":[-66.074552,18.391395]}},{"type":"Feature","properties":{"osm_id":"8512186375","station_name":"San Francisco","element_type":"node","station_id":"8512186375"},"geometry":{"type":"Point","coordinates":[-66.08276,18.390788]}},{"type":"Feature","properties":{"osm_id":"8512179259","station_name":"Las Lomas","element_type":"node","station_id":"8512179259"},"geometry":{"type":"Point","coordinates":[-66.093914,18.390779]}},{"type":"Feature","properties":{"osm_id":"8512186369","station_name":"Martínez Nadal","element_type":"node","station_id":"8512186369"},"geometry":{"type":"Point","coordinates":[-66.101868,18.391171]}},{"type":"Feature","properties":{"osm_id":"8512193351","station_name":"Torrimar","element_type":"node","station_id":"8512193351"},"geometry":{"type":"Point","coordinates":[-66.119051,18.391846]}},{"type":"Feature","properties":{"osm_id":"8512181695","station_name":"Jardines","element_type":"node","station_id":"8512181695"},"geometry":{"type":"Point","coordinates":[-66.127746,18.393972]}},{"type":"Feature","properties":{"osm_id":"8512193265","station_name":"Deportivo","element_type":"node","station_id":"8512193265"},"geometry":{"type":"Point","coordinates":[-66.149525,18.394302]}},{"type":"Feature","properties":{"osm_id":"8512181693","station_name":"Bayamón","element_type":"node","station_id":"8512181693"},"geometry":{"type":"Point","coordinates":[-66.153843,18.400275]}}]}