{"type":"FeatureCollection","generator":"metroOsmFetch (OpenStreetMap / Overpass, ODbL)","features":[{"type":"Feature","properties":{"route_company":"ATI","route_id":"Tren Urbano","element_type":"way","color":"#bf322f","route_name":"Tren Urbano: Sagrado Corazón => Bayamón","osm_id":"2623662","railway":"subway","status":"open"},"geometry":{"type":"LineString","coordinates":[[-66.060458,18.436279],[-66.060269,18.42933],[-66.058943,18.423229],[-66.056409,18.415267],[-66.055431,18.41087],[-66.051821,18.405371],[-66.052306,18.399196],[-66.062697,18.390855],[-66.074536,18.391445],[-66.082764,18.390841],[-66.093913,18.390798],[-66.101866,18.391224],[-66.119046,18.391864],[-66.127733,18.394023],[-66.149525,18.394321],[-66.153787,18.400271]]}},{"type":"Feature","properties":{"osm_id":"8512186398","station_name":"Sagrado Corazón","element_type":"node","station_id":"8512186398"},"geometry":{"type":"Point","coordinates":[-66.060458,18.436279]}},{"type":"Feature","properties":{"osm_id":"8512186392","station_name":"Hato Rey","element_type":"node","station_id":"8512186392"},"geometry":{"type":"Point","coordinates":[-66.060269,18.42933]}},{"type":"Feature","properties":{"osm_id":"8512193533","station_name":"Roosevelt","element_type":"node","station_id":"8512193533"},"geometry":{"type":"Point","coordinates":[-66.058943,18.423229]}},{"type":"Feature","properties":{"osm_id":"8512193411","station_name":"Domenech","element_type":"node","station_id":"8512193411"},"geometry":{"type":"Point","coordinates":[-66.056409,18.415267]}},{"type":"Feature","properties":{"osm_id":"8512193396","station_name":"Piñero","element_type":"node","station_id":"8512193396"},"geometry":{"type":"Point","coordinates":[-66.055431,18.41087]}},{"type":"Feature","properties":{"osm_id":"8512186390","station_name":"Universidad","element_type":"node","station_id":"8512186390"},"geometry":{"type":"Point","coordinates":[-66.051821,18.405371]}},{"type":"Feature","properties":{"osm_id":"8512186387","station_name":"Río Piedras","element_type":"node","station_id":"8512186387"},"geometry":{"type":"Point","coordinates":[-66.052306,18.399196]}},{"type":"Feature","properties":{"osm_id":"8512179301","station_name":"Cupey","element_type":"node","station_id":"8512179301"},"geometry":{"type":"Point","coordinates":[-66.062697,18.390855]}},{"type":"Feature","properties":{"osm_id":"8512186383","station_name":"Centro Médico","element_type":"node","station_id":"8512186383"},"geometry":{"type":"Point","coordinates":[-66.074536,18.391445]}},{"type":"Feature","properties":{"osm_id":"8512186375","station_name":"San Francisco","element_type":"node","station_id":"8512186375"},"geometry":{"type":"Point","coordinates":[-66.082764,18.390841]}},{"type":"Feature","properties":{"osm_id":"8512179259","station_name":"Las Lomas","element_type":"node","station_id":"8512179259"},"geometry":{"type":"Point","coordinates":[-66.093913,18.390798]}},{"type":"Feature","properties":{"osm_id":"8512186369","station_name":"Martínez Nadal","element_type":"node","station_id":"8512186369"},"geometry":{"type":"Point","coordinates":[-66.101866,18.391224]}},{"type":"Feature","properties":{"osm_id":"8512193351","station_name":"Torrimar","element_type":"node","station_id":"8512193351"},"geometry":{"type":"Point","coordinates":[-66.119046,18.391864]}},{"type":"Feature","properties":{"osm_id":"8512181695","station_name":"Jardines","element_type":"node","station_id":"8512181695"},"geometry":{"type":"Point","coordinates":[-66.127733,18.394023]}},{"type":"Feature","properties":{"osm_id":"8512193265","station_name":"Deportivo","element_type":"node","station_id":"8512193265"},"geometry":{"type":"Point","coordinates":[-66.149525,18.394321]}},{"type":"Feature","properties":{"osm_id":"8512181693","station_name":"Bayamón","element_type":"node","station_id":"8512181693"},"geometry":{"type":"Point","coordinates":[-66.153787,18.400271]}}]}