{"type":"FeatureCollection","generator":"metroOsmFetch (OpenStreetMap / Overpass, ODbL)","features":[{"type":"Feature","properties":{"osm_id":"3856551773","station_name":"Rudow","element_type":"node","station_id":"3856551773"},"geometry":{"type":"Point","coordinates":[13.494587,52.416604]}},{"type":"Feature","properties":{"osm_id":"3856551778","station_name":"Zwickauer Damm","element_type":"node","station_id":"3856551778"},"geometry":{"type":"Point","coordinates":[13.483784,52.423396]}},{"type":"Feature","properties":{"osm_id":"3856551775","station_name":"Wutzkyallee","element_type":"node","station_id":"3856551775"},"geometry":{"type":"Point","coordinates":[13.474483,52.423331]}},{"type":"Feature","properties":{"osm_id":"3856551770","station_name":"Lipschitzallee","element_type":"node","station_id":"3856551770"},"geometry":{"type":"Point","coordinates":[13.462316,52.424774]}},{"type":"Feature","properties":{"osm_id":"3856551768","station_name":"Johannisthaler Chaussee","element_type":"node","station_id":"3856551768"},"geometry":{"type":"Point","coordinates":[13.453399,52.429291]}},{"type":"Feature","properties":{"osm_id":"3856551766","station_name":"Britz-Süd","element_type":"node","station_id":"3856551766"},"geometry":{"type":"Point","coordinates":[13.448155,52.437863]}},{"type":"Feature","properties":{"osm_id":"4542910743","station_name":"Parchimer Allee","element_type":"node","station_id":"4542910743"},"geometry":{"type":"Point","coordinates":[13.449583,52.444831]}},{"type":"Feature","properties":{"osm_id":"3959389212","station_name":"Blaschkoallee","element_type":"node","station_id":"3959389212"},"geometry":{"type":"Point","coordinates":[13.4492,52.452081]}},{"type":"Feature","properties":{"osm_id":"3851450061","station_name":"Grenzallee","element_type":"node","station_id":"3851450061"},"geometry":{"type":"Point","coordinates":[13.444813,52.462847]}},{"type":"Feature","properties":{"osm_id":"3865616068","station_name":"Neukölln","element_type":"node","station_id":"3865616068"},"geometry":{"type":"Point","coordinates":[13.441814,52.468657]}},{"type":"Feature","properties":{"osm_id":"3918711723","station_name":"Karl-Marx-Straße","element_type":"node","station_id":"3918711723"},"geometry":{"type":"Point","coordinates":[13.439278,52.476409]}},{"type":"Feature","properties":{"osm_id":"3354594358","station_name":"Rathaus Neukölln","element_type":"node","station_id":"3354594358"},"geometry":{"type":"Point","coordinates":[13.43404,52.481751]}},{"type":"Feature","properties":{"osm_id":"4614136671","station_name":"Hermannplatz","element_type":"node","station_id":"4614136671"},"geometry":{"type":"Point","coordinates":[13.424374,52.486245]}},{"type":"Feature","properties":{"osm_id":"5171026780","station_name":"Südstern","element_type":"node","station_id":"5171026780"},"geometry":{"type":"Point","coordinates":[13.407654,52.489272]}},{"type":"Feature","properties":{"osm_id":"5171026772","station_name":"Gneisenaustraße","element_type":"node","station_id":"5171026772"},"geometry":{"type":"Point","coordinates":[13.395637,52.491328]}},{"type":"Feature","properties":{"osm_id":"1144890464","station_name":"Mehringdamm","element_type":"node","station_id":"1144890464"},"geometry":{"type":"Point","coordinates":[13.38883,52.494395]}},{"type":"Feature","properties":{"osm_id":"3933855824","station_name":"Möckernbrücke","element_type":"node","station_id":"3933855824"},"geometry":{"type":"Point","coordinates":[13.382988,52.498977]}},{"type":"Feature","properties":{"osm_id":"5174466146","station_name":"Yorckstraße","element_type":"node","station_id":"5174466146"},"geometry":{"type":"Point","coordinates":[13.370842,52.492991]}},{"type":"Feature","properties":{"osm_id":"4652806687","station_name":"Kleistpark","element_type":"node","station_id":"4652806687"},"geometry":{"type":"Point","coordinates":[13.36032,52.490368]}},{"type":"Feature","properties":{"osm_id":"4340070542","station_name":"Eisenacher Straße","element_type":"node","station_id":"4340070542"},"geometry":{"type":"Point","coordinates":[13.35033,52.489574]}},{"type":"Feature","properties":{"osm_id":"4652810789","station_name":"Bayerischer Platz","element_type":"node","station_id":"4652810789"},"geometry":{"type":"Point","coordinates":[13.340905,52.488942]}},{"type":"Feature","properties":{"osm_id":"4652801464","station_name":"Berliner Straße","element_type":"node","station_id":"4652801464"},"geometry":{"type":"Point","coordinates":[13.331024,52.487389]}},{"type":"Feature","properties":{"osm_id":"4652801459","station_name":"Blissestraße","element_type":"node","station_id":"4652801459"},"geometry":{"type":"Point","coordinates":[13.321681,52.4864]}},{"type":"Feature","properties":{"osm_id":"4652801461","station_name":"Fehrbelliner Platz","element_type":"node","station_id":"4652801461"},"geometry":{"type":"Point","coordinates":[13.314693,52.49048]}},{"type":"Feature","properties":{"osm_id":"3918542045","station_name":"Konstanzer Straße","element_type":"node","station_id":"3918542045"},"geometry":{"type":"Point","coordinates":[13.309132,52.494503]}},{"type":"Feature","properties":{"osm_id":"29833491","station_name":"Adenauerplatz","element_type":"node","station_id":"29833491"},"geometry":{"type":"Point","coordinates":[13.307288,52.500102]}},{"type":"Feature","properties":{"osm_id":"4340070744","station_name":"Wilmersdorfer Straße","element_type":"node","station_id":"4340070744"},"geometry":{"type":"Point","coordinates":[13.306637,52.506715]}},{"type":"Feature","properties":{"osm_id":"3793761670","station_name":"Bismarckstraße","element_type":"node","station_id":"3793761670"},"geometry":{"type":"Point","coordinates":[13.305171,52.511578]}},{"type":"Feature","properties":{"osm_id":"4337566756","station_name":"Richard-Wagner-Platz","element_type":"node","station_id":"4337566756"},"geometry":{"type":"Point","coordinates":[13.306575,52.51691]}},{"type":"Feature","properties":{"osm_id":"4389131686","station_name":"Mierendorffplatz","element_type":"node","station_id":"4389131686"},"geometry":{"type":"Point","coordinates":[13.304781,52.526345]}},{"type":"Feature","properties":{"osm_id":"4389131685","station_name":"Jungfernheide","element_type":"node","station_id":"4389131685"},"geometry":{"type":"Point","coordinates":[13.300668,52.530703]}},{"type":"Feature","properties":{"osm_id":"3958030526","station_name":"Jakob-Kaiser-Platz","element_type":"node","station_id":"3958030526"},"geometry":{"type":"Point","coordinates":[13.293459,52.536261]}},{"type":"Feature","properties":{"osm_id":"4389131683","station_name":"Halemweg","element_type":"node","station_id":"4389131683"},"geometry":{"type":"Point","coordinates":[13.286176,52.536627]}},{"type":"Feature","properties":{"osm_id":"4389131689","station_name":"Siemensdamm","element_type":"node","station_id":"4389131689"},"geometry":{"type":"Point","coordinates":[13.272765,52.536758]}},{"type":"Feature","properties":{"osm_id":"4389131691","station_name":"Rohrdamm","element_type":"node","station_id":"4389131691"},"geometry":{"type":"Point","coordinates":[13.262617,52.536972]}},{"type":"Feature","properties":{"osm_id":"4389131687","station_name":"Paulsternstraße","element_type":"node","station_id":"4389131687"},"geometry":{"type":"Point","coordinates":[13.247728,52.537987]}},{"type":"Feature","properties":{"osm_id":"4389131684","station_name":"Haselhorst","element_type":"node","station_id":"4389131684"},"geometry":{"type":"Point","coordinates":[13.232918,52.538687]}},{"type":"Feature","properties":{"osm_id":"4389131690","station_name":"Zitadelle","element_type":"node","station_id":"4389131690"},"geometry":{"type":"Point","coordinates":[13.217534,52.537651]}},{"type":"Feature","properties":{"osm_id":"4389131682","station_name":"Altstadt Spandau","element_type":"node","station_id":"4389131682"},"geometry":{"type":"Point","coordinates":[13.205566,52.539041]}},{"type":"Feature","properties":{"osm_id":"4389131688","station_name":"Rathaus Spandau","element_type":"node","station_id":"4389131688"},"geometry":{"type":"Point","coordinates":[13.199866,52.535405]}},{"type":"Feature","properties":{"osm_id":"4961059646","station_name":"Pankow","element_type":"node","station_id":"4961059646"},"geometry":{"type":"Point","coordinates":[13.411728,52.566779]}},{"type":"Feature","properties":{"osm_id":"2095742351","station_name":"Vinetastraße","element_type":"node","station_id":"2095742351"},"geometry":{"type":"Point","coordinates":[13.413245,52.559408]}},{"type":"Feature","properties":{"osm_id":"2098207705","station_name":"Schönhauser Allee","element_type":"node","station_id":"2098207705"},"geometry":{"type":"Point","coordinates":[13.413719,52.549493]}},{"type":"Feature","properties":{"osm_id":"3842674725","station_name":"Eberswalder Straße","element_type":"node","station_id":"3842674725"},"geometry":{"type":"Point","coordinates":[13.412171,52.541525]}},{"type":"Feature","properties":{"osm_id":"2094266784","station_name":"Senefelderplatz","element_type":"node","station_id":"2094266784"},"geometry":{"type":"Point","coordinates":[13.412697,52.532439]}},{"type":"Feature","properties":{"osm_id":"2094266782","station_name":"Rosa-Luxemburg-Platz","element_type":"node","station_id":"2094266782"},"geometry":{"type":"Point","coordinates":[13.410472,52.52766]}},{"type":"Feature","properties":{"osm_id":"2094266778","station_name":"Alexanderplatz","element_type":"node","station_id":"2094266778"},"geometry":{"type":"Point","coordinates":[13.413261,52.521517]}},{"type":"Feature","properties":{"osm_id":"2094266781","station_name":"Klosterstraße","element_type":"node","station_id":"2094266781"},"geometry":{"type":"Point","coordinates":[13.412422,52.517205]}},{"type":"Feature","properties":{"osm_id":"2098267288","station_name":"Märkisches Museum","element_type":"node","station_id":"2098267288"},"geometry":{"type":"Point","coordinates":[13.410175,52.512348]}},{"type":"Feature","properties":{"osm_id":"3352479251","station_name":"Spittelmarkt","element_type":"node","station_id":"3352479251"},"geometry":{"type":"Point","coordinates":[13.403852,52.511302]}},{"type":"Feature","properties":{"osm_id":"2098466936","station_name":"Hausvogteiplatz","element_type":"node","station_id":"2098466936"},"geometry":{"type":"Point","coordinates":[13.395571,52.513349]}},{"type":"Feature","properties":{"osm_id":"2182805355","station_name":"Stadtmitte","element_type":"node","station_id":"2182805355"},"geometry":{"type":"Point","coordinates":[13.390303,52.511196]}},{"type":"Feature","properties":{"osm_id":"2098622298","station_name":"Anton-Wilhelm-Amo-Straße","element_type":"node","station_id":"2098622298"},"geometry":{"type":"Point","coordinates":[13.385183,52.511765]}},{"type":"Feature","properties":{"osm_id":"2098466340","station_name":"Potsdamer Platz","element_type":"node","station_id":"2098466340"},"geometry":{"type":"Point","coordinates":[13.378174,52.509143]}},{"type":"Feature","properties":{"osm_id":"1868541945","station_name":"Mendelssohn-Bartholdy-Park","element_type":"node","station_id":"1868541945"},"geometry":{"type":"Point","coordinates":[13.374861,52.503724]}},{"type":"Feature","properties":{"osm_id":"2097661751","station_name":"Gleisdreieck","element_type":"node","station_id":"2097661751"},"geometry":{"type":"Point","coordinates":[13.374095,52.499485]}},{"type":"Feature","properties":{"osm_id":"2098629915","station_name":"Bülowstraße","element_type":"node","station_id":"2098629915"},"geometry":{"type":"Point","coordinates":[13.363085,52.49761]}},{"type":"Feature","properties":{"osm_id":"2095431134","station_name":"Nollendorfplatz","element_type":"node","station_id":"2095431134"},"geometry":{"type":"Point","coordinates":[13.354842,52.499861]}},{"type":"Feature","properties":{"osm_id":"2088402713","station_name":"Wittenbergplatz","element_type":"node","station_id":"2088402713"},"geometry":{"type":"Point","coordinates":[13.343001,52.501796]}},{"type":"Feature","properties":{"osm_id":"2095401149","station_name":"Zoologischer Garten","element_type":"node","station_id":"2095401149"},"geometry":{"type":"Point","coordinates":[13.332872,52.50648]}},{"type":"Feature","properties":{"osm_id":"5216322208","station_name":"Ernst-Reuter-Platz","element_type":"node","station_id":"5216322208"},"geometry":{"type":"Point","coordinates":[13.32228,52.511655]}},{"type":"Feature","properties":{"osm_id":"3951565151","station_name":"Deutsche Oper","element_type":"node","station_id":"3951565151"},"geometry":{"type":"Point","coordinates":[13.310896,52.511875]}},{"type":"Feature","properties":{"osm_id":"29123762","station_name":"Sophie-Charlotte-Platz","element_type":"node","station_id":"29123762"},"geometry":{"type":"Point","coordinates":[13.29582,52.510871]}},{"type":"Feature","properties":{"osm_id":"3951565156","station_name":"Kaiserdamm","element_type":"node","station_id":"3951565156"},"geometry":{"type":"Point","coordinates":[13.28295,52.510069]}},{"type":"Feature","properties":{"osm_id":"3792273998","station_name":"Theodor-Heuss-Platz","element_type":"node","station_id":"3792273998"},"geometry":{"type":"Point","coordinates":[13.272659,52.509896]}},{"type":"Feature","properties":{"osm_id":"4961299239","station_name":"Neu-Westend","element_type":"node","station_id":"4961299239"},"geometry":{"type":"Point","coordinates":[13.259288,52.516225]}},{"type":"Feature","properties":{"osm_id":"566675008","station_name":"Olympia-Stadion","element_type":"node","station_id":"566675008"},"geometry":{"type":"Point","coordinates":[13.250616,52.516881]}},{"type":"Feature","properties":{"osm_id":"566674963","station_name":"Ruhleben","element_type":"node","station_id":"566674963"},"geometry":{"type":"Point","coordinates":[13.241223,52.525587]}},{"type":"Feature","properties":{"osm_id":"3856100107","station_name":"Hauptbahnhof","element_type":"node","station_id":"3856100107"},"geometry":{"type":"Point","coordinates":[13.370185,52.525201]}},{"type":"Feature","properties":{"osm_id":"7057285551","station_name":"Bundestag","element_type":"node","station_id":"7057285551"},"geometry":{"type":"Point","coordinates":[13.372948,52.52017]}},{"type":"Feature","properties":{"osm_id":"7057285550","station_name":"Brandenburger Tor","element_type":"node","station_id":"7057285550"},"geometry":{"type":"Point","coordinates":[13.381169,52.516604]}},{"type":"Feature","properties":{"osm_id":"8087330616","station_name":"Unter den Linden","element_type":"node","station_id":"8087330616"},"geometry":{"type":"Point","coordinates":[13.389054,52.516811]}},{"type":"Feature","properties":{"osm_id":"7974955393","station_name":"Museumsinsel","element_type":"node","station_id":"7974955393"},"geometry":{"type":"Point","coordinates":[13.398759,52.517278]}},{"type":"Feature","properties":{"osm_id":"8196661136","station_name":"Rotes Rathaus","element_type":"node","station_id":"8196661136"},"geometry":{"type":"Point","coordinates":[13.407909,52.518781]}},{"type":"Feature","properties":{"osm_id":"55189765","station_name":"Schillingstraße","element_type":"node","station_id":"55189765"},"geometry":{"type":"Point","coordinates":[13.420815,52.520879]}},{"type":"Feature","properties":{"osm_id":"3846589196","station_name":"Strausberger Platz","element_type":"node","station_id":"3846589196"},"geometry":{"type":"Point","coordinates":[13.431514,52.518106]}},{"type":"Feature","properties":{"osm_id":"3169023533","station_name":"Weberwiese","element_type":"node","station_id":"3169023533"},"geometry":{"type":"Point","coordinates":[13.444658,52.516746]}},{"type":"Feature","properties":{"osm_id":"3876349057","station_name":"Frankfurter Tor","element_type":"node","station_id":"3876349057"},"geometry":{"type":"Point","coordinates":[13.454015,52.515798]}},{"type":"Feature","properties":{"osm_id":"3935369910","station_name":"Samariterstraße","element_type":"node","station_id":"3935369910"},"geometry":{"type":"Point","coordinates":[13.464628,52.514728]}},{"type":"Feature","properties":{"osm_id":"710904931","station_name":"Frankfurter Allee","element_type":"node","station_id":"710904931"},"geometry":{"type":"Point","coordinates":[13.475321,52.513673]}},{"type":"Feature","properties":{"osm_id":"3933477400","station_name":"Magdalenenstraße (Campus für Demokratie)","element_type":"node","station_id":"3933477400"},"geometry":{"type":"Point","coordinates":[13.486969,52.512476]}},{"type":"Feature","properties":{"osm_id":"1784905015","station_name":"Lichtenberg","element_type":"node","station_id":"1784905015"},"geometry":{"type":"Point","coordinates":[13.498399,52.511152]}},{"type":"Feature","properties":{"osm_id":"3926745600","station_name":"Friedrichsfelde","element_type":"node","station_id":"3926745600"},"geometry":{"type":"Point","coordinates":[13.512777,52.506211]}},{"type":"Feature","properties":{"osm_id":"4635829120","station_name":"Tierpark","element_type":"node","station_id":"4635829120"},"geometry":{"type":"Point","coordinates":[13.522989,52.497688]}},{"type":"Feature","properties":{"osm_id":"557841454","station_name":"Biesdorf-Süd","element_type":"node","station_id":"557841454"},"geometry":{"type":"Point","coordinates":[13.54644,52.499592]}},{"type":"Feature","properties":{"osm_id":"557827057","station_name":"Elsterwerdaer Platz","element_type":"node","station_id":"557827057"},"geometry":{"type":"Point","coordinates":[13.560651,52.505142]}},{"type":"Feature","properties":{"osm_id":"1117011601","station_name":"Wuhletal","element_type":"node","station_id":"1117011601"},"geometry":{"type":"Point","coordinates":[13.57508,52.512615]}},{"type":"Feature","properties":{"osm_id":"53274722","station_name":"Kaulsdorf-Nord","element_type":"node","station_id":"53274722"},"geometry":{"type":"Point","coordinates":[13.58893,52.521112]}},{"type":"Feature","properties":{"osm_id":"53274725","station_name":"Kienberg (Gärten der Welt)","element_type":"node","station_id":"53274725"},"geometry":{"type":"Point","coordinates":[13.590579,52.528549]}},{"type":"Feature","properties":{"osm_id":"52692783","station_name":"Cottbusser Platz","element_type":"node","station_id":"52692783"},"geometry":{"type":"Point","coordinates":[13.596517,52.533869]}},{"type":"Feature","properties":{"osm_id":"4635829119","station_name":"Hellersdorf","element_type":"node","station_id":"4635829119"},"geometry":{"type":"Point","coordinates":[13.606759,52.536705]}},{"type":"Feature","properties":{"osm_id":"4635829118","station_name":"Louis-Lewin-Straße","element_type":"node","station_id":"4635829118"},"geometry":{"type":"Point","coordinates":[13.618534,52.538994]}},{"type":"Feature","properties":{"osm_id":"52684988","station_name":"Hönow","element_type":"node","station_id":"52684988"},"geometry":{"type":"Point","coordinates":[13.633216,52.538409]}},{"type":"Feature","properties":{"osm_id":"3872477457","station_name":"Krumme Lanke","element_type":"node","station_id":"3872477457"},"geometry":{"type":"Point","coordinates":[13.241,52.443084]}},{"type":"Feature","properties":{"osm_id":"3955368089","station_name":"Onkel Toms Hütte","element_type":"node","station_id":"3955368089"},"geometry":{"type":"Point","coordinates":[13.253118,52.449887]}},{"type":"Feature","properties":{"osm_id":"26925638","station_name":"Oskar-Helene-Heim","element_type":"node","station_id":"26925638"},"geometry":{"type":"Point","coordinates":[13.268884,52.450367]}},{"type":"Feature","properties":{"osm_id":"26925644","station_name":"Freie Universität (Thielplatz)","element_type":"node","station_id":"26925644"},"geometry":{"type":"Point","coordinates":[13.281674,52.451016]}},{"type":"Feature","properties":{"osm_id":"3846748388","station_name":"Dahlem-Dorf","element_type":"node","station_id":"3846748388"},"geometry":{"type":"Point","coordinates":[13.289585,52.457269]}},{"type":"Feature","properties":{"osm_id":"29786332","station_name":"Podbielskiallee","element_type":"node","station_id":"29786332"},"geometry":{"type":"Point","coordinates":[13.295575,52.464042]}},{"type":"Feature","properties":{"osm_id":"29786335","station_name":"Breitenbachplatz","element_type":"node","station_id":"29786335"},"geometry":{"type":"Point","coordinates":[13.308818,52.466997]}},{"type":"Feature","properties":{"osm_id":"5149261181","station_name":"Rüdesheimer Platz","element_type":"node","station_id":"5149261181"},"geometry":{"type":"Point","coordinates":[13.314429,52.473394]}},{"type":"Feature","properties":{"osm_id":"3783145806","station_name":"Heidelberger Platz","element_type":"node","station_id":"3783145806"},"geometry":{"type":"Point","coordinates":[13.313053,52.48005]}},{"type":"Feature","properties":{"osm_id":"5162689158","station_name":"Hohenzollernplatz","element_type":"node","station_id":"5162689158"},"geometry":{"type":"Point","coordinates":[13.324832,52.494114]}},{"type":"Feature","properties":{"osm_id":"5162689161","station_name":"Spichernstraße","element_type":"node","station_id":"5162689161"},"geometry":{"type":"Point","coordinates":[13.331386,52.497135]}},{"type":"Feature","properties":{"osm_id":"5162689165","station_name":"Augsburger Straße","element_type":"node","station_id":"5162689165"},"geometry":{"type":"Point","coordinates":[13.336354,52.500347]}},{"type":"Feature","properties":{"osm_id":"29318897","station_name":"Kurfürstenstraße","element_type":"node","station_id":"29318897"},"geometry":{"type":"Point","coordinates":[13.361456,52.500113]}},{"type":"Feature","properties":{"osm_id":"2098710710","station_name":"Hallesches Tor","element_type":"node","station_id":"2098710710"},"geometry":{"type":"Point","coordinates":[13.390927,52.498192]}},{"type":"Feature","properties":{"osm_id":"2098707385","station_name":"Prinzenstraße","element_type":"node","station_id":"2098707385"},"geometry":{"type":"Point","coordinates":[13.40556,52.498391]}},{"type":"Feature","properties":{"osm_id":"2097818462","station_name":"Kottbusser Tor","element_type":"node","station_id":"2097818462"},"geometry":{"type":"Point","coordinates":[13.418278,52.49897]}},{"type":"Feature","properties":{"osm_id":"2098183561","station_name":"Görlitzer Bahnhof","element_type":"node","station_id":"2098183561"},"geometry":{"type":"Point","coordinates":[13.428013,52.499265]}},{"type":"Feature","properties":{"osm_id":"2098183565","station_name":"Schlesisches Tor","element_type":"node","station_id":"2098183565"},"geometry":{"type":"Point","coordinates":[13.441567,52.500869]}},{"type":"Feature","properties":{"osm_id":"3826367033","station_name":"Warschauer Straße","element_type":"node","station_id":"3826367033"},"geometry":{"type":"Point","coordinates":[13.449114,52.505151]}},{"type":"Feature","properties":{"osm_id":"4655299661","station_name":"Hermannstraße","element_type":"node","station_id":"4655299661"},"geometry":{"type":"Point","coordinates":[13.431339,52.467442]}},{"type":"Feature","properties":{"osm_id":"29494306","station_name":"Leinestraße","element_type":"node","station_id":"29494306"},"geometry":{"type":"Point","coordinates":[13.42813,52.473418]}},{"type":"Feature","properties":{"osm_id":"29494305","station_name":"Boddinstraße","element_type":"node","station_id":"29494305"},"geometry":{"type":"Point","coordinates":[13.425362,52.479907]}},{"type":"Feature","properties":{"osm_id":"29494292","station_name":"Schönleinstraße","element_type":"node","station_id":"29494292"},"geometry":{"type":"Point","coordinates":[13.421923,52.493251]}},{"type":"Feature","properties":{"osm_id":"3844466963","station_name":"Moritzplatz","element_type":"node","station_id":"3844466963"},"geometry":{"type":"Point","coordinates":[13.410696,52.503638]}},{"type":"Feature","properties":{"osm_id":"3352479240","station_name":"Heinrich-Heine-Straße","element_type":"node","station_id":"3352479240"},"geometry":{"type":"Point","coordinates":[13.416042,52.510454]}},{"type":"Feature","properties":{"osm_id":"3824719830","station_name":"Jannowitzbrücke","element_type":"node","station_id":"3824719830"},"geometry":{"type":"Point","coordinates":[13.418177,52.515777]}},{"type":"Feature","properties":{"osm_id":"4655287361","station_name":"Weinmeisterstraße","element_type":"node","station_id":"4655287361"},"geometry":{"type":"Point","coordinates":[13.405038,52.525465]}},{"type":"Feature","properties":{"osm_id":"5227235607","station_name":"Rosenthaler Platz","element_type":"node","station_id":"5227235607"},"geometry":{"type":"Point","coordinates":[13.400794,52.530291]}},{"type":"Feature","properties":{"osm_id":"29190909","station_name":"Bernauer Straße","element_type":"node","station_id":"29190909"},"geometry":{"type":"Point","coordinates":[13.396621,52.537456]}},{"type":"Feature","properties":{"osm_id":"29190908","station_name":"Voltastraße","element_type":"node","station_id":"29190908"},"geometry":{"type":"Point","coordinates":[13.393044,52.542084]}},{"type":"Feature","properties":{"osm_id":"29190907","station_name":"Gesundbrunnen","element_type":"node","station_id":"29190907"},"geometry":{"type":"Point","coordinates":[13.388344,52.54875]}},{"type":"Feature","properties":{"osm_id":"3933855830","station_name":"Pankstraße","element_type":"node","station_id":"3933855830"},"geometry":{"type":"Point","coordinates":[13.381546,52.552226]}},{"type":"Feature","properties":{"osm_id":"5219721337","station_name":"Osloer Straße","element_type":"node","station_id":"5219721337"},"geometry":{"type":"Point","coordinates":[13.373233,52.557174]}},{"type":"Feature","properties":{"osm_id":"3895235286","station_name":"Franz-Neumann-Platz","element_type":"node","station_id":"3895235286"},"geometry":{"type":"Point","coordinates":[13.363923,52.564539]}},{"type":"Feature","properties":{"osm_id":"3895051280","station_name":"Residenzstraße","element_type":"node","station_id":"3895051280"},"geometry":{"type":"Point","coordinates":[13.360485,52.571183]}},{"type":"Feature","properties":{"osm_id":"29190895","station_name":"Paracelsus-Bad","element_type":"node","station_id":"29190895"},"geometry":{"type":"Point","coordinates":[13.349319,52.574109]}},{"type":"Feature","properties":{"osm_id":"4340070989","station_name":"Lindauer Allee","element_type":"node","station_id":"4340070989"},"geometry":{"type":"Point","coordinates":[13.338426,52.575422]}},{"type":"Feature","properties":{"osm_id":"4655264249","station_name":"Karl-Bonhoeffer-Nervenklinik","element_type":"node","station_id":"4655264249"},"geometry":{"type":"Point","coordinates":[13.333309,52.579074]}},{"type":"Feature","properties":{"osm_id":"4655218851","station_name":"Rathaus Reinickendorf","element_type":"node","station_id":"4655218851"},"geometry":{"type":"Point","coordinates":[13.325778,52.588358]}},{"type":"Feature","properties":{"osm_id":"4655218848","station_name":"Wittenau","element_type":"node","station_id":"4655218848"},"geometry":{"type":"Point","coordinates":[13.334867,52.595659]}},{"type":"Feature","properties":{"osm_id":"3043920508","station_name":"Alt-Mariendorf","element_type":"node","station_id":"3043920508"},"geometry":{"type":"Point","coordinates":[13.387517,52.439653]}},{"type":"Feature","properties":{"osm_id":"31034999","station_name":"Westphalweg","element_type":"node","station_id":"31034999"},"geometry":{"type":"Point","coordinates":[13.385686,52.446271]}},{"type":"Feature","properties":{"osm_id":"31034998","station_name":"Ullsteinstraße","element_type":"node","station_id":"31034998"},"geometry":{"type":"Point","coordinates":[13.384438,52.45389]}},{"type":"Feature","properties":{"osm_id":"1641970590","station_name":"Kaiserin-Augusta-Straße","element_type":"node","station_id":"1641970590"},"geometry":{"type":"Point","coordinates":[13.38459,52.459817]}},{"type":"Feature","properties":{"osm_id":"29058344","station_name":"Alt-Tempelhof","element_type":"node","station_id":"29058344"},"geometry":{"type":"Point","coordinates":[13.385652,52.465497]}},{"type":"Feature","properties":{"osm_id":"29058343","station_name":"Tempelhof","element_type":"node","station_id":"29058343"},"geometry":{"type":"Point","coordinates":[13.385592,52.469909]}},{"type":"Feature","properties":{"osm_id":"391337194","station_name":"Paradestraße","element_type":"node","station_id":"391337194"},"geometry":{"type":"Point","coordinates":[13.386273,52.478117]}},{"type":"Feature","properties":{"osm_id":"1312931277","station_name":"Platz der Luftbrücke","element_type":"node","station_id":"1312931277"},"geometry":{"type":"Point","coordinates":[13.385894,52.486026]}},{"type":"Feature","properties":{"osm_id":"3904484932","station_name":"Kochstraße/Checkpoint Charlie","element_type":"node","station_id":"3904484932"},"geometry":{"type":"Point","coordinates":[13.390627,52.505941]}},{"type":"Feature","properties":{"osm_id":"3869306769","station_name":"Friedrichstraße","element_type":"node","station_id":"3869306769"},"geometry":{"type":"Point","coordinates":[13.388277,52.520198]}},{"type":"Feature","properties":{"osm_id":"3043709616","station_name":"Oranienburger Tor","element_type":"node","station_id":"3043709616"},"geometry":{"type":"Point","coordinates":[13.387347,52.525608]}},{"type":"Feature","properties":{"osm_id":"3043810257","station_name":"Naturkundemuseum","element_type":"node","station_id":"3043810257"},"geometry":{"type":"Point","coordinates":[13.382629,52.530912]}},{"type":"Feature","properties":{"osm_id":"2990822797","station_name":"Schwartzkopffstraße","element_type":"node","station_id":"2990822797"},"geometry":{"type":"Point","coordinates":[13.377246,52.535216]}},{"type":"Feature","properties":{"osm_id":"2501078843","station_name":"Reinickendorfer Straße","element_type":"node","station_id":"2501078843"},"geometry":{"type":"Point","coordinates":[13.37039,52.539945]}},{"type":"Feature","properties":{"osm_id":"3772933442","station_name":"Wedding","element_type":"node","station_id":"3772933442"},"geometry":{"type":"Point","coordinates":[13.36502,52.543068]}},{"type":"Feature","properties":{"osm_id":"3043782439","station_name":"Leopoldplatz","element_type":"node","station_id":"3043782439"},"geometry":{"type":"Point","coordinates":[13.359139,52.546397]}},{"type":"Feature","properties":{"osm_id":"2097212226","station_name":"Seestraße","element_type":"node","station_id":"2097212226"},"geometry":{"type":"Point","coordinates":[13.353306,52.549639]}},{"type":"Feature","properties":{"osm_id":"2097222422","station_name":"Rehberge","element_type":"node","station_id":"2097222422"},"geometry":{"type":"Point","coordinates":[13.340943,52.556661]}},{"type":"Feature","properties":{"osm_id":"2097219411","station_name":"Afrikanische Straße","element_type":"node","station_id":"2097219411"},"geometry":{"type":"Point","coordinates":[13.334576,52.560258]}},{"type":"Feature","properties":{"osm_id":"2097222421","station_name":"Kurt-Schumacher-Platz","element_type":"node","station_id":"2097222421"},"geometry":{"type":"Point","coordinates":[13.32715,52.563225]}},{"type":"Feature","properties":{"osm_id":"3933564609","station_name":"Nauener Platz","element_type":"node","station_id":"3933564609"},"geometry":{"type":"Point","coordinates":[13.367149,52.551427]}},{"type":"Feature","properties":{"osm_id":"29045597","station_name":"Amrumer Straße","element_type":"node","station_id":"29045597"},"geometry":{"type":"Point","coordinates":[13.350137,52.542329]}},{"type":"Feature","properties":{"osm_id":"29045594","station_name":"Westhafen","element_type":"node","station_id":"29045594"},"geometry":{"type":"Point","coordinates":[13.342606,52.536845]}},{"type":"Feature","properties":{"osm_id":"29045592","station_name":"Birkenstraße","element_type":"node","station_id":"29045592"},"geometry":{"type":"Point","coordinates":[13.341323,52.532276]}},{"type":"Feature","properties":{"osm_id":"4337566853","station_name":"Turmstraße","element_type":"node","station_id":"4337566853"},"geometry":{"type":"Point","coordinates":[13.341275,52.52609]}},{"type":"Feature","properties":{"osm_id":"29046446","station_name":"Hansaplatz","element_type":"node","station_id":"29046446"},"geometry":{"type":"Point","coordinates":[13.342068,52.517916]}},{"type":"Feature","properties":{"osm_id":"3162501790","station_name":"Kurfürstendamm","element_type":"node","station_id":"3162501790"},"geometry":{"type":"Point","coordinates":[13.332048,52.504515]}},{"type":"Feature","properties":{"osm_id":"4337566650","station_name":"Güntzelstraße","element_type":"node","station_id":"4337566650"},"geometry":{"type":"Point","coordinates":[13.331004,52.492088]}},{"type":"Feature","properties":{"osm_id":"29046990","station_name":"Bundesplatz","element_type":"node","station_id":"29046990"},"geometry":{"type":"Point","coordinates":[13.328502,52.477961]}},{"type":"Feature","properties":{"osm_id":"29047042","station_name":"Friedrich-Wilhelm-Platz","element_type":"node","station_id":"29047042"},"geometry":{"type":"Point","coordinates":[13.328722,52.471774]}},{"type":"Feature","properties":{"osm_id":"5149926932","station_name":"Walther-Schreiber-Platz","element_type":"node","station_id":"5149926932"},"geometry":{"type":"Point","coordinates":[13.32826,52.466083]}},{"type":"Feature","properties":{"osm_id":"4337566852","station_name":"Schloßstraße","element_type":"node","station_id":"4337566852"},"geometry":{"type":"Point","coordinates":[13.32512,52.461395]}},{"type":"Feature","properties":{"osm_id":"4337566849","station_name":"Rathaus Steglitz","element_type":"node","station_id":"4337566849"},"geometry":{"type":"Point","coordinates":[13.320914,52.456795]}},{"type":"Feature","properties":{"osm_id":"270165592","station_name":"Uhlandstraße","element_type":"node","station_id":"270165592"},"geometry":{"type":"Point","coordinates":[13.326704,52.502807]}},{"type":"Feature","properties":{"osm_id":"310377165","station_name":"Innsbrucker Platz","element_type":"node","station_id":"310377165"},"geometry":{"type":"Point","coordinates":[13.343746,52.479016]}},{"type":"Feature","properties":{"osm_id":"3901824980","station_name":"Rathaus Schöneberg","element_type":"node","station_id":"3901824980"},"geometry":{"type":"Point","coordinates":[13.341973,52.483178]}},{"type":"Feature","properties":{"osm_id":"254096277","station_name":"Viktoria-Luise-Platz","element_type":"node","station_id":"254096277"},"geometry":{"type":"Point","coordinates":[13.343218,52.496187]}},{"type":"Feature","properties":{"route_company":"Berliner Verkehrsbetriebe","route_id":"U7","element_type":"way","color":"#528dba","route_name":"U7: U Rudow => S+U Rathaus Spandau","osm_id":"2678985","railway":"subway","status":"open"},"geometry":{"type":"LineString","coordinates":[[13.494587,52.416604],[13.483784,52.423396],[13.474483,52.423331],[13.462316,52.424774],[13.453399,52.429291],[13.448155,52.437863],[13.449583,52.444831],[13.4492,52.452081],[13.444813,52.462847],[13.441814,52.468657],[13.439278,52.476409],[13.43404,52.481751],[13.424374,52.486245]]}},{"type":"Feature","properties":{"route_company":"Berliner Verkehrsbetriebe","route_id":"U7","element_type":"way","color":"#528dba","route_name":"U7: U Rudow => S+U Rathaus Spandau","osm_id":"2678985","railway":"subway","status":"open"},"geometry":{"type":"LineString","coordinates":[[13.424374,52.486245],[13.407654,52.489272],[13.395637,52.491328],[13.38883,52.494395]]}},{"type":"Feature","properties":{"route_company":"Berliner Verkehrsbetriebe","route_id":"U7","element_type":"way","color":"#528dba","route_name":"U7: U Rudow => S+U Rathaus Spandau","osm_id":"2678985","railway":"subway","status":"open"},"geometry":{"type":"LineString","coordinates":[[13.38883,52.494395],[13.382988,52.498977]]}},{"type":"Feature","properties":{"route_company":"Berliner Verkehrsbetriebe","route_id":"U7","element_type":"way","color":"#528dba","route_name":"U7: U Rudow => S+U Rathaus Spandau","osm_id":"2678985","railway":"subway","status":"open"},"geometry":{"type":"LineString","coordinates":[[13.382988,52.498977],[13.370842,52.492991],[13.36032,52.490368],[13.35033,52.489574],[13.340905,52.488942]]}},{"type":"Feature","properties":{"route_company":"Berliner Verkehrsbetriebe","route_id":"U7","element_type":"way","color":"#528dba","route_name":"U7: U Rudow => S+U Rathaus Spandau","osm_id":"2678985","railway":"subway","status":"open"},"geometry":{"type":"LineString","coordinates":[[13.340905,52.488942],[13.331024,52.487389]]}},{"type":"Feature","properties":{"route_company":"Berliner Verkehrsbetriebe","route_id":"U7","element_type":"way","color":"#528dba","route_name":"U7: U Rudow => S+U Rathaus Spandau","osm_id":"2678985","railway":"subway","status":"open"},"geometry":{"type":"LineString","coordinates":[[13.331024,52.487389],[13.321681,52.4864],[13.314693,52.49048]]}},{"type":"Feature","properties":{"route_company":"Berliner Verkehrsbetriebe","route_id":"U7","element_type":"way","color":"#528dba","route_name":"U7: U Rudow => S+U Rathaus Spandau","osm_id":"2678985","railway":"subway","status":"open"},"geometry":{"type":"LineString","coordinates":[[13.314693,52.49048],[13.309132,52.494503],[13.307288,52.500102],[13.306637,52.506715],[13.305171,52.511578]]}},{"type":"Feature","properties":{"route_company":"Berliner Verkehrsbetriebe","route_id":"U7","element_type":"way","color":"#528dba","route_name":"U7: U Rudow => S+U Rathaus Spandau","osm_id":"2678985","railway":"subway","status":"open"},"geometry":{"type":"LineString","coordinates":[[13.305171,52.511578],[13.306575,52.51691],[13.304781,52.526345],[13.300668,52.530703],[13.293459,52.536261],[13.286176,52.536627],[13.272765,52.536758],[13.262617,52.536972],[13.247728,52.537987],[13.232918,52.538687],[13.217534,52.537651],[13.205566,52.539041],[13.199866,52.535405]]}},{"type":"Feature","properties":{"route_company":"Berliner Verkehrsbetriebe","route_id":"U2","element_type":"way","color":"#da421e","route_name":"U2: S+U Pankow => U Ruhleben","osm_id":"2669183","railway":"subway","status":"open"},"geometry":{"type":"LineString","coordinates":[[13.411728,52.566779],[13.413245,52.559408],[13.413719,52.549493],[13.412171,52.541525],[13.412697,52.532439],[13.410472,52.52766],[13.413261,52.521517]]}},{"type":"Feature","properties":{"route_company":"Berliner Verkehrsbetriebe","route_id":"U2","element_type":"way","color":"#da421e","route_name":"U2: S+U Pankow => U Ruhleben","osm_id":"2669183","railway":"subway","status":"open"},"geometry":{"type":"LineString","coordinates":[[13.413261,52.521517],[13.412422,52.517205],[13.410175,52.512348],[13.403852,52.511302],[13.395571,52.513349],[13.390303,52.511196]]}},{"type":"Feature","properties":{"route_company":"Berliner Verkehrsbetriebe","route_id":"U2","element_type":"way","color":"#da421e","route_name":"U2: S+U Pankow => U Ruhleben","osm_id":"2669183","railway":"subway","status":"open"},"geometry":{"type":"LineString","coordinates":[[13.390303,52.511196],[13.385183,52.511765],[13.378174,52.509143],[13.374861,52.503724],[13.374095,52.499485]]}},{"type":"Feature","properties":{"route_company":"Berliner Verkehrsbetriebe","route_id":"U2","element_type":"way","color":"#da421e","route_name":"U2: S+U Pankow => U Ruhleben","osm_id":"2669183","railway":"subway","status":"open"},"geometry":{"type":"LineString","coordinates":[[13.374095,52.499485],[13.363085,52.49761],[13.354842,52.499861]]}},{"type":"Feature","properties":{"route_company":"Berliner Verkehrsbetriebe","route_id":"U2","element_type":"way","color":"#da421e","route_name":"U2: S+U Pankow => U Ruhleben","osm_id":"2669183","railway":"subway","status":"open"},"geometry":{"type":"LineString","coordinates":[[13.354842,52.499861],[13.343001,52.501796]]}},{"type":"Feature","properties":{"route_company":"Berliner Verkehrsbetriebe","route_id":"U2","element_type":"way","color":"#da421e","route_name":"U2: S+U Pankow => U Ruhleben","osm_id":"2669183","railway":"subway","status":"open"},"geometry":{"type":"LineString","coordinates":[[13.343001,52.501796],[13.332872,52.50648]]}},{"type":"Feature","properties":{"route_company":"Berliner Verkehrsbetriebe","route_id":"U2","element_type":"way","color":"#da421e","route_name":"U2: S+U Pankow => U Ruhleben","osm_id":"2669183","railway":"subway","status":"open"},"geometry":{"type":"LineString","coordinates":[[13.332872,52.50648],[13.32228,52.511655],[13.310896,52.511875],[13.305171,52.511578]]}},{"type":"Feature","properties":{"route_company":"Berliner Verkehrsbetriebe","route_id":"U2","element_type":"way","color":"#da421e","route_name":"U2: S+U Pankow => U Ruhleben","osm_id":"2669183","railway":"subway","status":"open"},"geometry":{"type":"LineString","coordinates":[[13.305171,52.511578],[13.29582,52.510871],[13.28295,52.510069],[13.272659,52.509896],[13.259288,52.516225],[13.250616,52.516881],[13.241223,52.525587]]}},{"type":"Feature","properties":{"route_company":"Berliner Verkehrsbetriebe","route_id":"U5","element_type":"way","color":"#7e5330","route_name":"U5: U Hauptbahnhof => U Hönow","osm_id":"2227743","railway":"subway","status":"open"},"geometry":{"type":"LineString","coordinates":[[13.370185,52.525201],[13.372948,52.52017],[13.381169,52.516604],[13.389054,52.516811]]}},{"type":"Feature","properties":{"route_company":"Berliner Verkehrsbetriebe","route_id":"U5","element_type":"way","color":"#7e5330","route_name":"U5: U Hauptbahnhof => U Hönow","osm_id":"2227743","railway":"subway","status":"open"},"geometry":{"type":"LineString","coordinates":[[13.389054,52.516811],[13.398759,52.517278],[13.407909,52.518781],[13.413261,52.521517]]}},{"type":"Feature","properties":{"route_company":"Berliner Verkehrsbetriebe","route_id":"U5","element_type":"way","color":"#7e5330","route_name":"U5: U Hauptbahnhof => U Hönow","osm_id":"2227743","railway":"subway","status":"open"},"geometry":{"type":"LineString","coordinates":[[13.413261,52.521517],[13.420815,52.520879],[13.431514,52.518106],[13.444658,52.516746],[13.454015,52.515798],[13.464628,52.514728],[13.475321,52.513673],[13.486969,52.512476],[13.498399,52.511152],[13.512777,52.506211],[13.522989,52.497688],[13.54644,52.499592],[13.560651,52.505142],[13.57508,52.512615],[13.58893,52.521112],[13.590579,52.528549],[13.596517,52.533869],[13.606759,52.536705],[13.618534,52.538994],[13.633216,52.538409]]}},{"type":"Feature","properties":{"route_company":"Berliner Verkehrsbetriebe","route_id":"U3","element_type":"way","color":"#16683d","route_name":"U3: U Krumme Lanke => S+U Warschauer Straße","osm_id":"2669207","railway":"subway","status":"open"},"geometry":{"type":"LineString","coordinates":[[13.241,52.443084],[13.253118,52.449887],[13.268884,52.450367],[13.281674,52.451016],[13.289585,52.457269],[13.295575,52.464042],[13.308818,52.466997],[13.314429,52.473394],[13.313053,52.48005],[13.314693,52.49048]]}},{"type":"Feature","properties":{"route_company":"Berliner Verkehrsbetriebe","route_id":"U3","element_type":"way","color":"#16683d","route_name":"U3: U Krumme Lanke => S+U Warschauer Straße","osm_id":"2669207","railway":"subway","status":"open"},"geometry":{"type":"LineString","coordinates":[[13.314693,52.49048],[13.324832,52.494114],[13.331386,52.497135]]}},{"type":"Feature","properties":{"route_company":"Berliner Verkehrsbetriebe","route_id":"U3","element_type":"way","color":"#16683d","route_name":"U3: U Krumme Lanke => S+U Warschauer Straße","osm_id":"2669207","railway":"subway","status":"open"},"geometry":{"type":"LineString","coordinates":[[13.331386,52.497135],[13.336354,52.500347],[13.343001,52.501796]]}},{"type":"Feature","properties":{"route_company":"Berliner Verkehrsbetriebe","route_id":"U3","element_type":"way","color":"#16683d","route_name":"U3: U Krumme Lanke => S+U Warschauer Straße","osm_id":"2669207","railway":"subway","status":"open"},"geometry":{"type":"LineString","coordinates":[[13.343001,52.501796],[13.354842,52.499861]]}},{"type":"Feature","properties":{"route_company":"Berliner Verkehrsbetriebe","route_id":"U3","element_type":"way","color":"#16683d","route_name":"U3: U Krumme Lanke => S+U Warschauer Straße","osm_id":"2669207","railway":"subway","status":"open"},"geometry":{"type":"LineString","coordinates":[[13.354842,52.499861],[13.361456,52.500113]]}},{"type":"Feature","properties":{"route_company":"Berliner Verkehrsbetriebe","route_id":"U3","element_type":"way","color":"#16683d","route_name":"U3: U Krumme Lanke => S+U Warschauer Straße","osm_id":"2669207","railway":"subway","status":"open"},"geometry":{"type":"LineString","coordinates":[[13.361456,52.500113],[13.374095,52.499485]]}},{"type":"Feature","properties":{"route_company":"Berliner Verkehrsbetriebe","route_id":"U3","element_type":"way","color":"#16683d","route_name":"U3: U Krumme Lanke => S+U Warschauer Straße","osm_id":"2669207","railway":"subway","status":"open"},"geometry":{"type":"LineString","coordinates":[[13.374095,52.499485],[13.382988,52.498977]]}},{"type":"Feature","properties":{"route_company":"Berliner Verkehrsbetriebe","route_id":"U3","element_type":"way","color":"#16683d","route_name":"U3: U Krumme Lanke => S+U Warschauer Straße","osm_id":"2669207","railway":"subway","status":"open"},"geometry":{"type":"LineString","coordinates":[[13.382988,52.498977],[13.390927,52.498192]]}},{"type":"Feature","properties":{"route_company":"Berliner Verkehrsbetriebe","route_id":"U3","element_type":"way","color":"#16683d","route_name":"U3: U Krumme Lanke => S+U Warschauer Straße","osm_id":"2669207","railway":"subway","status":"open"},"geometry":{"type":"LineString","coordinates":[[13.390927,52.498192],[13.40556,52.498391]]}},{"type":"Feature","properties":{"route_company":"Berliner Verkehrsbetriebe","route_id":"U3","element_type":"way","color":"#16683d","route_name":"U3: U Krumme Lanke => S+U Warschauer Straße","osm_id":"2669207","railway":"subway","status":"open"},"geometry":{"type":"LineString","coordinates":[[13.40556,52.498391],[13.418278,52.49897]]}},{"type":"Feature","properties":{"route_company":"Berliner Verkehrsbetriebe","route_id":"U3","element_type":"way","color":"#16683d","route_name":"U3: U Krumme Lanke => S+U Warschauer Straße","osm_id":"2669207","railway":"subway","status":"open"},"geometry":{"type":"LineString","coordinates":[[13.418278,52.49897],[13.428013,52.499265]]}},{"type":"Feature","properties":{"route_company":"Berliner Verkehrsbetriebe","route_id":"U3","element_type":"way","color":"#16683d","route_name":"U3: U Krumme Lanke => S+U Warschauer Straße","osm_id":"2669207","railway":"subway","status":"open"},"geometry":{"type":"LineString","coordinates":[[13.428013,52.499265],[13.441567,52.500869]]}},{"type":"Feature","properties":{"route_company":"Berliner Verkehrsbetriebe","route_id":"U3","element_type":"way","color":"#16683d","route_name":"U3: U Krumme Lanke => S+U Warschauer Straße","osm_id":"2669207","railway":"subway","status":"open"},"geometry":{"type":"LineString","coordinates":[[13.441567,52.500869],[13.449114,52.505151]]}},{"type":"Feature","properties":{"route_company":"Berliner Verkehrsbetriebe","route_id":"U8","element_type":"way","color":"#224f86","route_name":"U8: S+U Hermannstraße => S+U Wittenau","osm_id":"2679013","railway":"subway","status":"open"},"geometry":{"type":"LineString","coordinates":[[13.431339,52.467442],[13.42813,52.473418],[13.425362,52.479907],[13.424374,52.486245]]}},{"type":"Feature","properties":{"route_company":"Berliner Verkehrsbetriebe","route_id":"U8","element_type":"way","color":"#224f86","route_name":"U8: S+U Hermannstraße => S+U Wittenau","osm_id":"2679013","railway":"subway","status":"open"},"geometry":{"type":"LineString","coordinates":[[13.424374,52.486245],[13.421923,52.493251],[13.418278,52.49897]]}},{"type":"Feature","properties":{"route_company":"Berliner Verkehrsbetriebe","route_id":"U8","element_type":"way","color":"#224f86","route_name":"U8: S+U Hermannstraße => S+U Wittenau","osm_id":"2679013","railway":"subway","status":"open"},"geometry":{"type":"LineString","coordinates":[[13.418278,52.49897],[13.410696,52.503638],[13.416042,52.510454],[13.418177,52.515777],[13.413261,52.521517]]}},{"type":"Feature","properties":{"route_company":"Berliner Verkehrsbetriebe","route_id":"U8","element_type":"way","color":"#224f86","route_name":"U8: S+U Hermannstraße => S+U Wittenau","osm_id":"2679013","railway":"subway","status":"open"},"geometry":{"type":"LineString","coordinates":[[13.413261,52.521517],[13.405038,52.525465],[13.400794,52.530291],[13.396621,52.537456],[13.393044,52.542084],[13.388344,52.54875],[13.381546,52.552226],[13.373233,52.557174]]}},{"type":"Feature","properties":{"route_company":"Berliner Verkehrsbetriebe","route_id":"U8","element_type":"way","color":"#224f86","route_name":"U8: S+U Hermannstraße => S+U Wittenau","osm_id":"2679013","railway":"subway","status":"open"},"geometry":{"type":"LineString","coordinates":[[13.373233,52.557174],[13.363923,52.564539],[13.360485,52.571183],[13.349319,52.574109],[13.338426,52.575422],[13.333309,52.579074],[13.325778,52.588358],[13.334867,52.595659]]}},{"type":"Feature","properties":{"route_company":"Berliner Verkehrsbetriebe","route_id":"U6","element_type":"way","color":"#8c6dab","route_name":"U6: U Alt-Mariendorf => U Alt-Tegel","osm_id":"2679163","railway":"subway","status":"open"},"geometry":{"type":"LineString","coordinates":[[13.387517,52.439653],[13.385686,52.446271],[13.384438,52.45389],[13.38459,52.459817],[13.385652,52.465497],[13.385592,52.469909],[13.386273,52.478117],[13.385894,52.486026],[13.38883,52.494395]]}},{"type":"Feature","properties":{"route_company":"Berliner Verkehrsbetriebe","route_id":"U6","element_type":"way","color":"#8c6dab","route_name":"U6: U Alt-Mariendorf => U Alt-Tegel","osm_id":"2679163","railway":"subway","status":"open"},"geometry":{"type":"LineString","coordinates":[[13.38883,52.494395],[13.390927,52.498192]]}},{"type":"Feature","properties":{"route_company":"Berliner Verkehrsbetriebe","route_id":"U6","element_type":"way","color":"#8c6dab","route_name":"U6: U Alt-Mariendorf => U Alt-Tegel","osm_id":"2679163","railway":"subway","status":"open"},"geometry":{"type":"LineString","coordinates":[[13.390927,52.498192],[13.390627,52.505941],[13.390303,52.511196]]}},{"type":"Feature","properties":{"route_company":"Berliner Verkehrsbetriebe","route_id":"U6","element_type":"way","color":"#8c6dab","route_name":"U6: U Alt-Mariendorf => U Alt-Tegel","osm_id":"2679163","railway":"subway","status":"open"},"geometry":{"type":"LineString","coordinates":[[13.390303,52.511196],[13.389054,52.516811]]}},{"type":"Feature","properties":{"route_company":"Berliner Verkehrsbetriebe","route_id":"U6","element_type":"way","color":"#8c6dab","route_name":"U6: U Alt-Mariendorf => U Alt-Tegel","osm_id":"2679163","railway":"subway","status":"open"},"geometry":{"type":"LineString","coordinates":[[13.389054,52.516811],[13.388277,52.520198],[13.387347,52.525608],[13.382629,52.530912],[13.377246,52.535216],[13.37039,52.539945],[13.36502,52.543068],[13.359139,52.546397]]}},{"type":"Feature","properties":{"route_company":"Berliner Verkehrsbetriebe","route_id":"U6","element_type":"way","color":"#8c6dab","route_name":"U6: U Alt-Mariendorf => U Alt-Tegel","osm_id":"2679163","railway":"subway","status":"open"},"geometry":{"type":"LineString","coordinates":[[13.359139,52.546397],[13.353306,52.549639],[13.340943,52.556661],[13.334576,52.560258],[13.32715,52.563225]]}},{"type":"Feature","properties":{"route_company":"Berliner Verkehrsbetriebe","route_id":"U9","element_type":"way","color":"#f3791d","route_name":"U9: U Osloer Straße => S+U Rathaus Steglitz","osm_id":"2679016","railway":"subway","status":"open"},"geometry":{"type":"LineString","coordinates":[[13.373233,52.557174],[13.367149,52.551427],[13.359139,52.546397]]}},{"type":"Feature","properties":{"route_company":"Berliner Verkehrsbetriebe","route_id":"U9","element_type":"way","color":"#f3791d","route_name":"U9: U Osloer Straße => S+U Rathaus Steglitz","osm_id":"2679016","railway":"subway","status":"open"},"geometry":{"type":"LineString","coordinates":[[13.359139,52.546397],[13.350137,52.542329],[13.342606,52.536845],[13.341323,52.532276],[13.341275,52.52609],[13.342068,52.517916],[13.332872,52.50648]]}},{"type":"Feature","properties":{"route_company":"Berliner Verkehrsbetriebe","route_id":"U9","element_type":"way","color":"#f3791d","route_name":"U9: U Osloer Straße => S+U Rathaus Steglitz","osm_id":"2679016","railway":"subway","status":"open"},"geometry":{"type":"LineString","coordinates":[[13.332872,52.50648],[13.332048,52.504515]]}},{"type":"Feature","properties":{"route_company":"Berliner Verkehrsbetriebe","route_id":"U9","element_type":"way","color":"#f3791d","route_name":"U9: U Osloer Straße => S+U Rathaus Steglitz","osm_id":"2679016","railway":"subway","status":"open"},"geometry":{"type":"LineString","coordinates":[[13.332048,52.504515],[13.331386,52.497135]]}},{"type":"Feature","properties":{"route_company":"Berliner Verkehrsbetriebe","route_id":"U9","element_type":"way","color":"#f3791d","route_name":"U9: U Osloer Straße => S+U Rathaus Steglitz","osm_id":"2679016","railway":"subway","status":"open"},"geometry":{"type":"LineString","coordinates":[[13.331386,52.497135],[13.331004,52.492088],[13.331024,52.487389]]}},{"type":"Feature","properties":{"route_company":"Berliner Verkehrsbetriebe","route_id":"U9","element_type":"way","color":"#f3791d","route_name":"U9: U Osloer Straße => S+U Rathaus Steglitz","osm_id":"2679016","railway":"subway","status":"open"},"geometry":{"type":"LineString","coordinates":[[13.331024,52.487389],[13.328502,52.477961],[13.328722,52.471774],[13.32826,52.466083],[13.32512,52.461395],[13.320914,52.456795]]}},{"type":"Feature","properties":{"route_company":"Berliner Verkehrsbetriebe","route_id":"U1","element_type":"way","color":"#7dad4c","route_name":"U1: U Uhlandstraße => S+U Warschauer Straße","osm_id":"2669205","railway":"subway","status":"open"},"geometry":{"type":"LineString","coordinates":[[13.326704,52.502807],[13.332048,52.504515]]}},{"type":"Feature","properties":{"route_company":"Berliner Verkehrsbetriebe","route_id":"U1","element_type":"way","color":"#7dad4c","route_name":"U1: U Uhlandstraße => S+U Warschauer Straße","osm_id":"2669205","railway":"subway","status":"open"},"geometry":{"type":"LineString","coordinates":[[13.332048,52.504515],[13.343001,52.501796]]}},{"type":"Feature","properties":{"route_company":"Berliner Verkehrsbetriebe","route_id":"U1","element_type":"way","color":"#7dad4c","route_name":"U1: U Uhlandstraße => S+U Warschauer Straße","osm_id":"2669205","railway":"subway","status":"open"},"geometry":{"type":"LineString","coordinates":[[13.343001,52.501796],[13.354842,52.499861]]}},{"type":"Feature","properties":{"route_company":"Berliner Verkehrsbetriebe","route_id":"U1","element_type":"way","color":"#7dad4c","route_name":"U1: U Uhlandstraße => S+U Warschauer Straße","osm_id":"2669205","railway":"subway","status":"open"},"geometry":{"type":"LineString","coordinates":[[13.354842,52.499861],[13.361456,52.500113]]}},{"type":"Feature","properties":{"route_company":"Berliner Verkehrsbetriebe","route_id":"U1","element_type":"way","color":"#7dad4c","route_name":"U1: U Uhlandstraße => S+U Warschauer Straße","osm_id":"2669205","railway":"subway","status":"open"},"geometry":{"type":"LineString","coordinates":[[13.361456,52.500113],[13.374095,52.499485]]}},{"type":"Feature","properties":{"route_company":"Berliner Verkehrsbetriebe","route_id":"U1","element_type":"way","color":"#7dad4c","route_name":"U1: U Uhlandstraße => S+U Warschauer Straße","osm_id":"2669205","railway":"subway","status":"open"},"geometry":{"type":"LineString","coordinates":[[13.374095,52.499485],[13.382988,52.498977]]}},{"type":"Feature","properties":{"route_company":"Berliner Verkehrsbetriebe","route_id":"U1","element_type":"way","color":"#7dad4c","route_name":"U1: U Uhlandstraße => S+U Warschauer Straße","osm_id":"2669205","railway":"subway","status":"open"},"geometry":{"type":"LineString","coordinates":[[13.382988,52.498977],[13.390927,52.498192]]}},{"type":"Feature","properties":{"route_company":"Berliner Verkehrsbetriebe","route_id":"U1","element_type":"way","color":"#7dad4c","route_name":"U1: U Uhlandstraße => S+U Warschauer Straße","osm_id":"2669205","railway":"subway","status":"open"},"geometry":{"type":"LineString","coordinates":[[13.390927,52.498192],[13.40556,52.498391]]}},{"type":"Feature","properties":{"route_company":"Berliner Verkehrsbetriebe","route_id":"U1","element_type":"way","color":"#7dad4c","route_name":"U1: U Uhlandstraße => S+U Warschauer Straße","osm_id":"2669205","railway":"subway","status":"open"},"geometry":{"type":"LineString","coordinates":[[13.40556,52.498391],[13.418278,52.49897]]}},{"type":"Feature","properties":{"route_company":"Berliner Verkehrsbetriebe","route_id":"U1","element_type":"way","color":"#7dad4c","route_name":"U1: U Uhlandstraße => S+U Warschauer Straße","osm_id":"2669205","railway":"subway","status":"open"},"geometry":{"type":"LineString","coordinates":[[13.418278,52.49897],[13.428013,52.499265]]}},{"type":"Feature","properties":{"route_company":"Berliner Verkehrsbetriebe","route_id":"U1","element_type":"way","color":"#7dad4c","route_name":"U1: U Uhlandstraße => S+U Warschauer Straße","osm_id":"2669205","railway":"subway","status":"open"},"geometry":{"type":"LineString","coordinates":[[13.428013,52.499265],[13.441567,52.500869]]}},{"type":"Feature","properties":{"route_company":"Berliner Verkehrsbetriebe","route_id":"U1","element_type":"way","color":"#7dad4c","route_name":"U1: U Uhlandstraße => S+U Warschauer Straße","osm_id":"2669205","railway":"subway","status":"open"},"geometry":{"type":"LineString","coordinates":[[13.441567,52.500869],[13.449114,52.505151]]}},{"type":"Feature","properties":{"route_company":"Berliner Verkehrsbetriebe","route_id":"U4","element_type":"way","color":"#f0d722","route_name":"U4: S+U Innsbrucker Platz => U Nollendorfplatz","osm_id":"2676944","railway":"subway","status":"open"},"geometry":{"type":"LineString","coordinates":[[13.343746,52.479016],[13.341973,52.483178],[13.340905,52.488942]]}},{"type":"Feature","properties":{"route_company":"Berliner Verkehrsbetriebe","route_id":"U4","element_type":"way","color":"#f0d722","route_name":"U4: S+U Innsbrucker Platz => U Nollendorfplatz","osm_id":"2676944","railway":"subway","status":"open"},"geometry":{"type":"LineString","coordinates":[[13.340905,52.488942],[13.343218,52.496187],[13.354842,52.499861]]}}]}