{"type":"FeatureCollection","generator":"metroOsmFetch (OpenStreetMap / Overpass, ODbL)","features":[{"type":"Feature","properties":{"route_company":"Hamburger Hochbahn","route_id":"U1","element_type":"way","color":"#0072bc","route_name":"U1: Großhansdorf => Norderstedt Mitte","osm_id":"62923","railway":"subway","status":"open"},"geometry":{"type":"LineString","coordinates":[[10.286855,53.662943],[10.280193,53.652867],[10.260236,53.653422],[10.242232,53.661301],[10.219339,53.664694],[10.185066,53.653005],[10.163064,53.650665],[10.155863,53.638671],[10.139838,53.627056],[10.128939,53.617733],[10.117576,53.607219],[10.102841,53.598478],[10.07418,53.592336],[10.06491,53.586188],[10.067827,53.581952],[10.066785,53.571734],[10.058874,53.569772],[10.046667,53.5677],[10.035393,53.564698],[10.0281,53.559456],[10.01801,53.556211],[10.007903,53.552716],[10.006092,53.548917],[10.000917,53.547707],[9.994125,53.552619],[9.989388,53.558754],[9.989142,53.573227],[9.988372,53.581616],[9.990701,53.588785],[9.996055,53.594921],[9.994733,53.59973],[10.011469,53.606305],[10.021913,53.609466],[10.03171,53.620605],[10.033277,53.628162],[10.026539,53.632603],[10.016758,53.639231],[10.017315,53.649008],[10.017554,53.66076],[10.016101,53.675106],[10.001807,53.67816],[9.986129,53.684479],[9.989618,53.695595],[9.992487,53.707891]]}},{"type":"Feature","properties":{"route_company":"S-Bahn Hamburg GmbH","route_id":"S1","element_type":"way","color":"#00962c","route_name":"S1: Wedel => Poppenbüttel","osm_id":"1540437","railway":"light_rail","status":"open"},"geometry":{"type":"LineString","coordinates":[[9.705485,53.582127],[9.757765,53.583071],[9.797328,53.58108],[9.814343,53.576537],[9.815498,53.564547],[9.841486,53.561594],[9.861402,53.558151],[9.885438,53.559096],[9.911031,53.559996],[9.926572,53.559541],[9.934549,53.551861],[9.944174,53.547815],[9.957902,53.549586],[9.97111,53.546129],[9.985499,53.549158],[9.994125,53.552619],[10.007903,53.552716],[10.024463,53.552994],[10.037912,53.561118],[10.055417,53.564562],[10.058874,53.569772],[10.057489,53.576619],[10.044371,53.587378],[10.035505,53.597896],[10.033238,53.605852],[10.03171,53.620605],[10.054106,53.632365],[10.067753,53.635447],[10.082738,53.641168],[10.093992,53.651959]]}},{"type":"Feature","properties":{"route_company":"S-Bahn Hamburg GmbH","route_id":"S5","element_type":"way","color":"#008abd","route_name":"S5: Elbgaustraße => Stade","osm_id":"61612","railway":"light_rail","status":"open"},"geometry":{"type":"LineString","coordinates":[[9.893341,53.602638],[9.907274,53.595659],[9.918076,53.589829],[9.930733,53.579638],[9.934156,53.568752],[9.9499,53.561725],[9.968295,53.563964],[9.989362,53.56116],[10.007903,53.552716],[10.023573,53.54658],[10.02441,53.535048],[10.013297,53.52171],[10.006758,53.498483],[9.991146,53.457071],[9.980476,53.460739],[9.963068,53.465532],[9.877484,53.473052],[9.852313,53.474075],[9.819242,53.474777],[9.788173,53.473047],[9.687523,53.47061],[9.639948,53.481183],[9.577014,53.508224],[9.55746,53.54612],[9.530732,53.564363],[9.478688,53.595791]]}},{"type":"Feature","properties":{"route_company":"Hamburger Hochbahn","route_id":"U3","element_type":"way","color":"#ffde00","route_name":"U3: Barmbek => Wandsbek Gartenstadt","osm_id":"1643221","railway":"subway","status":"open"},"geometry":{"type":"LineString","coordinates":[[10.044371,53.587378],[10.031405,53.589259],[10.014122,53.590794],[10.001033,53.590435],[9.990701,53.588785],[9.985173,53.583784],[9.976044,53.577521],[9.969887,53.567708],[9.968295,53.563964],[9.968586,53.556903],[9.969984,53.55092],[9.97111,53.546129],[9.981633,53.544196],[9.985499,53.549158],[9.994058,53.550365],[10.001913,53.551262],[10.007903,53.552716],[10.024463,53.552994],[10.0281,53.559456],[10.026776,53.564693],[10.027491,53.569358],[10.037332,53.574479],[10.04084,53.578935],[10.044371,53.587378],[10.052624,53.593574],[10.07418,53.592336]]}},{"type":"Feature","properties":{"route_company":"Hamburger Hochbahn","route_id":"U2","element_type":"way","color":"#ed1c24","route_name":"U2: Niendorf Nord => Mümmelmannsberg","osm_id":"60691","railway":"subway","status":"open"},"geometry":{"type":"LineString","coordinates":[[9.949836,53.641241],[9.952467,53.635314],[9.950262,53.628192],[9.951767,53.620491],[9.945331,53.604344],[9.944092,53.592156],[9.947536,53.582003],[9.951637,53.576166],[9.952598,53.571623],[9.96219,53.56949],[9.969887,53.567708],[9.97666,53.55802],[9.98604,53.555608],[9.994125,53.552619],[10.007903,53.552716],[10.024463,53.552994],[10.042006,53.555797],[10.056324,53.555538],[10.066043,53.554216],[10.084345,53.553748],[10.095593,53.547337],[10.106935,53.542498],[10.12509,53.538609],[10.139214,53.541021],[10.149928,53.528104]]}},{"type":"Feature","properties":{"route_company":"S-Bahn Hamburg GmbH","route_id":"S3","element_type":"way","color":"#54216e","route_name":"S3: Pinneberg => Neugraben","osm_id":"1727354","railway":"light_rail","status":"open"},"geometry":{"type":"LineString","coordinates":[[9.798573,53.654724],[9.814407,53.643906],[9.839036,53.630364],[9.867721,53.615761],[9.893341,53.602638],[9.907274,53.595659],[9.918076,53.589829],[9.930733,53.579638],[9.934156,53.568752],[9.934549,53.551861],[9.944174,53.547815],[9.957902,53.549586],[9.97111,53.546129],[9.985499,53.549158],[9.994125,53.552619],[10.007903,53.552716],[10.023573,53.54658],[10.02441,53.535048],[10.013297,53.52171],[10.006758,53.498483],[9.991146,53.457071],[9.980476,53.460739],[9.963068,53.465532],[9.877484,53.473052],[9.852313,53.474075]]}},{"type":"Feature","properties":{"route_company":"S-Bahn Hamburg GmbH","route_id":"S7","element_type":"way","color":"#bb7d31","route_name":"S7: Aumühle => Altona","osm_id":"20193389","railway":"light_rail","status":"open"},"geometry":{"type":"LineString","coordinates":[[10.314482,53.530031],[10.278027,53.520715],[10.253571,53.508528],[10.205778,53.489741],[10.181103,53.488019],[10.159004,53.490408],[10.131159,53.498173],[10.096351,53.515958],[10.065559,53.531323],[10.044283,53.538429],[10.024463,53.552994],[10.007903,53.552716],[9.994125,53.552619],[9.985499,53.549158],[9.97111,53.546129],[9.957902,53.549586],[9.944174,53.547815],[9.934549,53.551861]]}},{"type":"Feature","properties":{"route_company":"S-Bahn Hamburg GmbH","route_id":"S2","element_type":"way","color":"#b41439","route_name":"S2: Aumühle => Altona","osm_id":"2064636","railway":"light_rail","status":"open"},"geometry":{"type":"LineString","coordinates":[[10.314482,53.530031],[10.278027,53.520715],[10.253571,53.508528],[10.205778,53.489741],[10.181103,53.488019],[10.159004,53.490408],[10.131159,53.498173],[10.096351,53.515958],[10.065559,53.531323],[10.044283,53.538429],[10.024463,53.552994],[10.007903,53.552716],[9.989362,53.56116],[9.968295,53.563964],[9.9499,53.561725],[9.934549,53.551861]]}},{"type":"Feature","properties":{"route_company":"Hamburger Hochbahn","route_id":"U4","element_type":"way","color":"#00aaad","route_name":"U4: Billstedt => Elbbrücken","osm_id":"2390138","railway":"subway","status":"open"},"geometry":{"type":"LineString","coordinates":[[10.106935,53.542498],[10.095593,53.547337],[10.084345,53.553748],[10.066043,53.554216],[10.056324,53.555538],[10.042006,53.555797],[10.024463,53.552994],[10.007903,53.552716],[9.994125,53.552619],[9.99835,53.540341],[10.007799,53.540494],[10.02441,53.535048]]}},{"type":"Feature","properties":{"osm_id":"1374832865","station_name":"Großhansdorf","element_type":"node","station_id":"1374832865"},"geometry":{"type":"Point","coordinates":[10.286855,53.662943]}},{"type":"Feature","properties":{"osm_id":"1374832851","station_name":"Kiekut","element_type":"node","station_id":"1374832851"},"geometry":{"type":"Point","coordinates":[10.280193,53.652867]}},{"type":"Feature","properties":{"osm_id":"1374832863","station_name":"Schmalenbeck","element_type":"node","station_id":"1374832863"},"geometry":{"type":"Point","coordinates":[10.260236,53.653422]}},{"type":"Feature","properties":{"osm_id":"1374832864","station_name":"Ahrensburg Ost","element_type":"node","station_id":"1374832864"},"geometry":{"type":"Point","coordinates":[10.242232,53.661301]}},{"type":"Feature","properties":{"osm_id":"496848764","station_name":"Ahrensburg West","element_type":"node","station_id":"496848764"},"geometry":{"type":"Point","coordinates":[10.219339,53.664694]}},{"type":"Feature","properties":{"osm_id":"1374832858","station_name":"Buchenkamp","element_type":"node","station_id":"1374832858"},"geometry":{"type":"Point","coordinates":[10.185066,53.653005]}},{"type":"Feature","properties":{"osm_id":"1374832850","station_name":"Volksdorf","element_type":"node","station_id":"1374832850"},"geometry":{"type":"Point","coordinates":[10.163064,53.650665]}},{"type":"Feature","properties":{"osm_id":"1374832846","station_name":"Meiendorfer Weg","element_type":"node","station_id":"1374832846"},"geometry":{"type":"Point","coordinates":[10.155863,53.638671]}},{"type":"Feature","properties":{"osm_id":"1374832844","station_name":"Berne","element_type":"node","station_id":"1374832844"},"geometry":{"type":"Point","coordinates":[10.139838,53.627056]}},{"type":"Feature","properties":{"osm_id":"7044904112","station_name":"Oldenfelde","element_type":"node","station_id":"7044904112"},"geometry":{"type":"Point","coordinates":[10.128939,53.617733]}},{"type":"Feature","properties":{"osm_id":"541009458","station_name":"Farmsen","element_type":"node","station_id":"541009458"},"geometry":{"type":"Point","coordinates":[10.117576,53.607219]}},{"type":"Feature","properties":{"osm_id":"1374832831","station_name":"Trabrennbahn","element_type":"node","station_id":"1374832831"},"geometry":{"type":"Point","coordinates":[10.102841,53.598478]}},{"type":"Feature","properties":{"osm_id":"25295960","station_name":"Wandsbek-Gartenstadt","element_type":"node","station_id":"25295960"},"geometry":{"type":"Point","coordinates":[10.07418,53.592336]}},{"type":"Feature","properties":{"osm_id":"3033453630","station_name":"Alter Teichweg","element_type":"node","station_id":"3033453630"},"geometry":{"type":"Point","coordinates":[10.06491,53.586188]}},{"type":"Feature","properties":{"osm_id":"1229067980","station_name":"Straßburger Straße","element_type":"node","station_id":"1229067980"},"geometry":{"type":"Point","coordinates":[10.067827,53.581952]}},{"type":"Feature","properties":{"osm_id":"2881482262","station_name":"Wandsbek Markt","element_type":"node","station_id":"2881482262"},"geometry":{"type":"Point","coordinates":[10.066785,53.571734]}},{"type":"Feature","properties":{"osm_id":"1094105235","station_name":"Wandsbeker Chaussee","element_type":"node","station_id":"2"},"geometry":{"type":"Point","coordinates":[10.058874,53.569772]}},{"type":"Feature","properties":{"osm_id":"1145890665","station_name":"Ritterstraße","element_type":"node","station_id":"1145890665"},"geometry":{"type":"Point","coordinates":[10.046667,53.5677]}},{"type":"Feature","properties":{"osm_id":"260719522","station_name":"Wartenau","element_type":"node","station_id":"260719522"},"geometry":{"type":"Point","coordinates":[10.035393,53.564698]}},{"type":"Feature","properties":{"osm_id":"1374832819","station_name":"Lübecker Straße","element_type":"node","station_id":"1374832819"},"geometry":{"type":"Point","coordinates":[10.0281,53.559456]}},{"type":"Feature","properties":{"osm_id":"3021113861","station_name":"Lohmühlenstraße","element_type":"node","station_id":"3021113861"},"geometry":{"type":"Point","coordinates":[10.01801,53.556211]}},{"type":"Feature","properties":{"osm_id":"540999013","station_name":"Hamburg Hauptbahnhof","element_type":"node","station_id":"2"},"geometry":{"type":"Point","coordinates":[10.007903,53.552716]}},{"type":"Feature","properties":{"osm_id":"2582672506","station_name":"Steinstraße","element_type":"node","station_id":"2582672506"},"geometry":{"type":"Point","coordinates":[10.006092,53.548917]}},{"type":"Feature","properties":{"osm_id":"371189617","station_name":"Meßberg","element_type":"node","station_id":"371189617"},"geometry":{"type":"Point","coordinates":[10.000917,53.547707]}},{"type":"Feature","properties":{"osm_id":"4042431789","station_name":"Jungfernstieg","element_type":"node","station_id":"2"},"geometry":{"type":"Point","coordinates":[9.994125,53.552619]}},{"type":"Feature","properties":{"osm_id":"429211497","station_name":"Stephansplatz (Oper/CCH)","element_type":"node","station_id":"429211497"},"geometry":{"type":"Point","coordinates":[9.989388,53.558754]}},{"type":"Feature","properties":{"osm_id":"490567618","station_name":"Hallerstraße","element_type":"node","station_id":"490567618"},"geometry":{"type":"Point","coordinates":[9.989142,53.573227]}},{"type":"Feature","properties":{"osm_id":"251332112","station_name":"Klosterstern","element_type":"node","station_id":"251332112"},"geometry":{"type":"Point","coordinates":[9.988372,53.581616]}},{"type":"Feature","properties":{"osm_id":"7252932359","station_name":"Kellinghusenstraße","element_type":"node","station_id":"3"},"geometry":{"type":"Point","coordinates":[9.990701,53.588785]}},{"type":"Feature","properties":{"osm_id":"294524253","station_name":"Hudtwalckerstraße","element_type":"node","station_id":"294524253"},"geometry":{"type":"Point","coordinates":[9.996055,53.594921]}},{"type":"Feature","properties":{"osm_id":"4042444589","station_name":"Lattenkamp (Sporthalle)","element_type":"node","station_id":"4042444589"},"geometry":{"type":"Point","coordinates":[9.994733,53.59973]}},{"type":"Feature","properties":{"osm_id":"294516528","station_name":"Alsterdorf","element_type":"node","station_id":"294516528"},"geometry":{"type":"Point","coordinates":[10.011469,53.606305]}},{"type":"Feature","properties":{"osm_id":"294514901","station_name":"Sengelmannstraße (City Nord)","element_type":"node","station_id":"294514901"},"geometry":{"type":"Point","coordinates":[10.021913,53.609466]}},{"type":"Feature","properties":{"osm_id":"988664568","station_name":"Ohlsdorf","element_type":"node","station_id":"5"},"geometry":{"type":"Point","coordinates":[10.03171,53.620605]}},{"type":"Feature","properties":{"osm_id":"1012422128","station_name":"Klein Borstel","element_type":"node","station_id":"1012422128"},"geometry":{"type":"Point","coordinates":[10.033277,53.628162]}},{"type":"Feature","properties":{"osm_id":"1012408948","station_name":"Fuhlsbüttel","element_type":"node","station_id":"1012408948"},"geometry":{"type":"Point","coordinates":[10.026539,53.632603]}},{"type":"Feature","properties":{"osm_id":"1012086730","station_name":"Fuhlsbüttel Nord","element_type":"node","station_id":"1012086730"},"geometry":{"type":"Point","coordinates":[10.016758,53.639231]}},{"type":"Feature","properties":{"osm_id":"1012172616","station_name":"Langenhorn Markt","element_type":"node","station_id":"1012172616"},"geometry":{"type":"Point","coordinates":[10.017315,53.649008]}},{"type":"Feature","properties":{"osm_id":"1011199343","station_name":"Langenhorn Nord","element_type":"node","station_id":"1011199343"},"geometry":{"type":"Point","coordinates":[10.017554,53.66076]}},{"type":"Feature","properties":{"osm_id":"1006716774","station_name":"Kiwittsmoor","element_type":"node","station_id":"1006716774"},"geometry":{"type":"Point","coordinates":[10.016101,53.675106]}},{"type":"Feature","properties":{"osm_id":"247639972","station_name":"Ochsenzoll","element_type":"node","station_id":"247639972"},"geometry":{"type":"Point","coordinates":[10.001807,53.67816]}},{"type":"Feature","properties":{"osm_id":"1669874334","station_name":"Garstedt","element_type":"node","station_id":"1669874334"},"geometry":{"type":"Point","coordinates":[9.986129,53.684479]}},{"type":"Feature","properties":{"osm_id":"1374832877","station_name":"Richtweg","element_type":"node","station_id":"1374832877"},"geometry":{"type":"Point","coordinates":[9.989618,53.695595]}},{"type":"Feature","properties":{"osm_id":"250976987","station_name":"Norderstedt Mitte","element_type":"node","station_id":"250976987"},"geometry":{"type":"Point","coordinates":[9.992487,53.707891]}},{"type":"Feature","properties":{"osm_id":"68628693","station_name":"Wedel","element_type":"node","station_id":"2"},"geometry":{"type":"Point","coordinates":[9.705485,53.582127]}},{"type":"Feature","properties":{"osm_id":"68628767","station_name":"Rissen","element_type":"node","station_id":"68628767"},"geometry":{"type":"Point","coordinates":[9.757765,53.583071]}},{"type":"Feature","properties":{"osm_id":"3708943322","station_name":"Sülldorf","element_type":"node","station_id":"1"},"geometry":{"type":"Point","coordinates":[9.797328,53.58108]}},{"type":"Feature","properties":{"osm_id":"68651221","station_name":"Iserbrook","element_type":"node","station_id":"68651221"},"geometry":{"type":"Point","coordinates":[9.814343,53.576537]}},{"type":"Feature","properties":{"osm_id":"273959865","station_name":"Blankenese","element_type":"node","station_id":"2"},"geometry":{"type":"Point","coordinates":[9.815498,53.564547]}},{"type":"Feature","properties":{"osm_id":"1235197658","station_name":"Hochkamp","element_type":"node","station_id":"2"},"geometry":{"type":"Point","coordinates":[9.841486,53.561594]}},{"type":"Feature","properties":{"osm_id":"26600623","station_name":"Klein Flottbek (Botanischer Garten)","element_type":"node","station_id":"2"},"geometry":{"type":"Point","coordinates":[9.861402,53.558151]}},{"type":"Feature","properties":{"osm_id":"1281745186","station_name":"Othmarschen","element_type":"node","station_id":"1"},"geometry":{"type":"Point","coordinates":[9.885438,53.559096]}},{"type":"Feature","properties":{"osm_id":"26600615","station_name":"Bahrenfeld","element_type":"node","station_id":"1"},"geometry":{"type":"Point","coordinates":[9.911031,53.559996]}},{"type":"Feature","properties":{"osm_id":"10942031671","station_name":"Ottensen","element_type":"node","station_id":"1"},"geometry":{"type":"Point","coordinates":[9.926572,53.559541]}},{"type":"Feature","properties":{"osm_id":"535951138","station_name":"Hamburg-Altona","element_type":"node","station_id":"1"},"geometry":{"type":"Point","coordinates":[9.934549,53.551861]}},{"type":"Feature","properties":{"osm_id":"3480114466","station_name":"Königstraße","element_type":"node","station_id":"2"},"geometry":{"type":"Point","coordinates":[9.944174,53.547815]}},{"type":"Feature","properties":{"osm_id":"3480061011","station_name":"Reeperbahn","element_type":"node","station_id":"2"},"geometry":{"type":"Point","coordinates":[9.957902,53.549586]}},{"type":"Feature","properties":{"osm_id":"1283197478","station_name":"Landungsbrücken","element_type":"node","station_id":"2"},"geometry":{"type":"Point","coordinates":[9.97111,53.546129]}},{"type":"Feature","properties":{"osm_id":"3372126596","station_name":"Stadthausbrücke","element_type":"node","station_id":"2"},"geometry":{"type":"Point","coordinates":[9.985499,53.549158]}},{"type":"Feature","properties":{"osm_id":"534744853","station_name":"Berliner Tor","element_type":"node","station_id":"3"},"geometry":{"type":"Point","coordinates":[10.024463,53.552994]}},{"type":"Feature","properties":{"osm_id":"292334216","station_name":"Landwehr","element_type":"node","station_id":"2"},"geometry":{"type":"Point","coordinates":[10.037912,53.561118]}},{"type":"Feature","properties":{"osm_id":"25909272","station_name":"Hasselbrook","element_type":"node","station_id":"25909272"},"geometry":{"type":"Point","coordinates":[10.055417,53.564562]}},{"type":"Feature","properties":{"osm_id":"25909256","station_name":"Friedrichsberg","element_type":"node","station_id":"2"},"geometry":{"type":"Point","coordinates":[10.057489,53.576619]}},{"type":"Feature","properties":{"osm_id":"1139671822","station_name":"Barmbek","element_type":"node","station_id":"5"},"geometry":{"type":"Point","coordinates":[10.044371,53.587378]}},{"type":"Feature","properties":{"osm_id":"1359198027","station_name":"Alte Wöhr (Stadtpark)","element_type":"node","station_id":"2"},"geometry":{"type":"Point","coordinates":[10.035505,53.597896]}},{"type":"Feature","properties":{"osm_id":"1359198030","station_name":"Rübenkamp (City Nord)","element_type":"node","station_id":"2"},"geometry":{"type":"Point","coordinates":[10.033238,53.605852]}},{"type":"Feature","properties":{"osm_id":"292225159","station_name":"Kornweg (Klein Borstel)","element_type":"node","station_id":"292225159"},"geometry":{"type":"Point","coordinates":[10.054106,53.632365]}},{"type":"Feature","properties":{"osm_id":"292224638","station_name":"Hoheneichen","element_type":"node","station_id":"2"},"geometry":{"type":"Point","coordinates":[10.067753,53.635447]}},{"type":"Feature","properties":{"osm_id":"292222977","station_name":"Wellingsbüttel","element_type":"node","station_id":"2"},"geometry":{"type":"Point","coordinates":[10.082738,53.641168]}},{"type":"Feature","properties":{"osm_id":"292221034","station_name":"Poppenbüttel","element_type":"node","station_id":"1"},"geometry":{"type":"Point","coordinates":[10.093992,53.651959]}},{"type":"Feature","properties":{"osm_id":"3377293670","station_name":"Elbgaustraße","element_type":"node","station_id":"2"},"geometry":{"type":"Point","coordinates":[9.893341,53.602638]}},{"type":"Feature","properties":{"osm_id":"248847413","station_name":"Eidelstedt","element_type":"node","station_id":"2"},"geometry":{"type":"Point","coordinates":[9.907274,53.595659]}},{"type":"Feature","properties":{"osm_id":"280998653","station_name":"Stellingen","element_type":"node","station_id":"2"},"geometry":{"type":"Point","coordinates":[9.918076,53.589829]}},{"type":"Feature","properties":{"osm_id":"598842953","station_name":"Langenfelde","element_type":"node","station_id":"2"},"geometry":{"type":"Point","coordinates":[9.930733,53.579638]}},{"type":"Feature","properties":{"osm_id":"12809641957","station_name":"Diebsteich","element_type":"node","station_id":"2"},"geometry":{"type":"Point","coordinates":[9.934156,53.568752]}},{"type":"Feature","properties":{"osm_id":"1412279570","station_name":"Holstenstraße","element_type":"node","station_id":"2"},"geometry":{"type":"Point","coordinates":[9.9499,53.561725]}},{"type":"Feature","properties":{"osm_id":"452490016","station_name":"Sternschanze (Messe)","element_type":"node","station_id":"2"},"geometry":{"type":"Point","coordinates":[9.968295,53.563964]}},{"type":"Feature","properties":{"osm_id":"1412279569","station_name":"Dammtor (Messe/CCH)","element_type":"node","station_id":"1412279569"},"geometry":{"type":"Point","coordinates":[9.989362,53.56116]}},{"type":"Feature","properties":{"osm_id":"534744796","station_name":"Hammerbrook","element_type":"node","station_id":"2"},"geometry":{"type":"Point","coordinates":[10.023573,53.54658]}},{"type":"Feature","properties":{"osm_id":"5227886054","station_name":"Elbbrücken","element_type":"node","station_id":"2"},"geometry":{"type":"Point","coordinates":[10.02441,53.535048]}},{"type":"Feature","properties":{"osm_id":"10691210","station_name":"Veddel (Ballin Stadt)","element_type":"node","station_id":"2"},"geometry":{"type":"Point","coordinates":[10.013297,53.52171]}},{"type":"Feature","properties":{"osm_id":"345294491","station_name":"Wilhelmsburg","element_type":"node","station_id":"2"},"geometry":{"type":"Point","coordinates":[10.006758,53.498483]}},{"type":"Feature","properties":{"osm_id":"289402377","station_name":"Harburg","element_type":"node","station_id":"12"},"geometry":{"type":"Point","coordinates":[9.991146,53.457071]}},{"type":"Feature","properties":{"osm_id":"3707303128","station_name":"Harburg Rathaus","element_type":"node","station_id":"3"},"geometry":{"type":"Point","coordinates":[9.980476,53.460739]}},{"type":"Feature","properties":{"osm_id":"3707303130","station_name":"Heimfeld (TU Hamburg)","element_type":"node","station_id":"2"},"geometry":{"type":"Point","coordinates":[9.963068,53.465532]}},{"type":"Feature","properties":{"osm_id":"1329487159","station_name":"Neuwiedenthal","element_type":"node","station_id":"2"},"geometry":{"type":"Point","coordinates":[9.877484,53.473052]}},{"type":"Feature","properties":{"osm_id":"305430846","station_name":"Neugraben","element_type":"node","station_id":"3"},"geometry":{"type":"Point","coordinates":[9.852313,53.474075]}},{"type":"Feature","properties":{"osm_id":"158721845","station_name":"Fischbek","element_type":"node","station_id":"1"},"geometry":{"type":"Point","coordinates":[9.819242,53.474777]}},{"type":"Feature","properties":{"osm_id":"158721846","station_name":"Neu Wulmstorf","element_type":"node","station_id":"1"},"geometry":{"type":"Point","coordinates":[9.788173,53.473047]}},{"type":"Feature","properties":{"osm_id":"3707679193","station_name":"Buxtehude","element_type":"node","station_id":"3707679193"},"geometry":{"type":"Point","coordinates":[9.687523,53.47061]}},{"type":"Feature","properties":{"osm_id":"1458543978","station_name":"Neukloster","element_type":"node","station_id":"1458543978"},"geometry":{"type":"Point","coordinates":[9.639948,53.481183]}},{"type":"Feature","properties":{"osm_id":"3707303132","station_name":"Horneburg","element_type":"node","station_id":"3707303132"},"geometry":{"type":"Point","coordinates":[9.577014,53.508224]}},{"type":"Feature","properties":{"osm_id":"3707303024","station_name":"Dollern","element_type":"node","station_id":"3707303024"},"geometry":{"type":"Point","coordinates":[9.55746,53.54612]}},{"type":"Feature","properties":{"osm_id":"3707303022","station_name":"Agathenburg","element_type":"node","station_id":"3707303022"},"geometry":{"type":"Point","coordinates":[9.530732,53.564363]}},{"type":"Feature","properties":{"osm_id":"3771839071","station_name":"Stade","element_type":"node","station_id":"3771839071"},"geometry":{"type":"Point","coordinates":[9.478688,53.595791]}},{"type":"Feature","properties":{"osm_id":"294502035","station_name":"Saarlandstraße","element_type":"node","station_id":"294502035"},"geometry":{"type":"Point","coordinates":[10.031405,53.589259]}},{"type":"Feature","properties":{"osm_id":"1161743073","station_name":"Borgweg (Stadtpark)","element_type":"node","station_id":"1161743073"},"geometry":{"type":"Point","coordinates":[10.014122,53.590794]}},{"type":"Feature","properties":{"osm_id":"1161743079","station_name":"Sierichstraße","element_type":"node","station_id":"1161743079"},"geometry":{"type":"Point","coordinates":[10.001033,53.590435]}},{"type":"Feature","properties":{"osm_id":"621182594","station_name":"Eppendorfer Baum","element_type":"node","station_id":"621182594"},"geometry":{"type":"Point","coordinates":[9.985173,53.583784]}},{"type":"Feature","properties":{"osm_id":"3073828414","station_name":"Hoheluftbrücke","element_type":"node","station_id":"1"},"geometry":{"type":"Point","coordinates":[9.976044,53.577521]}},{"type":"Feature","properties":{"osm_id":"368592725","station_name":"Schlump","element_type":"node","station_id":"368592725"},"geometry":{"type":"Point","coordinates":[9.969887,53.567708]}},{"type":"Feature","properties":{"osm_id":"258202562","station_name":"Feldstraße (Heiligengeistfeld)","element_type":"node","station_id":"258202562"},"geometry":{"type":"Point","coordinates":[9.968586,53.556903]}},{"type":"Feature","properties":{"osm_id":"258201148","station_name":"St. Pauli","element_type":"node","station_id":"258201148"},"geometry":{"type":"Point","coordinates":[9.969984,53.55092]}},{"type":"Feature","properties":{"osm_id":"52144750","station_name":"Baumwall (Elbphilharmonie)","element_type":"node","station_id":"52144750"},"geometry":{"type":"Point","coordinates":[9.981633,53.544196]}},{"type":"Feature","properties":{"osm_id":"301639322","station_name":"Rathaus","element_type":"node","station_id":"301639322"},"geometry":{"type":"Point","coordinates":[9.994058,53.550365]}},{"type":"Feature","properties":{"osm_id":"6900722098","station_name":"Mönckebergstraße","element_type":"node","station_id":"1"},"geometry":{"type":"Point","coordinates":[10.001913,53.551262]}},{"type":"Feature","properties":{"osm_id":"1447394403","station_name":"Uhlandstraße","element_type":"node","station_id":"1447394403"},"geometry":{"type":"Point","coordinates":[10.026776,53.564693]}},{"type":"Feature","properties":{"osm_id":"1447394142","station_name":"Mundsburg","element_type":"node","station_id":"1447394142"},"geometry":{"type":"Point","coordinates":[10.027491,53.569358]}},{"type":"Feature","properties":{"osm_id":"1447394135","station_name":"Hamburger Straße","element_type":"node","station_id":"1"},"geometry":{"type":"Point","coordinates":[10.037332,53.574479]}},{"type":"Feature","properties":{"osm_id":"1447394113","station_name":"Dehnhaide","element_type":"node","station_id":"1447394113"},"geometry":{"type":"Point","coordinates":[10.04084,53.578935]}},{"type":"Feature","properties":{"osm_id":"1158975332","station_name":"Habichtstraße","element_type":"node","station_id":"1158975332"},"geometry":{"type":"Point","coordinates":[10.052624,53.593574]}},{"type":"Feature","properties":{"osm_id":"6079838041","station_name":"Niendorf Nord","element_type":"node","station_id":"6079838041"},"geometry":{"type":"Point","coordinates":[9.949836,53.641241]}},{"type":"Feature","properties":{"osm_id":"4258215856","station_name":"Schippelsweg","element_type":"node","station_id":"4258215856"},"geometry":{"type":"Point","coordinates":[9.952467,53.635314]}},{"type":"Feature","properties":{"osm_id":"1944655596","station_name":"Joachim-Mähl-Straße","element_type":"node","station_id":"1944655596"},"geometry":{"type":"Point","coordinates":[9.950262,53.628192]}},{"type":"Feature","properties":{"osm_id":"6079838042","station_name":"Niendorf Markt","element_type":"node","station_id":"6079838042"},"geometry":{"type":"Point","coordinates":[9.951767,53.620491]}},{"type":"Feature","properties":{"osm_id":"4053151597","station_name":"Hagendeel","element_type":"node","station_id":"4053151597"},"geometry":{"type":"Point","coordinates":[9.945331,53.604344]}},{"type":"Feature","properties":{"osm_id":"1674326777","station_name":"Hagenbecks Tierpark","element_type":"node","station_id":"1674326777"},"geometry":{"type":"Point","coordinates":[9.944092,53.592156]}},{"type":"Feature","properties":{"osm_id":"3020689456","station_name":"Lutterothstraße","element_type":"node","station_id":"3020689456"},"geometry":{"type":"Point","coordinates":[9.947536,53.582003]}},{"type":"Feature","properties":{"osm_id":"2866350655","station_name":"Osterstraße","element_type":"node","station_id":"2866350655"},"geometry":{"type":"Point","coordinates":[9.951637,53.576166]}},{"type":"Feature","properties":{"osm_id":"258193279","station_name":"Emilienstraße","element_type":"node","station_id":"258193279"},"geometry":{"type":"Point","coordinates":[9.952598,53.571623]}},{"type":"Feature","properties":{"osm_id":"257805922","station_name":"Christuskirche","element_type":"node","station_id":"257805922"},"geometry":{"type":"Point","coordinates":[9.96219,53.56949]}},{"type":"Feature","properties":{"osm_id":"258193999","station_name":"Messehallen","element_type":"node","station_id":"258193999"},"geometry":{"type":"Point","coordinates":[9.97666,53.55802]}},{"type":"Feature","properties":{"osm_id":"2624289973","station_name":"Gänsemarkt (Oper)","element_type":"node","station_id":"2624289973"},"geometry":{"type":"Point","coordinates":[9.98604,53.555608]}},{"type":"Feature","properties":{"osm_id":"1498767736","station_name":"Burgstraße","element_type":"node","station_id":"1498767736"},"geometry":{"type":"Point","coordinates":[10.042006,53.555797]}},{"type":"Feature","properties":{"osm_id":"6079838036","station_name":"Hammer Kirche","element_type":"node","station_id":"6079838036"},"geometry":{"type":"Point","coordinates":[10.056324,53.555538]}},{"type":"Feature","properties":{"osm_id":"3197892916","station_name":"Rauhes Haus","element_type":"node","station_id":"3197892916"},"geometry":{"type":"Point","coordinates":[10.066043,53.554216]}},{"type":"Feature","properties":{"osm_id":"8117305625","station_name":"Horner Rennbahn","element_type":"node","station_id":"8117305625"},"geometry":{"type":"Point","coordinates":[10.084345,53.553748]}},{"type":"Feature","properties":{"osm_id":"244004764","station_name":"Legienstraße","element_type":"node","station_id":"244004764"},"geometry":{"type":"Point","coordinates":[10.095593,53.547337]}},{"type":"Feature","properties":{"osm_id":"156779345","station_name":"Billstedt","element_type":"node","station_id":"156779345"},"geometry":{"type":"Point","coordinates":[10.106935,53.542498]}},{"type":"Feature","properties":{"osm_id":"247743974","station_name":"Merkenstraße","element_type":"node","station_id":"1"},"geometry":{"type":"Point","coordinates":[10.12509,53.538609]}},{"type":"Feature","properties":{"osm_id":"247743978","station_name":"Steinfurther Allee","element_type":"node","station_id":"247743978"},"geometry":{"type":"Point","coordinates":[10.139214,53.541021]}},{"type":"Feature","properties":{"osm_id":"247743598","station_name":"Mümmelmannsberg","element_type":"node","station_id":"247743598"},"geometry":{"type":"Point","coordinates":[10.149928,53.528104]}},{"type":"Feature","properties":{"osm_id":"3707303136","station_name":"Pinneberg","element_type":"node","station_id":"2"},"geometry":{"type":"Point","coordinates":[9.798573,53.654724]}},{"type":"Feature","properties":{"osm_id":"3707303140","station_name":"Thesdorf","element_type":"node","station_id":"2"},"geometry":{"type":"Point","coordinates":[9.814407,53.643906]}},{"type":"Feature","properties":{"osm_id":"207028382","station_name":"Halstenbek","element_type":"node","station_id":"2"},"geometry":{"type":"Point","coordinates":[9.839036,53.630364]}},{"type":"Feature","properties":{"osm_id":"3707303134","station_name":"Krupunder","element_type":"node","station_id":"2"},"geometry":{"type":"Point","coordinates":[9.867721,53.615761]}},{"type":"Feature","properties":{"osm_id":"1242061223","station_name":"Aumühle","element_type":"node","station_id":"1242061223"},"geometry":{"type":"Point","coordinates":[10.314482,53.530031]}},{"type":"Feature","properties":{"osm_id":"3377293672","station_name":"Wohltorf","element_type":"node","station_id":"1"},"geometry":{"type":"Point","coordinates":[10.278027,53.520715]}},{"type":"Feature","properties":{"osm_id":"1242013091","station_name":"Reinbek","element_type":"node","station_id":"1"},"geometry":{"type":"Point","coordinates":[10.253571,53.508528]}},{"type":"Feature","properties":{"osm_id":"260550426","station_name":"Bergedorf","element_type":"node","station_id":"260550426"},"geometry":{"type":"Point","coordinates":[10.205778,53.489741]}},{"type":"Feature","properties":{"osm_id":"3377293661","station_name":"Nettelnburg","element_type":"node","station_id":"1"},"geometry":{"type":"Point","coordinates":[10.181103,53.488019]}},{"type":"Feature","properties":{"osm_id":"3377293663","station_name":"Allermöhe","element_type":"node","station_id":"1"},"geometry":{"type":"Point","coordinates":[10.159004,53.490408]}},{"type":"Feature","properties":{"osm_id":"3377293665","station_name":"Mittlerer Landweg","element_type":"node","station_id":"1"},"geometry":{"type":"Point","coordinates":[10.131159,53.498173]}},{"type":"Feature","properties":{"osm_id":"1241935686","station_name":"Billwerder-Moorfleet","element_type":"node","station_id":"1"},"geometry":{"type":"Point","coordinates":[10.096351,53.515958]}},{"type":"Feature","properties":{"osm_id":"3372114275","station_name":"Tiefstack","element_type":"node","station_id":"1"},"geometry":{"type":"Point","coordinates":[10.065559,53.531323]}},{"type":"Feature","properties":{"osm_id":"3372116389","station_name":"Rothenburgsort","element_type":"node","station_id":"1"},"geometry":{"type":"Point","coordinates":[10.044283,53.538429]}},{"type":"Feature","properties":{"osm_id":"2956937783","station_name":"Überseequartier","element_type":"node","station_id":"2956937783"},"geometry":{"type":"Point","coordinates":[9.99835,53.540341]}},{"type":"Feature","properties":{"osm_id":"2956940308","station_name":"HafenCity Universität","element_type":"node","station_id":"2956940308"},"geometry":{"type":"Point","coordinates":[10.007799,53.540494]}}]}