{"type":"FeatureCollection","generator":"metroOsmFetch (OpenStreetMap / Overpass, ODbL)","features":[{"type":"Feature","properties":{"route_company":"Hamburger Hochbahn","route_id":"U1","element_type":"way","color":"#006ab3","route_name":"U1: Großhansdorf => Norderstedt Mitte","osm_id":"62923","railway":"subway","status":"open"},"geometry":{"type":"LineString","coordinates":[[10.286936,53.662915],[10.280193,53.652867],[10.260183,53.653387],[10.242232,53.661301],[10.219316,53.664646],[10.18506,53.652956],[10.163172,53.650645],[10.155938,53.638646],[10.139916,53.627034],[10.129015,53.617708],[10.117779,53.607202],[10.102875,53.59843],[10.074204,53.592295],[10.064933,53.586192],[10.067918,53.58196],[10.066806,53.57169],[10.05884,53.569743],[10.046695,53.567659],[10.035435,53.564665],[10.028123,53.559442],[10.018699,53.556458],[10.007921,53.552701],[10.006226,53.549202],[10.0009,53.54765],[9.994138,53.55226],[9.989303,53.558743],[9.989044,53.573229],[9.988293,53.581591],[9.990755,53.58875],[9.995979,53.594911],[9.994651,53.599725],[10.011428,53.606351],[10.021866,53.60951],[10.031567,53.62062],[10.033209,53.628126],[10.026493,53.632564],[10.016671,53.639231],[10.017222,53.648925],[10.017485,53.660795],[10.01611,53.675026],[10.001813,53.678085],[9.986038,53.684478],[9.989599,53.695603],[9.99237,53.707887]]}},{"type":"Feature","properties":{"route_company":"S-Bahn Hamburg GmbH","route_id":"S1","element_type":"way","color":"#1a962b","route_name":"S1: Wedel => Poppenbüttel","osm_id":"1540437","railway":"light_rail","status":"open"},"geometry":{"type":"LineString","coordinates":[[9.705413,53.582151],[9.75778,53.583135],[9.797336,53.581128],[9.814343,53.576537],[9.815464,53.564597],[9.841551,53.561647],[9.861393,53.558215],[9.885436,53.559162],[9.91103,53.560055],[9.926574,53.559587],[9.934685,53.551869],[9.944135,53.547837],[9.957879,53.54962],[9.97113,53.546143],[9.985546,53.549139],[9.994138,53.55226],[10.007921,53.552701],[10.024435,53.553015],[10.03787,53.561169],[10.055391,53.564614],[10.05884,53.569743],[10.057394,53.576621],[10.044334,53.587304],[10.035416,53.597894],[10.033138,53.605848],[10.031567,53.62062],[10.054093,53.632426],[10.067708,53.635499],[10.082669,53.641206],[10.093992,53.651959]]}},{"type":"Feature","properties":{"route_company":"S-Bahn Hamburg GmbH","route_id":"S5","element_type":"way","color":"#0089bb","route_name":"S5: Elbgaustraße => Stade","osm_id":"61612","railway":"light_rail","status":"open"},"geometry":{"type":"LineString","coordinates":[[9.893403,53.602681],[9.907332,53.595693],[9.918135,53.589881],[9.930844,53.579659],[9.934272,53.568756],[9.949892,53.561714],[9.968245,53.563981],[9.989348,53.561153],[10.007921,53.552701],[10.023657,53.546601],[10.024428,53.535043],[10.013411,53.521716],[10.006852,53.498474],[9.991124,53.456985],[9.980456,53.460668],[9.96301,53.46547],[9.877483,53.473004],[9.852294,53.474039],[9.819241,53.474759],[9.788177,53.473027],[9.687514,53.470586],[9.63993,53.481166],[9.576876,53.508301],[9.558103,53.54534],[9.530713,53.564349],[9.478688,53.595791]]}},{"type":"Feature","properties":{"route_company":"Hamburger Hochbahn","route_id":"U3","element_type":"way","color":"#ffdd00","route_name":"U3: Barmbek => Wandsbek Gartenstadt","osm_id":"1643221","railway":"subway","status":"open"},"geometry":{"type":"LineString","coordinates":[[10.044334,53.587304],[10.031816,53.589101],[10.014456,53.590759],[10.001032,53.590387],[9.990755,53.58875],[9.985267,53.583773],[9.976105,53.57749],[9.969896,53.567858],[9.968245,53.563981],[9.968659,53.556921],[9.970085,53.550788],[9.97113,53.546143],[9.981631,53.544212],[9.985546,53.549139],[9.994138,53.55226],[10.001907,53.551275],[10.007921,53.552701],[10.024435,53.553015],[10.028123,53.559442],[10.026935,53.564409],[10.027477,53.569368],[10.037313,53.574483],[10.040815,53.578938],[10.044334,53.587304],[10.052642,53.593625],[10.074204,53.592295]]}},{"type":"Feature","properties":{"route_company":"Hamburger Hochbahn","route_id":"U2","element_type":"way","color":"#e2001a","route_name":"U2: Niendorf Nord => Mümmelmannsberg","osm_id":"60691","railway":"subway","status":"open"},"geometry":{"type":"LineString","coordinates":[[9.9499,53.641255],[9.952497,53.635318],[9.950308,53.628199],[9.951848,53.620478],[9.945364,53.604343],[9.944082,53.592484],[9.947621,53.581992],[9.951664,53.576163],[9.952623,53.571654],[9.962265,53.569548],[9.969896,53.567858],[9.976745,53.558053],[9.986043,53.555657],[9.994138,53.55226],[10.007921,53.552701],[10.024435,53.553015],[10.042006,53.555797],[10.056324,53.555538],[10.066043,53.554216],[10.084345,53.553748],[10.095593,53.547337],[10.107004,53.542538],[10.125082,53.538653],[10.139205,53.541039],[10.150022,53.528104]]}},{"type":"Feature","properties":{"route_company":"S-Bahn Hamburg GmbH","route_id":"S3","element_type":"way","color":"#622181","route_name":"S3: Pinneberg => Neugraben","osm_id":"1727354","railway":"light_rail","status":"open"},"geometry":{"type":"LineString","coordinates":[[9.798604,53.654735],[9.814487,53.643941],[9.839095,53.630408],[9.867773,53.615808],[9.893403,53.602681],[9.907332,53.595693],[9.918135,53.589881],[9.930844,53.579659],[9.934272,53.568756],[9.934685,53.551869],[9.944135,53.547837],[9.957879,53.54962],[9.97113,53.546143],[9.985546,53.549139],[9.994138,53.55226],[10.007921,53.552701],[10.023657,53.546601],[10.024428,53.535043],[10.013411,53.521716],[10.006852,53.498474],[9.991124,53.456985],[9.980456,53.460668],[9.96301,53.46547],[9.877483,53.473004],[9.852294,53.474039]]}},{"type":"Feature","properties":{"route_company":"S-Bahn Hamburg GmbH","route_id":"S7","element_type":"way","color":"#cc7720","route_name":"S7: Aumühle => Altona","osm_id":"20193389","railway":"light_rail","status":"open"},"geometry":{"type":"LineString","coordinates":[[10.314482,53.530031],[10.278098,53.520677],[10.25361,53.508475],[10.205853,53.489699],[10.181081,53.487965],[10.158985,53.490353],[10.131074,53.498141],[10.096268,53.515952],[10.065507,53.531284],[10.044231,53.538382],[10.024435,53.553015],[10.007921,53.552701],[9.994138,53.55226],[9.985546,53.549139],[9.97113,53.546143],[9.957879,53.54962],[9.944135,53.547837],[9.934685,53.551869]]}},{"type":"Feature","properties":{"route_company":"S-Bahn Hamburg GmbH","route_id":"S2","element_type":"way","color":"#b51143","route_name":"S2: Aumühle => Altona","osm_id":"2064636","railway":"light_rail","status":"open"},"geometry":{"type":"LineString","coordinates":[[10.314482,53.530031],[10.278098,53.520677],[10.25361,53.508475],[10.205853,53.489699],[10.181081,53.487965],[10.158985,53.490353],[10.131074,53.498141],[10.096268,53.515952],[10.065507,53.531284],[10.044231,53.538382],[10.024435,53.553015],[10.007921,53.552701],[9.989348,53.561153],[9.968245,53.563981],[9.949892,53.561714],[9.934685,53.551869]]}},{"type":"Feature","properties":{"route_company":"Hamburger Hochbahn","route_id":"U4","element_type":"way","color":"#256d7b","route_name":"U4: Billstedt => Elbbrücken","osm_id":"2390138","railway":"subway","status":"open"},"geometry":{"type":"LineString","coordinates":[[10.107004,53.542538],[10.095593,53.547337],[10.084345,53.553748],[10.066043,53.554216],[10.056324,53.555538],[10.042006,53.555797],[10.024435,53.553015],[10.007921,53.552701],[9.994138,53.55226],[9.998324,53.540407],[10.007814,53.540555],[10.024428,53.535043]]}},{"type":"Feature","properties":{"osm_id":"1374832865","station_name":"Großhansdorf","element_type":"node","station_id":"1374832865"},"geometry":{"type":"Point","coordinates":[10.286936,53.662915]}},{"type":"Feature","properties":{"osm_id":"1374832851","station_name":"Kiekut","element_type":"node","station_id":"1374832851"},"geometry":{"type":"Point","coordinates":[10.280193,53.652867]}},{"type":"Feature","properties":{"osm_id":"1374832863","station_name":"Schmalenbeck","element_type":"node","station_id":"1374832863"},"geometry":{"type":"Point","coordinates":[10.260183,53.653387]}},{"type":"Feature","properties":{"osm_id":"1374832864","station_name":"Ahrensburg Ost","element_type":"node","station_id":"1374832864"},"geometry":{"type":"Point","coordinates":[10.242232,53.661301]}},{"type":"Feature","properties":{"osm_id":"496848764","station_name":"Ahrensburg West","element_type":"node","station_id":"496848764"},"geometry":{"type":"Point","coordinates":[10.219316,53.664646]}},{"type":"Feature","properties":{"osm_id":"1374832858","station_name":"Buchenkamp","element_type":"node","station_id":"1374832858"},"geometry":{"type":"Point","coordinates":[10.18506,53.652956]}},{"type":"Feature","properties":{"osm_id":"1374832850","station_name":"Volksdorf","element_type":"node","station_id":"1374832850"},"geometry":{"type":"Point","coordinates":[10.163172,53.650645]}},{"type":"Feature","properties":{"osm_id":"1374832846","station_name":"Meiendorfer Weg","element_type":"node","station_id":"1374832846"},"geometry":{"type":"Point","coordinates":[10.155938,53.638646]}},{"type":"Feature","properties":{"osm_id":"1374832844","station_name":"Berne","element_type":"node","station_id":"1374832844"},"geometry":{"type":"Point","coordinates":[10.139916,53.627034]}},{"type":"Feature","properties":{"osm_id":"7044904112","station_name":"Oldenfelde","element_type":"node","station_id":"7044904112"},"geometry":{"type":"Point","coordinates":[10.129015,53.617708]}},{"type":"Feature","properties":{"osm_id":"541009458","station_name":"Farmsen","element_type":"node","station_id":"541009458"},"geometry":{"type":"Point","coordinates":[10.117779,53.607202]}},{"type":"Feature","properties":{"osm_id":"1374832831","station_name":"Trabrennbahn","element_type":"node","station_id":"1374832831"},"geometry":{"type":"Point","coordinates":[10.102875,53.59843]}},{"type":"Feature","properties":{"osm_id":"25295960","station_name":"Wandsbek-Gartenstadt","element_type":"node","station_id":"25295960"},"geometry":{"type":"Point","coordinates":[10.074204,53.592295]}},{"type":"Feature","properties":{"osm_id":"3033453630","station_name":"Alter Teichweg","element_type":"node","station_id":"3033453630"},"geometry":{"type":"Point","coordinates":[10.064933,53.586192]}},{"type":"Feature","properties":{"osm_id":"1229067980","station_name":"Straßburger Straße","element_type":"node","station_id":"1229067980"},"geometry":{"type":"Point","coordinates":[10.067918,53.58196]}},{"type":"Feature","properties":{"osm_id":"2881482262","station_name":"Wandsbek Markt","element_type":"node","station_id":"2881482262"},"geometry":{"type":"Point","coordinates":[10.066806,53.57169]}},{"type":"Feature","properties":{"osm_id":"1094105235","station_name":"Wandsbeker Chaussee","element_type":"node","station_id":"2"},"geometry":{"type":"Point","coordinates":[10.05884,53.569743]}},{"type":"Feature","properties":{"osm_id":"1145890665","station_name":"Ritterstraße","element_type":"node","station_id":"1145890665"},"geometry":{"type":"Point","coordinates":[10.046695,53.567659]}},{"type":"Feature","properties":{"osm_id":"260719522","station_name":"Wartenau","element_type":"node","station_id":"260719522"},"geometry":{"type":"Point","coordinates":[10.035435,53.564665]}},{"type":"Feature","properties":{"osm_id":"1374832819","station_name":"Lübecker Straße","element_type":"node","station_id":"1374832819"},"geometry":{"type":"Point","coordinates":[10.028123,53.559442]}},{"type":"Feature","properties":{"osm_id":"3021113861","station_name":"Lohmühlenstraße","element_type":"node","station_id":"3021113861"},"geometry":{"type":"Point","coordinates":[10.018699,53.556458]}},{"type":"Feature","properties":{"osm_id":"540999013","station_name":"Hamburg Hauptbahnhof","element_type":"node","station_id":"2"},"geometry":{"type":"Point","coordinates":[10.007921,53.552701]}},{"type":"Feature","properties":{"osm_id":"2582672506","station_name":"Steinstraße","element_type":"node","station_id":"2582672506"},"geometry":{"type":"Point","coordinates":[10.006226,53.549202]}},{"type":"Feature","properties":{"osm_id":"371189617","station_name":"Meßberg","element_type":"node","station_id":"371189617"},"geometry":{"type":"Point","coordinates":[10.0009,53.54765]}},{"type":"Feature","properties":{"osm_id":"4042431789","station_name":"Jungfernstieg","element_type":"node","station_id":"2"},"geometry":{"type":"Point","coordinates":[9.994138,53.55226]}},{"type":"Feature","properties":{"osm_id":"429211497","station_name":"Stephansplatz (Oper/CCH)","element_type":"node","station_id":"429211497"},"geometry":{"type":"Point","coordinates":[9.989303,53.558743]}},{"type":"Feature","properties":{"osm_id":"490567618","station_name":"Hallerstraße","element_type":"node","station_id":"490567618"},"geometry":{"type":"Point","coordinates":[9.989044,53.573229]}},{"type":"Feature","properties":{"osm_id":"251332112","station_name":"Klosterstern","element_type":"node","station_id":"251332112"},"geometry":{"type":"Point","coordinates":[9.988293,53.581591]}},{"type":"Feature","properties":{"osm_id":"7252932359","station_name":"Kellinghusenstraße","element_type":"node","station_id":"3"},"geometry":{"type":"Point","coordinates":[9.990755,53.58875]}},{"type":"Feature","properties":{"osm_id":"294524253","station_name":"Hudtwalckerstraße","element_type":"node","station_id":"294524253"},"geometry":{"type":"Point","coordinates":[9.995979,53.594911]}},{"type":"Feature","properties":{"osm_id":"4042444589","station_name":"Lattenkamp (Sporthalle)","element_type":"node","station_id":"4042444589"},"geometry":{"type":"Point","coordinates":[9.994651,53.599725]}},{"type":"Feature","properties":{"osm_id":"294516528","station_name":"Alsterdorf","element_type":"node","station_id":"294516528"},"geometry":{"type":"Point","coordinates":[10.011428,53.606351]}},{"type":"Feature","properties":{"osm_id":"294514901","station_name":"Sengelmannstraße (City Nord)","element_type":"node","station_id":"294514901"},"geometry":{"type":"Point","coordinates":[10.021866,53.60951]}},{"type":"Feature","properties":{"osm_id":"988664568","station_name":"Ohlsdorf","element_type":"node","station_id":"5"},"geometry":{"type":"Point","coordinates":[10.031567,53.62062]}},{"type":"Feature","properties":{"osm_id":"1012422128","station_name":"Klein Borstel","element_type":"node","station_id":"1012422128"},"geometry":{"type":"Point","coordinates":[10.033209,53.628126]}},{"type":"Feature","properties":{"osm_id":"1012408948","station_name":"Fuhlsbüttel","element_type":"node","station_id":"1012408948"},"geometry":{"type":"Point","coordinates":[10.026493,53.632564]}},{"type":"Feature","properties":{"osm_id":"1012086730","station_name":"Fuhlsbüttel Nord","element_type":"node","station_id":"1012086730"},"geometry":{"type":"Point","coordinates":[10.016671,53.639231]}},{"type":"Feature","properties":{"osm_id":"1012172616","station_name":"Langenhorn Markt","element_type":"node","station_id":"1012172616"},"geometry":{"type":"Point","coordinates":[10.017222,53.648925]}},{"type":"Feature","properties":{"osm_id":"1011199343","station_name":"Langenhorn Nord","element_type":"node","station_id":"1011199343"},"geometry":{"type":"Point","coordinates":[10.017485,53.660795]}},{"type":"Feature","properties":{"osm_id":"1006716774","station_name":"Kiwittsmoor","element_type":"node","station_id":"1006716774"},"geometry":{"type":"Point","coordinates":[10.01611,53.675026]}},{"type":"Feature","properties":{"osm_id":"247639972","station_name":"Ochsenzoll","element_type":"node","station_id":"247639972"},"geometry":{"type":"Point","coordinates":[10.001813,53.678085]}},{"type":"Feature","properties":{"osm_id":"1669874334","station_name":"Garstedt","element_type":"node","station_id":"1669874334"},"geometry":{"type":"Point","coordinates":[9.986038,53.684478]}},{"type":"Feature","properties":{"osm_id":"1374832877","station_name":"Richtweg","element_type":"node","station_id":"1374832877"},"geometry":{"type":"Point","coordinates":[9.989599,53.695603]}},{"type":"Feature","properties":{"osm_id":"250976987","station_name":"Norderstedt Mitte","element_type":"node","station_id":"250976987"},"geometry":{"type":"Point","coordinates":[9.99237,53.707887]}},{"type":"Feature","properties":{"osm_id":"68628693","station_name":"Wedel","element_type":"node","station_id":"2"},"geometry":{"type":"Point","coordinates":[9.705413,53.582151]}},{"type":"Feature","properties":{"osm_id":"68628767","station_name":"Rissen","element_type":"node","station_id":"68628767"},"geometry":{"type":"Point","coordinates":[9.75778,53.583135]}},{"type":"Feature","properties":{"osm_id":"3708943322","station_name":"Sülldorf","element_type":"node","station_id":"1"},"geometry":{"type":"Point","coordinates":[9.797336,53.581128]}},{"type":"Feature","properties":{"osm_id":"68651221","station_name":"Iserbrook","element_type":"node","station_id":"68651221"},"geometry":{"type":"Point","coordinates":[9.814343,53.576537]}},{"type":"Feature","properties":{"osm_id":"273959865","station_name":"Blankenese","element_type":"node","station_id":"2"},"geometry":{"type":"Point","coordinates":[9.815464,53.564597]}},{"type":"Feature","properties":{"osm_id":"1235197658","station_name":"Hochkamp","element_type":"node","station_id":"2"},"geometry":{"type":"Point","coordinates":[9.841551,53.561647]}},{"type":"Feature","properties":{"osm_id":"26600623","station_name":"Klein Flottbek (Botanischer Garten)","element_type":"node","station_id":"2"},"geometry":{"type":"Point","coordinates":[9.861393,53.558215]}},{"type":"Feature","properties":{"osm_id":"1281745186","station_name":"Othmarschen","element_type":"node","station_id":"1"},"geometry":{"type":"Point","coordinates":[9.885436,53.559162]}},{"type":"Feature","properties":{"osm_id":"26600615","station_name":"Bahrenfeld","element_type":"node","station_id":"1"},"geometry":{"type":"Point","coordinates":[9.91103,53.560055]}},{"type":"Feature","properties":{"osm_id":"10942031671","station_name":"Ottensen","element_type":"node","station_id":"1"},"geometry":{"type":"Point","coordinates":[9.926574,53.559587]}},{"type":"Feature","properties":{"osm_id":"535951138","station_name":"Hamburg-Altona","element_type":"node","station_id":"1"},"geometry":{"type":"Point","coordinates":[9.934685,53.551869]}},{"type":"Feature","properties":{"osm_id":"3480114466","station_name":"Königstraße","element_type":"node","station_id":"2"},"geometry":{"type":"Point","coordinates":[9.944135,53.547837]}},{"type":"Feature","properties":{"osm_id":"3480061011","station_name":"Reeperbahn","element_type":"node","station_id":"2"},"geometry":{"type":"Point","coordinates":[9.957879,53.54962]}},{"type":"Feature","properties":{"osm_id":"1283197478","station_name":"Landungsbrücken","element_type":"node","station_id":"2"},"geometry":{"type":"Point","coordinates":[9.97113,53.546143]}},{"type":"Feature","properties":{"osm_id":"3372126596","station_name":"Stadthausbrücke","element_type":"node","station_id":"2"},"geometry":{"type":"Point","coordinates":[9.985546,53.549139]}},{"type":"Feature","properties":{"osm_id":"534744853","station_name":"Berliner Tor","element_type":"node","station_id":"3"},"geometry":{"type":"Point","coordinates":[10.024435,53.553015]}},{"type":"Feature","properties":{"osm_id":"292334216","station_name":"Landwehr","element_type":"node","station_id":"2"},"geometry":{"type":"Point","coordinates":[10.03787,53.561169]}},{"type":"Feature","properties":{"osm_id":"25909272","station_name":"Hasselbrook","element_type":"node","station_id":"25909272"},"geometry":{"type":"Point","coordinates":[10.055391,53.564614]}},{"type":"Feature","properties":{"osm_id":"25909256","station_name":"Friedrichsberg","element_type":"node","station_id":"2"},"geometry":{"type":"Point","coordinates":[10.057394,53.576621]}},{"type":"Feature","properties":{"osm_id":"1139671822","station_name":"Barmbek","element_type":"node","station_id":"5"},"geometry":{"type":"Point","coordinates":[10.044334,53.587304]}},{"type":"Feature","properties":{"osm_id":"1359198027","station_name":"Alte Wöhr (Stadtpark)","element_type":"node","station_id":"2"},"geometry":{"type":"Point","coordinates":[10.035416,53.597894]}},{"type":"Feature","properties":{"osm_id":"1359198030","station_name":"Rübenkamp (City Nord)","element_type":"node","station_id":"2"},"geometry":{"type":"Point","coordinates":[10.033138,53.605848]}},{"type":"Feature","properties":{"osm_id":"292225159","station_name":"Kornweg (Klein Borstel)","element_type":"node","station_id":"292225159"},"geometry":{"type":"Point","coordinates":[10.054093,53.632426]}},{"type":"Feature","properties":{"osm_id":"292224638","station_name":"Hoheneichen","element_type":"node","station_id":"2"},"geometry":{"type":"Point","coordinates":[10.067708,53.635499]}},{"type":"Feature","properties":{"osm_id":"292222977","station_name":"Wellingsbüttel","element_type":"node","station_id":"2"},"geometry":{"type":"Point","coordinates":[10.082669,53.641206]}},{"type":"Feature","properties":{"osm_id":"292221034","station_name":"Poppenbüttel","element_type":"node","station_id":"1"},"geometry":{"type":"Point","coordinates":[10.093992,53.651959]}},{"type":"Feature","properties":{"osm_id":"3377293670","station_name":"Elbgaustraße","element_type":"node","station_id":"2"},"geometry":{"type":"Point","coordinates":[9.893403,53.602681]}},{"type":"Feature","properties":{"osm_id":"248847413","station_name":"Eidelstedt","element_type":"node","station_id":"2"},"geometry":{"type":"Point","coordinates":[9.907332,53.595693]}},{"type":"Feature","properties":{"osm_id":"280998653","station_name":"Stellingen","element_type":"node","station_id":"2"},"geometry":{"type":"Point","coordinates":[9.918135,53.589881]}},{"type":"Feature","properties":{"osm_id":"598842953","station_name":"Langenfelde","element_type":"node","station_id":"2"},"geometry":{"type":"Point","coordinates":[9.930844,53.579659]}},{"type":"Feature","properties":{"osm_id":"12809641957","station_name":"Diebsteich","element_type":"node","station_id":"2"},"geometry":{"type":"Point","coordinates":[9.934272,53.568756]}},{"type":"Feature","properties":{"osm_id":"1412279570","station_name":"Holstenstraße","element_type":"node","station_id":"2"},"geometry":{"type":"Point","coordinates":[9.949892,53.561714]}},{"type":"Feature","properties":{"osm_id":"452490016","station_name":"Sternschanze (Messe)","element_type":"node","station_id":"2"},"geometry":{"type":"Point","coordinates":[9.968245,53.563981]}},{"type":"Feature","properties":{"osm_id":"1412279569","station_name":"Dammtor (Messe/CCH)","element_type":"node","station_id":"1412279569"},"geometry":{"type":"Point","coordinates":[9.989348,53.561153]}},{"type":"Feature","properties":{"osm_id":"534744796","station_name":"Hammerbrook","element_type":"node","station_id":"2"},"geometry":{"type":"Point","coordinates":[10.023657,53.546601]}},{"type":"Feature","properties":{"osm_id":"5227886054","station_name":"Elbbrücken","element_type":"node","station_id":"2"},"geometry":{"type":"Point","coordinates":[10.024428,53.535043]}},{"type":"Feature","properties":{"osm_id":"10691210","station_name":"Veddel (Ballin Stadt)","element_type":"node","station_id":"2"},"geometry":{"type":"Point","coordinates":[10.013411,53.521716]}},{"type":"Feature","properties":{"osm_id":"345294491","station_name":"Wilhelmsburg","element_type":"node","station_id":"2"},"geometry":{"type":"Point","coordinates":[10.006852,53.498474]}},{"type":"Feature","properties":{"osm_id":"289402377","station_name":"Harburg","element_type":"node","station_id":"12"},"geometry":{"type":"Point","coordinates":[9.991124,53.456985]}},{"type":"Feature","properties":{"osm_id":"3707303128","station_name":"Harburg Rathaus","element_type":"node","station_id":"3"},"geometry":{"type":"Point","coordinates":[9.980456,53.460668]}},{"type":"Feature","properties":{"osm_id":"3707303130","station_name":"Heimfeld (TU Hamburg)","element_type":"node","station_id":"2"},"geometry":{"type":"Point","coordinates":[9.96301,53.46547]}},{"type":"Feature","properties":{"osm_id":"1329487159","station_name":"Neuwiedenthal","element_type":"node","station_id":"2"},"geometry":{"type":"Point","coordinates":[9.877483,53.473004]}},{"type":"Feature","properties":{"osm_id":"305430846","station_name":"Neugraben","element_type":"node","station_id":"3"},"geometry":{"type":"Point","coordinates":[9.852294,53.474039]}},{"type":"Feature","properties":{"osm_id":"158721845","station_name":"Fischbek","element_type":"node","station_id":"1"},"geometry":{"type":"Point","coordinates":[9.819241,53.474759]}},{"type":"Feature","properties":{"osm_id":"158721846","station_name":"Neu Wulmstorf","element_type":"node","station_id":"1"},"geometry":{"type":"Point","coordinates":[9.788177,53.473027]}},{"type":"Feature","properties":{"osm_id":"3707679193","station_name":"Buxtehude","element_type":"node","station_id":"3707679193"},"geometry":{"type":"Point","coordinates":[9.687514,53.470586]}},{"type":"Feature","properties":{"osm_id":"1458543978","station_name":"Neukloster","element_type":"node","station_id":"1458543978"},"geometry":{"type":"Point","coordinates":[9.63993,53.481166]}},{"type":"Feature","properties":{"osm_id":"3707303132","station_name":"Horneburg","element_type":"node","station_id":"3707303132"},"geometry":{"type":"Point","coordinates":[9.576876,53.508301]}},{"type":"Feature","properties":{"osm_id":"3707303024","station_name":"Dollern","element_type":"node","station_id":"3707303024"},"geometry":{"type":"Point","coordinates":[9.558103,53.54534]}},{"type":"Feature","properties":{"osm_id":"3707303022","station_name":"Agathenburg","element_type":"node","station_id":"3707303022"},"geometry":{"type":"Point","coordinates":[9.530713,53.564349]}},{"type":"Feature","properties":{"osm_id":"3771839071","station_name":"Stade","element_type":"node","station_id":"3771839071"},"geometry":{"type":"Point","coordinates":[9.478688,53.595791]}},{"type":"Feature","properties":{"osm_id":"294502035","station_name":"Saarlandstraße","element_type":"node","station_id":"294502035"},"geometry":{"type":"Point","coordinates":[10.031816,53.589101]}},{"type":"Feature","properties":{"osm_id":"1161743073","station_name":"Borgweg (Stadtpark)","element_type":"node","station_id":"1161743073"},"geometry":{"type":"Point","coordinates":[10.014456,53.590759]}},{"type":"Feature","properties":{"osm_id":"1161743079","station_name":"Sierichstraße","element_type":"node","station_id":"1161743079"},"geometry":{"type":"Point","coordinates":[10.001032,53.590387]}},{"type":"Feature","properties":{"osm_id":"621182594","station_name":"Eppendorfer Baum","element_type":"node","station_id":"621182594"},"geometry":{"type":"Point","coordinates":[9.985267,53.583773]}},{"type":"Feature","properties":{"osm_id":"3073828414","station_name":"Hoheluftbrücke","element_type":"node","station_id":"1"},"geometry":{"type":"Point","coordinates":[9.976105,53.57749]}},{"type":"Feature","properties":{"osm_id":"368592725","station_name":"Schlump","element_type":"node","station_id":"368592725"},"geometry":{"type":"Point","coordinates":[9.969896,53.567858]}},{"type":"Feature","properties":{"osm_id":"258202562","station_name":"Feldstraße (Heiligengeistfeld)","element_type":"node","station_id":"258202562"},"geometry":{"type":"Point","coordinates":[9.968659,53.556921]}},{"type":"Feature","properties":{"osm_id":"258201148","station_name":"St. Pauli","element_type":"node","station_id":"258201148"},"geometry":{"type":"Point","coordinates":[9.970085,53.550788]}},{"type":"Feature","properties":{"osm_id":"52144750","station_name":"Baumwall (Elbphilharmonie)","element_type":"node","station_id":"52144750"},"geometry":{"type":"Point","coordinates":[9.981631,53.544212]}},{"type":"Feature","properties":{"osm_id":"6900722098","station_name":"Mönckebergstraße","element_type":"node","station_id":"1"},"geometry":{"type":"Point","coordinates":[10.001907,53.551275]}},{"type":"Feature","properties":{"osm_id":"1447394403","station_name":"Uhlandstraße","element_type":"node","station_id":"1447394403"},"geometry":{"type":"Point","coordinates":[10.026935,53.564409]}},{"type":"Feature","properties":{"osm_id":"1447394142","station_name":"Mundsburg","element_type":"node","station_id":"1447394142"},"geometry":{"type":"Point","coordinates":[10.027477,53.569368]}},{"type":"Feature","properties":{"osm_id":"1447394135","station_name":"Hamburger Straße","element_type":"node","station_id":"1"},"geometry":{"type":"Point","coordinates":[10.037313,53.574483]}},{"type":"Feature","properties":{"osm_id":"1447394113","station_name":"Dehnhaide","element_type":"node","station_id":"1447394113"},"geometry":{"type":"Point","coordinates":[10.040815,53.578938]}},{"type":"Feature","properties":{"osm_id":"1158975332","station_name":"Habichtstraße","element_type":"node","station_id":"1158975332"},"geometry":{"type":"Point","coordinates":[10.052642,53.593625]}},{"type":"Feature","properties":{"osm_id":"6079838041","station_name":"Niendorf Nord","element_type":"node","station_id":"6079838041"},"geometry":{"type":"Point","coordinates":[9.9499,53.641255]}},{"type":"Feature","properties":{"osm_id":"4258215856","station_name":"Schippelsweg","element_type":"node","station_id":"4258215856"},"geometry":{"type":"Point","coordinates":[9.952497,53.635318]}},{"type":"Feature","properties":{"osm_id":"1944655596","station_name":"Joachim-Mähl-Straße","element_type":"node","station_id":"1944655596"},"geometry":{"type":"Point","coordinates":[9.950308,53.628199]}},{"type":"Feature","properties":{"osm_id":"6079838042","station_name":"Niendorf Markt","element_type":"node","station_id":"6079838042"},"geometry":{"type":"Point","coordinates":[9.951848,53.620478]}},{"type":"Feature","properties":{"osm_id":"4053151597","station_name":"Hagendeel","element_type":"node","station_id":"4053151597"},"geometry":{"type":"Point","coordinates":[9.945364,53.604343]}},{"type":"Feature","properties":{"osm_id":"1674326777","station_name":"Hagenbecks Tierpark","element_type":"node","station_id":"1674326777"},"geometry":{"type":"Point","coordinates":[9.944082,53.592484]}},{"type":"Feature","properties":{"osm_id":"3020689456","station_name":"Lutterothstraße","element_type":"node","station_id":"3020689456"},"geometry":{"type":"Point","coordinates":[9.947621,53.581992]}},{"type":"Feature","properties":{"osm_id":"2866350655","station_name":"Osterstraße","element_type":"node","station_id":"2866350655"},"geometry":{"type":"Point","coordinates":[9.951664,53.576163]}},{"type":"Feature","properties":{"osm_id":"258193279","station_name":"Emilienstraße","element_type":"node","station_id":"258193279"},"geometry":{"type":"Point","coordinates":[9.952623,53.571654]}},{"type":"Feature","properties":{"osm_id":"257805922","station_name":"Christuskirche","element_type":"node","station_id":"257805922"},"geometry":{"type":"Point","coordinates":[9.962265,53.569548]}},{"type":"Feature","properties":{"osm_id":"258193999","station_name":"Messehallen","element_type":"node","station_id":"258193999"},"geometry":{"type":"Point","coordinates":[9.976745,53.558053]}},{"type":"Feature","properties":{"osm_id":"2624289973","station_name":"Gänsemarkt (Oper)","element_type":"node","station_id":"2624289973"},"geometry":{"type":"Point","coordinates":[9.986043,53.555657]}},{"type":"Feature","properties":{"osm_id":"1498767736","station_name":"Burgstraße","element_type":"node","station_id":"1498767736"},"geometry":{"type":"Point","coordinates":[10.042006,53.555797]}},{"type":"Feature","properties":{"osm_id":"6079838036","station_name":"Hammer Kirche","element_type":"node","station_id":"6079838036"},"geometry":{"type":"Point","coordinates":[10.056324,53.555538]}},{"type":"Feature","properties":{"osm_id":"3197892916","station_name":"Rauhes Haus","element_type":"node","station_id":"3197892916"},"geometry":{"type":"Point","coordinates":[10.066043,53.554216]}},{"type":"Feature","properties":{"osm_id":"8117305625","station_name":"Horner Rennbahn","element_type":"node","station_id":"8117305625"},"geometry":{"type":"Point","coordinates":[10.084345,53.553748]}},{"type":"Feature","properties":{"osm_id":"244004764","station_name":"Legienstraße","element_type":"node","station_id":"244004764"},"geometry":{"type":"Point","coordinates":[10.095593,53.547337]}},{"type":"Feature","properties":{"osm_id":"156779345","station_name":"Billstedt","element_type":"node","station_id":"156779345"},"geometry":{"type":"Point","coordinates":[10.107004,53.542538]}},{"type":"Feature","properties":{"osm_id":"247743974","station_name":"Merkenstraße","element_type":"node","station_id":"1"},"geometry":{"type":"Point","coordinates":[10.125082,53.538653]}},{"type":"Feature","properties":{"osm_id":"247743978","station_name":"Steinfurther Allee","element_type":"node","station_id":"247743978"},"geometry":{"type":"Point","coordinates":[10.139205,53.541039]}},{"type":"Feature","properties":{"osm_id":"247743598","station_name":"Mümmelmannsberg","element_type":"node","station_id":"247743598"},"geometry":{"type":"Point","coordinates":[10.150022,53.528104]}},{"type":"Feature","properties":{"osm_id":"3707303136","station_name":"Pinneberg","element_type":"node","station_id":"2"},"geometry":{"type":"Point","coordinates":[9.798604,53.654735]}},{"type":"Feature","properties":{"osm_id":"3707303140","station_name":"Thesdorf","element_type":"node","station_id":"2"},"geometry":{"type":"Point","coordinates":[9.814487,53.643941]}},{"type":"Feature","properties":{"osm_id":"207028382","station_name":"Halstenbek","element_type":"node","station_id":"2"},"geometry":{"type":"Point","coordinates":[9.839095,53.630408]}},{"type":"Feature","properties":{"osm_id":"3707303134","station_name":"Krupunder","element_type":"node","station_id":"2"},"geometry":{"type":"Point","coordinates":[9.867773,53.615808]}},{"type":"Feature","properties":{"osm_id":"1242061223","station_name":"Aumühle","element_type":"node","station_id":"1242061223"},"geometry":{"type":"Point","coordinates":[10.314482,53.530031]}},{"type":"Feature","properties":{"osm_id":"3377293672","station_name":"Wohltorf","element_type":"node","station_id":"1"},"geometry":{"type":"Point","coordinates":[10.278098,53.520677]}},{"type":"Feature","properties":{"osm_id":"1242013091","station_name":"Reinbek","element_type":"node","station_id":"1"},"geometry":{"type":"Point","coordinates":[10.25361,53.508475]}},{"type":"Feature","properties":{"osm_id":"260550426","station_name":"Bergedorf","element_type":"node","station_id":"260550426"},"geometry":{"type":"Point","coordinates":[10.205853,53.489699]}},{"type":"Feature","properties":{"osm_id":"3377293661","station_name":"Nettelnburg","element_type":"node","station_id":"1"},"geometry":{"type":"Point","coordinates":[10.181081,53.487965]}},{"type":"Feature","properties":{"osm_id":"3377293663","station_name":"Allermöhe","element_type":"node","station_id":"1"},"geometry":{"type":"Point","coordinates":[10.158985,53.490353]}},{"type":"Feature","properties":{"osm_id":"3377293665","station_name":"Mittlerer Landweg","element_type":"node","station_id":"1"},"geometry":{"type":"Point","coordinates":[10.131074,53.498141]}},{"type":"Feature","properties":{"osm_id":"1241935686","station_name":"Billwerder-Moorfleet","element_type":"node","station_id":"1"},"geometry":{"type":"Point","coordinates":[10.096268,53.515952]}},{"type":"Feature","properties":{"osm_id":"3372114275","station_name":"Tiefstack","element_type":"node","station_id":"1"},"geometry":{"type":"Point","coordinates":[10.065507,53.531284]}},{"type":"Feature","properties":{"osm_id":"3372116389","station_name":"Rothenburgsort","element_type":"node","station_id":"1"},"geometry":{"type":"Point","coordinates":[10.044231,53.538382]}},{"type":"Feature","properties":{"osm_id":"2956937783","station_name":"Überseequartier","element_type":"node","station_id":"2956937783"},"geometry":{"type":"Point","coordinates":[9.998324,53.540407]}},{"type":"Feature","properties":{"osm_id":"2956940308","station_name":"HafenCity Universität","element_type":"node","station_id":"2956940308"},"geometry":{"type":"Point","coordinates":[10.007814,53.540555]}}]}