{"type":"FeatureCollection","generator":"metroOsmFetch (OpenStreetMap / Overpass, ODbL)","features":[{"type":"Feature","properties":{"route_company":"Hamburger Hochbahn","route_id":"U1","element_type":"way","color":"#006ab3","route_name":"U1: Großhansdorf => Norderstedt Mitte","osm_id":"62923","railway":"subway","status":"open"},"geometry":{"type":"LineString","coordinates":[[10.286936,53.662915],[10.280193,53.652867],[10.260183,53.653387],[10.242232,53.661301],[10.219316,53.664646],[10.18506,53.652956],[10.163172,53.650645],[10.155938,53.638646],[10.139916,53.627034],[10.129015,53.617708],[10.117779,53.607202],[10.102875,53.59843],[10.074204,53.592295],[10.064933,53.586192],[10.067918,53.58196],[10.066806,53.57169],[10.057657,53.569826],[10.046695,53.567659],[10.035435,53.564665],[10.028123,53.559442],[10.018699,53.556458],[10.009607,53.552094],[10.006226,53.549202],[10.0009,53.54765],[9.994447,53.552887],[9.989303,53.558743],[9.989044,53.573229],[9.988293,53.581591],[9.990755,53.58875],[9.995979,53.594911],[9.994651,53.599725],[10.011428,53.606351],[10.021866,53.60951],[10.031313,53.620492],[10.033209,53.628126],[10.026493,53.632564],[10.016671,53.639231],[10.017222,53.648925],[10.017485,53.660795],[10.01611,53.675026],[10.001813,53.678085],[9.986038,53.684478],[9.989599,53.695603],[9.99237,53.707887]]}},{"type":"Feature","properties":{"route_company":"Hamburger Hochbahn","route_id":"U3","element_type":"way","color":"#ffdd00","route_name":"U3: Barmbek => Wandsbek Gartenstadt","osm_id":"1643221","railway":"subway","status":"open"},"geometry":{"type":"LineString","coordinates":[[10.044331,53.587215],[10.031816,53.589101],[10.014456,53.590759],[10.001032,53.590387],[9.990755,53.58875],[9.985267,53.583773],[9.976105,53.57749],[9.969896,53.567858],[9.969215,53.564381],[9.968659,53.556921],[9.970085,53.550788],[9.971334,53.545862],[9.981631,53.544212],[9.986839,53.548156],[9.994047,53.550374],[10.001907,53.551275],[10.009607,53.552094],[10.023011,53.553362],[10.028123,53.559442],[10.026935,53.564409],[10.027477,53.569368],[10.037313,53.574483],[10.040815,53.578938],[10.044331,53.587215],[10.052642,53.593625],[10.074204,53.592295]]}},{"type":"Feature","properties":{"route_company":"Hamburger Hochbahn","route_id":"U2","element_type":"way","color":"#e2001a","route_name":"U2: Niendorf Nord => Mümmelmannsberg","osm_id":"60691","railway":"subway","status":"open"},"geometry":{"type":"LineString","coordinates":[[9.9499,53.641255],[9.952497,53.635318],[9.950308,53.628199],[9.951848,53.620478],[9.945364,53.604343],[9.944082,53.592484],[9.947621,53.581992],[9.951664,53.576163],[9.952623,53.571654],[9.962265,53.569548],[9.969896,53.567858],[9.976745,53.558053],[9.986043,53.555657],[9.994447,53.552887],[10.006183,53.554125],[10.023011,53.553362],[10.042006,53.555797],[10.056324,53.555538],[10.066043,53.554216],[10.084345,53.553748],[10.095593,53.547337],[10.107004,53.542538],[10.125082,53.538653],[10.139205,53.541039],[10.150022,53.528104]]}},{"type":"Feature","properties":{"route_company":"Hamburger Hochbahn","route_id":"U4","element_type":"way","color":"#256d7b","route_name":"U4: Billstedt => Elbbrücken","osm_id":"2390138","railway":"subway","status":"open"},"geometry":{"type":"LineString","coordinates":[[10.107004,53.542538],[10.095593,53.547337],[10.084345,53.553748],[10.066043,53.554216],[10.056324,53.555538],[10.042006,53.555797],[10.023011,53.553362],[10.006183,53.554125],[9.994447,53.552887],[9.998324,53.540407],[10.007814,53.540555],[10.023481,53.535168]]}},{"type":"Feature","properties":{"osm_id":"1374832865","station_name":"Großhansdorf","element_type":"node","station_id":"1374832865"},"geometry":{"type":"Point","coordinates":[10.286936,53.662915]}},{"type":"Feature","properties":{"osm_id":"1374832851","station_name":"Kiekut","element_type":"node","station_id":"1374832851"},"geometry":{"type":"Point","coordinates":[10.280193,53.652867]}},{"type":"Feature","properties":{"osm_id":"1374832863","station_name":"Schmalenbeck","element_type":"node","station_id":"1374832863"},"geometry":{"type":"Point","coordinates":[10.260183,53.653387]}},{"type":"Feature","properties":{"osm_id":"1374832864","station_name":"Ahrensburg Ost","element_type":"node","station_id":"1374832864"},"geometry":{"type":"Point","coordinates":[10.242232,53.661301]}},{"type":"Feature","properties":{"osm_id":"496848764","station_name":"Ahrensburg West","element_type":"node","station_id":"496848764"},"geometry":{"type":"Point","coordinates":[10.219316,53.664646]}},{"type":"Feature","properties":{"osm_id":"1374832858","station_name":"Buchenkamp","element_type":"node","station_id":"1374832858"},"geometry":{"type":"Point","coordinates":[10.18506,53.652956]}},{"type":"Feature","properties":{"osm_id":"1374832850","station_name":"Volksdorf","element_type":"node","station_id":"1374832850"},"geometry":{"type":"Point","coordinates":[10.163172,53.650645]}},{"type":"Feature","properties":{"osm_id":"1374832846","station_name":"Meiendorfer Weg","element_type":"node","station_id":"1374832846"},"geometry":{"type":"Point","coordinates":[10.155938,53.638646]}},{"type":"Feature","properties":{"osm_id":"1374832844","station_name":"Berne","element_type":"node","station_id":"1374832844"},"geometry":{"type":"Point","coordinates":[10.139916,53.627034]}},{"type":"Feature","properties":{"osm_id":"7044904112","station_name":"Oldenfelde","element_type":"node","station_id":"7044904112"},"geometry":{"type":"Point","coordinates":[10.129015,53.617708]}},{"type":"Feature","properties":{"osm_id":"541009458","station_name":"Farmsen","element_type":"node","station_id":"541009458"},"geometry":{"type":"Point","coordinates":[10.117779,53.607202]}},{"type":"Feature","properties":{"osm_id":"1374832831","station_name":"Trabrennbahn","element_type":"node","station_id":"1374832831"},"geometry":{"type":"Point","coordinates":[10.102875,53.59843]}},{"type":"Feature","properties":{"osm_id":"25295960","station_name":"Wandsbek-Gartenstadt","element_type":"node","station_id":"25295960"},"geometry":{"type":"Point","coordinates":[10.074204,53.592295]}},{"type":"Feature","properties":{"osm_id":"3033453630","station_name":"Alter Teichweg","element_type":"node","station_id":"3033453630"},"geometry":{"type":"Point","coordinates":[10.064933,53.586192]}},{"type":"Feature","properties":{"osm_id":"1229067980","station_name":"Straßburger Straße","element_type":"node","station_id":"1229067980"},"geometry":{"type":"Point","coordinates":[10.067918,53.58196]}},{"type":"Feature","properties":{"osm_id":"2881482262","station_name":"Wandsbek Markt","element_type":"node","station_id":"2881482262"},"geometry":{"type":"Point","coordinates":[10.066806,53.57169]}},{"type":"Feature","properties":{"osm_id":"1094105235","station_name":"Wandsbeker Chaussee","element_type":"node","station_id":"1094105235"},"geometry":{"type":"Point","coordinates":[10.057657,53.569826]}},{"type":"Feature","properties":{"osm_id":"1145890665","station_name":"Ritterstraße","element_type":"node","station_id":"1145890665"},"geometry":{"type":"Point","coordinates":[10.046695,53.567659]}},{"type":"Feature","properties":{"osm_id":"260719522","station_name":"Wartenau","element_type":"node","station_id":"260719522"},"geometry":{"type":"Point","coordinates":[10.035435,53.564665]}},{"type":"Feature","properties":{"osm_id":"1374832819","station_name":"Lübecker Straße","element_type":"node","station_id":"1374832819"},"geometry":{"type":"Point","coordinates":[10.028123,53.559442]}},{"type":"Feature","properties":{"osm_id":"3021113861","station_name":"Lohmühlenstraße","element_type":"node","station_id":"3021113861"},"geometry":{"type":"Point","coordinates":[10.018699,53.556458]}},{"type":"Feature","properties":{"osm_id":"540999013","station_name":"Hauptbahnhof Süd","element_type":"node","station_id":"2"},"geometry":{"type":"Point","coordinates":[10.009607,53.552094]}},{"type":"Feature","properties":{"osm_id":"2582672506","station_name":"Steinstraße","element_type":"node","station_id":"2582672506"},"geometry":{"type":"Point","coordinates":[10.006226,53.549202]}},{"type":"Feature","properties":{"osm_id":"371189617","station_name":"Meßberg","element_type":"node","station_id":"371189617"},"geometry":{"type":"Point","coordinates":[10.0009,53.54765]}},{"type":"Feature","properties":{"osm_id":"4042431789","station_name":"Jungfernstieg","element_type":"node","station_id":"4042431789"},"geometry":{"type":"Point","coordinates":[9.994447,53.552887]}},{"type":"Feature","properties":{"osm_id":"429211497","station_name":"Stephansplatz (Oper/CCH)","element_type":"node","station_id":"429211497"},"geometry":{"type":"Point","coordinates":[9.989303,53.558743]}},{"type":"Feature","properties":{"osm_id":"490567618","station_name":"Hallerstraße","element_type":"node","station_id":"490567618"},"geometry":{"type":"Point","coordinates":[9.989044,53.573229]}},{"type":"Feature","properties":{"osm_id":"251332112","station_name":"Klosterstern","element_type":"node","station_id":"251332112"},"geometry":{"type":"Point","coordinates":[9.988293,53.581591]}},{"type":"Feature","properties":{"osm_id":"7252932359","station_name":"Kellinghusenstraße","element_type":"node","station_id":"3"},"geometry":{"type":"Point","coordinates":[9.990755,53.58875]}},{"type":"Feature","properties":{"osm_id":"294524253","station_name":"Hudtwalckerstraße","element_type":"node","station_id":"294524253"},"geometry":{"type":"Point","coordinates":[9.995979,53.594911]}},{"type":"Feature","properties":{"osm_id":"4042444589","station_name":"Lattenkamp (Sporthalle)","element_type":"node","station_id":"4042444589"},"geometry":{"type":"Point","coordinates":[9.994651,53.599725]}},{"type":"Feature","properties":{"osm_id":"294516528","station_name":"Alsterdorf","element_type":"node","station_id":"294516528"},"geometry":{"type":"Point","coordinates":[10.011428,53.606351]}},{"type":"Feature","properties":{"osm_id":"294514901","station_name":"Sengelmannstraße (City Nord)","element_type":"node","station_id":"294514901"},"geometry":{"type":"Point","coordinates":[10.021866,53.60951]}},{"type":"Feature","properties":{"osm_id":"988664568","station_name":"Ohlsdorf","element_type":"node","station_id":"988664568"},"geometry":{"type":"Point","coordinates":[10.031313,53.620492]}},{"type":"Feature","properties":{"osm_id":"1012422128","station_name":"Klein Borstel","element_type":"node","station_id":"1012422128"},"geometry":{"type":"Point","coordinates":[10.033209,53.628126]}},{"type":"Feature","properties":{"osm_id":"1012408948","station_name":"Fuhlsbüttel","element_type":"node","station_id":"1012408948"},"geometry":{"type":"Point","coordinates":[10.026493,53.632564]}},{"type":"Feature","properties":{"osm_id":"1012086730","station_name":"Fuhlsbüttel Nord","element_type":"node","station_id":"1012086730"},"geometry":{"type":"Point","coordinates":[10.016671,53.639231]}},{"type":"Feature","properties":{"osm_id":"1012172616","station_name":"Langenhorn Markt","element_type":"node","station_id":"1012172616"},"geometry":{"type":"Point","coordinates":[10.017222,53.648925]}},{"type":"Feature","properties":{"osm_id":"1011199343","station_name":"Langenhorn Nord","element_type":"node","station_id":"1011199343"},"geometry":{"type":"Point","coordinates":[10.017485,53.660795]}},{"type":"Feature","properties":{"osm_id":"1006716774","station_name":"Kiwittsmoor","element_type":"node","station_id":"1006716774"},"geometry":{"type":"Point","coordinates":[10.01611,53.675026]}},{"type":"Feature","properties":{"osm_id":"247639972","station_name":"Ochsenzoll","element_type":"node","station_id":"247639972"},"geometry":{"type":"Point","coordinates":[10.001813,53.678085]}},{"type":"Feature","properties":{"osm_id":"1669874334","station_name":"Garstedt","element_type":"node","station_id":"1669874334"},"geometry":{"type":"Point","coordinates":[9.986038,53.684478]}},{"type":"Feature","properties":{"osm_id":"1374832877","station_name":"Richtweg","element_type":"node","station_id":"1374832877"},"geometry":{"type":"Point","coordinates":[9.989599,53.695603]}},{"type":"Feature","properties":{"osm_id":"250976987","station_name":"Norderstedt Mitte","element_type":"node","station_id":"250976987"},"geometry":{"type":"Point","coordinates":[9.99237,53.707887]}},{"type":"Feature","properties":{"osm_id":"403879374","station_name":"Barmbek","element_type":"node","station_id":"403879374"},"geometry":{"type":"Point","coordinates":[10.044331,53.587215]}},{"type":"Feature","properties":{"osm_id":"294502035","station_name":"Saarlandstraße","element_type":"node","station_id":"294502035"},"geometry":{"type":"Point","coordinates":[10.031816,53.589101]}},{"type":"Feature","properties":{"osm_id":"1161743073","station_name":"Borgweg (Stadtpark)","element_type":"node","station_id":"1161743073"},"geometry":{"type":"Point","coordinates":[10.014456,53.590759]}},{"type":"Feature","properties":{"osm_id":"1161743079","station_name":"Sierichstraße","element_type":"node","station_id":"1161743079"},"geometry":{"type":"Point","coordinates":[10.001032,53.590387]}},{"type":"Feature","properties":{"osm_id":"621182594","station_name":"Eppendorfer Baum","element_type":"node","station_id":"621182594"},"geometry":{"type":"Point","coordinates":[9.985267,53.583773]}},{"type":"Feature","properties":{"osm_id":"3073828414","station_name":"Hoheluftbrücke","element_type":"node","station_id":"1"},"geometry":{"type":"Point","coordinates":[9.976105,53.57749]}},{"type":"Feature","properties":{"osm_id":"368592725","station_name":"Schlump","element_type":"node","station_id":"368592725"},"geometry":{"type":"Point","coordinates":[9.969896,53.567858]}},{"type":"Feature","properties":{"osm_id":"251292685","station_name":"Sternschanze (Messe)","element_type":"node","station_id":"251292685"},"geometry":{"type":"Point","coordinates":[9.969215,53.564381]}},{"type":"Feature","properties":{"osm_id":"258202562","station_name":"Feldstraße (Heiligengeistfeld)","element_type":"node","station_id":"258202562"},"geometry":{"type":"Point","coordinates":[9.968659,53.556921]}},{"type":"Feature","properties":{"osm_id":"258201148","station_name":"St. Pauli","element_type":"node","station_id":"258201148"},"geometry":{"type":"Point","coordinates":[9.970085,53.550788]}},{"type":"Feature","properties":{"osm_id":"3372142095","station_name":"Landungsbrücken","element_type":"node","station_id":"3372142095"},"geometry":{"type":"Point","coordinates":[9.971334,53.545862]}},{"type":"Feature","properties":{"osm_id":"52144750","station_name":"Baumwall (Elbphilharmonie)","element_type":"node","station_id":"52144750"},"geometry":{"type":"Point","coordinates":[9.981631,53.544212]}},{"type":"Feature","properties":{"osm_id":"60270009","station_name":"Rödingsmarkt","element_type":"node","station_id":"60270009"},"geometry":{"type":"Point","coordinates":[9.986839,53.548156]}},{"type":"Feature","properties":{"osm_id":"301639322","station_name":"Rathaus","element_type":"node","station_id":"301639322"},"geometry":{"type":"Point","coordinates":[9.994047,53.550374]}},{"type":"Feature","properties":{"osm_id":"6900722098","station_name":"Mönckebergstraße","element_type":"node","station_id":"1"},"geometry":{"type":"Point","coordinates":[10.001907,53.551275]}},{"type":"Feature","properties":{"osm_id":"540999089","station_name":"Berliner Tor","element_type":"node","station_id":"1"},"geometry":{"type":"Point","coordinates":[10.023011,53.553362]}},{"type":"Feature","properties":{"osm_id":"1447394403","station_name":"Uhlandstraße","element_type":"node","station_id":"1447394403"},"geometry":{"type":"Point","coordinates":[10.026935,53.564409]}},{"type":"Feature","properties":{"osm_id":"1447394142","station_name":"Mundsburg","element_type":"node","station_id":"1447394142"},"geometry":{"type":"Point","coordinates":[10.027477,53.569368]}},{"type":"Feature","properties":{"osm_id":"1447394135","station_name":"Hamburger Straße","element_type":"node","station_id":"1"},"geometry":{"type":"Point","coordinates":[10.037313,53.574483]}},{"type":"Feature","properties":{"osm_id":"1447394113","station_name":"Dehnhaide","element_type":"node","station_id":"1447394113"},"geometry":{"type":"Point","coordinates":[10.040815,53.578938]}},{"type":"Feature","properties":{"osm_id":"1158975332","station_name":"Habichtstraße","element_type":"node","station_id":"1158975332"},"geometry":{"type":"Point","coordinates":[10.052642,53.593625]}},{"type":"Feature","properties":{"osm_id":"6079838041","station_name":"Niendorf Nord","element_type":"node","station_id":"6079838041"},"geometry":{"type":"Point","coordinates":[9.9499,53.641255]}},{"type":"Feature","properties":{"osm_id":"4258215856","station_name":"Schippelsweg","element_type":"node","station_id":"4258215856"},"geometry":{"type":"Point","coordinates":[9.952497,53.635318]}},{"type":"Feature","properties":{"osm_id":"1944655596","station_name":"Joachim-Mähl-Straße","element_type":"node","station_id":"1944655596"},"geometry":{"type":"Point","coordinates":[9.950308,53.628199]}},{"type":"Feature","properties":{"osm_id":"6079838042","station_name":"Niendorf Markt","element_type":"node","station_id":"6079838042"},"geometry":{"type":"Point","coordinates":[9.951848,53.620478]}},{"type":"Feature","properties":{"osm_id":"4053151597","station_name":"Hagendeel","element_type":"node","station_id":"4053151597"},"geometry":{"type":"Point","coordinates":[9.945364,53.604343]}},{"type":"Feature","properties":{"osm_id":"1674326777","station_name":"Hagenbecks Tierpark","element_type":"node","station_id":"1674326777"},"geometry":{"type":"Point","coordinates":[9.944082,53.592484]}},{"type":"Feature","properties":{"osm_id":"3020689456","station_name":"Lutterothstraße","element_type":"node","station_id":"3020689456"},"geometry":{"type":"Point","coordinates":[9.947621,53.581992]}},{"type":"Feature","properties":{"osm_id":"2866350655","station_name":"Osterstraße","element_type":"node","station_id":"2866350655"},"geometry":{"type":"Point","coordinates":[9.951664,53.576163]}},{"type":"Feature","properties":{"osm_id":"258193279","station_name":"Emilienstraße","element_type":"node","station_id":"258193279"},"geometry":{"type":"Point","coordinates":[9.952623,53.571654]}},{"type":"Feature","properties":{"osm_id":"257805922","station_name":"Christuskirche","element_type":"node","station_id":"257805922"},"geometry":{"type":"Point","coordinates":[9.962265,53.569548]}},{"type":"Feature","properties":{"osm_id":"258193999","station_name":"Messehallen","element_type":"node","station_id":"258193999"},"geometry":{"type":"Point","coordinates":[9.976745,53.558053]}},{"type":"Feature","properties":{"osm_id":"2624289973","station_name":"Gänsemarkt (Oper)","element_type":"node","station_id":"2624289973"},"geometry":{"type":"Point","coordinates":[9.986043,53.555657]}},{"type":"Feature","properties":{"osm_id":"4290856990","station_name":"Hauptbahnhof Nord","element_type":"node","station_id":"4290856990"},"geometry":{"type":"Point","coordinates":[10.006183,53.554125]}},{"type":"Feature","properties":{"osm_id":"1498767736","station_name":"Burgstraße","element_type":"node","station_id":"1498767736"},"geometry":{"type":"Point","coordinates":[10.042006,53.555797]}},{"type":"Feature","properties":{"osm_id":"6079838036","station_name":"Hammer Kirche","element_type":"node","station_id":"6079838036"},"geometry":{"type":"Point","coordinates":[10.056324,53.555538]}},{"type":"Feature","properties":{"osm_id":"3197892916","station_name":"Rauhes Haus","element_type":"node","station_id":"3197892916"},"geometry":{"type":"Point","coordinates":[10.066043,53.554216]}},{"type":"Feature","properties":{"osm_id":"8117305625","station_name":"Horner Rennbahn","element_type":"node","station_id":"8117305625"},"geometry":{"type":"Point","coordinates":[10.084345,53.553748]}},{"type":"Feature","properties":{"osm_id":"244004764","station_name":"Legienstraße","element_type":"node","station_id":"244004764"},"geometry":{"type":"Point","coordinates":[10.095593,53.547337]}},{"type":"Feature","properties":{"osm_id":"156779345","station_name":"Billstedt","element_type":"node","station_id":"156779345"},"geometry":{"type":"Point","coordinates":[10.107004,53.542538]}},{"type":"Feature","properties":{"osm_id":"247743974","station_name":"Merkenstraße","element_type":"node","station_id":"1"},"geometry":{"type":"Point","coordinates":[10.125082,53.538653]}},{"type":"Feature","properties":{"osm_id":"247743978","station_name":"Steinfurther Allee","element_type":"node","station_id":"247743978"},"geometry":{"type":"Point","coordinates":[10.139205,53.541039]}},{"type":"Feature","properties":{"osm_id":"247743598","station_name":"Mümmelmannsberg","element_type":"node","station_id":"247743598"},"geometry":{"type":"Point","coordinates":[10.150022,53.528104]}},{"type":"Feature","properties":{"osm_id":"2956937783","station_name":"Überseequartier","element_type":"node","station_id":"2956937783"},"geometry":{"type":"Point","coordinates":[9.998324,53.540407]}},{"type":"Feature","properties":{"osm_id":"2956940308","station_name":"HafenCity Universität","element_type":"node","station_id":"2956940308"},"geometry":{"type":"Point","coordinates":[10.007814,53.540555]}},{"type":"Feature","properties":{"osm_id":"6055658161","station_name":"Elbbrücken","element_type":"node","station_id":"6055658161"},"geometry":{"type":"Point","coordinates":[10.023481,53.535168]}}]}