{"type":"FeatureCollection","generator":"metroOsmFetch (OpenStreetMap / Overpass, ODbL)","features":[{"type":"Feature","properties":{"osm_id":"7723703874","station_name":"桂莎白沙羅","element_type":"node","station_id":"PY01"},"geometry":{"type":"Point","coordinates":[101.572397,3.176369]}},{"type":"Feature","properties":{"osm_id":"7722393676","station_name":"Kampung Selamat","element_type":"node","station_id":"PY03"},"geometry":{"type":"Point","coordinates":[101.578406,3.197161]}},{"type":"Feature","properties":{"osm_id":"5659819843","station_name":"雙溪毛糯（捷運）","element_type":"node","station_id":"PY04"},"geometry":{"type":"Point","coordinates":[101.581747,3.206304]}},{"type":"Feature","properties":{"osm_id":"9849592619","station_name":"白沙羅達邁","element_type":"node","station_id":"PY05"},"geometry":{"type":"Point","coordinates":[101.592905,3.19976]}},{"type":"Feature","properties":{"osm_id":"7723739292","station_name":"斯里白沙羅西","element_type":"node","station_id":"PY06"},"geometry":{"type":"Point","coordinates":[101.608408,3.19823]}},{"type":"Feature","properties":{"osm_id":"7723739344","station_name":"斯里白沙羅中心","element_type":"node","station_id":"PY07"},"geometry":{"type":"Point","coordinates":[101.62114,3.198565]}},{"type":"Feature","properties":{"osm_id":"9849953872","station_name":"斯里白沙羅東","element_type":"node","station_id":"PY08"},"geometry":{"type":"Point","coordinates":[101.628605,3.207628]}},{"type":"Feature","properties":{"osm_id":"9849953874","station_name":"美娜園","element_type":"node","station_id":"PY09"},"geometry":{"type":"Point","coordinates":[101.640389,3.214526]}},{"type":"Feature","properties":{"osm_id":"9833371330","station_name":"甲洞衛星市","element_type":"node","station_id":"PY10"},"geometry":{"type":"Point","coordinates":[101.648173,3.211681]}},{"type":"Feature","properties":{"osm_id":"9833287692","station_name":"增江","element_type":"node","station_id":"PY11"},"geometry":{"type":"Point","coordinates":[101.655921,3.209547]}},{"type":"Feature","properties":{"osm_id":"9833287690","station_name":"斯里德里瑪","element_type":"node","station_id":"PY12"},"geometry":{"type":"Point","coordinates":[101.665585,3.207187]}},{"type":"Feature","properties":{"osm_id":"9755011840","station_name":"甘榜峇都（捷運）","element_type":"node","station_id":"PY13"},"geometry":{"type":"Point","coordinates":[101.675276,3.205838]}},{"type":"Feature","properties":{"osm_id":"9755011836","station_name":"肯都門","element_type":"node","station_id":"PY14"},"geometry":{"type":"Point","coordinates":[101.67964,3.195331]}},{"type":"Feature","properties":{"osm_id":"9755011838","station_name":"怡保路","element_type":"node","station_id":"PY15"},"geometry":{"type":"Point","coordinates":[101.681106,3.189415]}},{"type":"Feature","properties":{"osm_id":"10211729839","station_name":"冼都西","element_type":"node","station_id":"PY16"},"geometry":{"type":"Point","coordinates":[101.685202,3.178763]}},{"type":"Feature","properties":{"osm_id":"10211729841","station_name":"蒂蒂旺沙（捷运）","element_type":"node","station_id":"PY17"},"geometry":{"type":"Point","coordinates":[101.696182,3.173928]}},{"type":"Feature","properties":{"osm_id":"10211729843","station_name":"吉隆坡醫院","element_type":"node","station_id":"PY18"},"geometry":{"type":"Point","coordinates":[101.701732,3.174024]}},{"type":"Feature","properties":{"osm_id":"10211729845","station_name":"拉惹烏達","element_type":"node","station_id":"PY19"},"geometry":{"type":"Point","coordinates":[101.710931,3.167867]}},{"type":"Feature","properties":{"osm_id":"10211729846","station_name":"安邦購物中心","element_type":"node","station_id":"PY20"},"geometry":{"type":"Point","coordinates":[101.718009,3.161742]}},{"type":"Feature","properties":{"osm_id":"7724226582","station_name":"城中城道","element_type":"node","station_id":"PY21"},"geometry":{"type":"Point","coordinates":[101.718222,3.156804]}},{"type":"Feature","properties":{"osm_id":"10211729850","station_name":"康萊","element_type":"node","station_id":"PY22"},"geometry":{"type":"Point","coordinates":[101.718423,3.150639]}},{"type":"Feature","properties":{"osm_id":"10132470682","station_name":"敦拉薩國際貿易中心","element_type":"node","station_id":"PY23"},"geometry":{"type":"Point","coordinates":[101.719953,3.142884]}},{"type":"Feature","properties":{"osm_id":"10211729852","station_name":"陳秀連","element_type":"node","station_id":"PY24"},"geometry":{"type":"Point","coordinates":[101.716563,3.128329]}},{"type":"Feature","properties":{"osm_id":"10211729854","station_name":"古仔","element_type":"node","station_id":"PY27"},"geometry":{"type":"Point","coordinates":[101.694102,3.08959]}},{"type":"Feature","properties":{"osm_id":"10211729856","station_name":"金龍園","element_type":"node","station_id":"PY28"},"geometry":{"type":"Point","coordinates":[101.699544,3.077724]}},{"type":"Feature","properties":{"osm_id":"10211729858","station_name":"新街場","element_type":"node","station_id":"PY29"},"geometry":{"type":"Point","coordinates":[101.708403,3.063845]}},{"type":"Feature","properties":{"osm_id":"10211729860","station_name":"沙登拉也北","element_type":"node","station_id":"PY31"},"geometry":{"type":"Point","coordinates":[101.704935,3.041711]}},{"type":"Feature","properties":{"osm_id":"7725136738","station_name":"沙登拉也南","element_type":"node","station_id":"PY32"},"geometry":{"type":"Point","coordinates":[101.707509,3.028476]}},{"type":"Feature","properties":{"osm_id":"10211729870","station_name":"沙登再也","element_type":"node","station_id":"PY33"},"geometry":{"type":"Point","coordinates":[101.708944,3.021537]}},{"type":"Feature","properties":{"osm_id":"10211729872","station_name":"博特拉大學","element_type":"node","station_id":"PY34"},"geometry":{"type":"Point","coordinates":[101.705392,3.008508]}},{"type":"Feature","properties":{"osm_id":"10211729874","station_name":"怡觀園","element_type":"node","station_id":"PY36"},"geometry":{"type":"Point","coordinates":[101.672593,2.989351]}},{"type":"Feature","properties":{"osm_id":"10211729876","station_name":"布特拉柏邁路","element_type":"node","station_id":"PY37"},"geometry":{"type":"Point","coordinates":[101.660579,2.983111]}},{"type":"Feature","properties":{"osm_id":"10211729878","station_name":"16嶺","element_type":"node","station_id":"PY38"},"geometry":{"type":"Point","coordinates":[101.654866,2.96525]}},{"type":"Feature","properties":{"osm_id":"10211729880","station_name":"賽城北","element_type":"node","station_id":"PY39"},"geometry":{"type":"Point","coordinates":[101.657498,2.949225]}},{"type":"Feature","properties":{"osm_id":"7932664086","station_name":"賽城市中心","element_type":"node","station_id":"PY40"},"geometry":{"type":"Point","coordinates":[101.665664,2.938894]}},{"type":"Feature","properties":{"osm_id":"10211729882","station_name":"布城中央車站","element_type":"node","station_id":"PY41"},"geometry":{"type":"Point","coordinates":[101.671466,2.931388]}},{"type":"Feature","properties":{"osm_id":"7723703872","station_name":"桂莎中央","element_type":"node","station_id":"KG05"},"geometry":{"type":"Point","coordinates":[101.564843,3.169871]}},{"type":"Feature","properties":{"osm_id":"7727312789","station_name":"哥打白沙羅","element_type":"node","station_id":"KG06"},"geometry":{"type":"Point","coordinates":[101.578693,3.150203]}},{"type":"Feature","properties":{"osm_id":"7727312788","station_name":"蘇麗雅","element_type":"node","station_id":"KG07"},"geometry":{"type":"Point","coordinates":[101.593656,3.149652]}},{"type":"Feature","properties":{"osm_id":"7727312842","station_name":"Mutiara Damansara","element_type":"node","station_id":"KG08"},"geometry":{"type":"Point","coordinates":[101.608736,3.155199]}},{"type":"Feature","properties":{"osm_id":"7727312862","station_name":"萬達鎮","element_type":"node","station_id":"KG09"},"geometry":{"type":"Point","coordinates":[101.618763,3.146705]}},{"type":"Feature","properties":{"osm_id":"7727312912","station_name":"敦依斯邁花園","element_type":"node","station_id":"KG10"},"geometry":{"type":"Point","coordinates":[101.630788,3.13607]}},{"type":"Feature","properties":{"osm_id":"4560707931","station_name":"菲利歐白沙羅","element_type":"node","station_id":"KG12"},"geometry":{"type":"Point","coordinates":[101.642919,3.129236]}},{"type":"Feature","properties":{"osm_id":"4560707932","station_name":"白沙羅市中心","element_type":"node","station_id":"KG13"},"geometry":{"type":"Point","coordinates":[101.662339,3.143285]}},{"type":"Feature","properties":{"osm_id":"4555795928","station_name":"士曼丹","element_type":"node","station_id":"KG14"},"geometry":{"type":"Point","coordinates":[101.66533,3.150953]}},{"type":"Feature","properties":{"osm_id":"4658799653","station_name":"國家博物館","element_type":"node","station_id":"KG15"},"geometry":{"type":"Point","coordinates":[101.687368,3.137121]}},{"type":"Feature","properties":{"osm_id":"4658799652","station_name":"中央藝術坊","element_type":"node","station_id":"KG16"},"geometry":{"type":"Point","coordinates":[101.696363,3.142399]}},{"type":"Feature","properties":{"osm_id":"4650900225","station_name":"默迪卡","element_type":"node","station_id":"KG17"},"geometry":{"type":"Point","coordinates":[101.702239,3.142118]}},{"type":"Feature","properties":{"osm_id":"7737907035","station_name":"武吉免登（捷運）","element_type":"node","station_id":"KG18A"},"geometry":{"type":"Point","coordinates":[101.711239,3.146289]}},{"type":"Feature","properties":{"osm_id":"7737907037","station_name":"葛京","element_type":"node","station_id":"KG21"},"geometry":{"type":"Point","coordinates":[101.723085,3.132366]}},{"type":"Feature","properties":{"osm_id":"7737907040","station_name":"馬魯裡","element_type":"node","station_id":"KG22"},"geometry":{"type":"Point","coordinates":[101.727194,3.124644]}},{"type":"Feature","properties":{"osm_id":"7737907093","station_name":"第一花園","element_type":"node","station_id":"KG23"},"geometry":{"type":"Point","coordinates":[101.72932,3.112644]}},{"type":"Feature","properties":{"osm_id":"3857515109","station_name":"美達花園","element_type":"node","station_id":"SBK24"},"geometry":{"type":"Point","coordinates":[101.732271,3.104356]}},{"type":"Feature","properties":{"osm_id":"5469085479","station_name":"珍珠花園","element_type":"node","station_id":"KG25"},"geometry":{"type":"Point","coordinates":[101.740316,3.091386]}},{"type":"Feature","properties":{"osm_id":"5469085480","station_name":"康樂花園","element_type":"node","station_id":"KG26"},"geometry":{"type":"Point","coordinates":[101.74514,3.079191]}},{"type":"Feature","properties":{"osm_id":"5469085481","station_name":"山力花園","element_type":"node","station_id":"SBK27"},"geometry":{"type":"Point","coordinates":[101.763497,3.071602]}},{"type":"Feature","properties":{"osm_id":"5469085482","station_name":"斯里拉也","element_type":"node","station_id":"SBK28"},"geometry":{"type":"Point","coordinates":[101.772978,3.062174]}},{"type":"Feature","properties":{"osm_id":"5469085496","station_name":"敦胡先翁鎮","element_type":"node","station_id":"SBK29"},"geometry":{"type":"Point","coordinates":[101.775016,3.048375]}},{"type":"Feature","properties":{"osm_id":"5469085497","station_name":"蕉賴十一哩","element_type":"node","station_id":"SBK30"},"geometry":{"type":"Point","coordinates":[101.773368,3.041335]}},{"type":"Feature","properties":{"osm_id":"5397463176","station_name":"武吉杜蓊","element_type":"node","station_id":"SBK31"},"geometry":{"type":"Point","coordinates":[101.771106,3.02644]}},{"type":"Feature","properties":{"osm_id":"7738029302","station_name":"雙溪遮內","element_type":"node","station_id":"SBK33"},"geometry":{"type":"Point","coordinates":[101.784103,3.000813]}},{"type":"Feature","properties":{"osm_id":"7738029347","station_name":"加影體育場","element_type":"node","station_id":"SBK34"},"geometry":{"type":"Point","coordinates":[101.786234,2.9941]}},{"type":"Feature","properties":{"osm_id":"5249698028","station_name":"加影（捷運）","element_type":"node","station_id":"KG35"},"geometry":{"type":"Point","coordinates":[101.790321,2.983144]}},{"type":"Feature","properties":{"osm_id":"28930737","station_name":"吉隆坡中央（單軌）","element_type":"node","station_id":"MR1"},"geometry":{"type":"Point","coordinates":[101.687898,3.132682]}},{"type":"Feature","properties":{"osm_id":"1993254082","station_name":"敦善班丹","element_type":"node","station_id":"MR2"},"geometry":{"type":"Point","coordinates":[101.690875,3.131447]}},{"type":"Feature","properties":{"osm_id":"264907051","station_name":"馬哈拉惹里拉","element_type":"node","station_id":"MR3"},"geometry":{"type":"Point","coordinates":[101.699189,3.138935]}},{"type":"Feature","properties":{"osm_id":"665155505","station_name":"漢都亞","element_type":"node","station_id":"MR4"},"geometry":{"type":"Point","coordinates":[101.706034,3.140678]}},{"type":"Feature","properties":{"osm_id":"264907059","station_name":"燕美","element_type":"node","station_id":"MR5"},"geometry":{"type":"Point","coordinates":[101.709449,3.142796]}},{"type":"Feature","properties":{"osm_id":"5506071117","station_name":"拉惹朱蘭","element_type":"node","station_id":"MR7"},"geometry":{"type":"Point","coordinates":[101.710432,3.150834]}},{"type":"Feature","properties":{"osm_id":"5506071116","station_name":"咖啡山","element_type":"node","station_id":"MR8"},"geometry":{"type":"Point","coordinates":[101.704842,3.156145]}},{"type":"Feature","properties":{"osm_id":"5505950907","station_name":"美丹端姑","element_type":"node","station_id":"MR9"},"geometry":{"type":"Point","coordinates":[101.6989,3.159267]}},{"type":"Feature","properties":{"osm_id":"3478428865","station_name":"秋傑","element_type":"node","station_id":"MR10"},"geometry":{"type":"Point","coordinates":[101.698402,3.167393]}},{"type":"Feature","properties":{"route_company":"Rapid Rail","route_id":"12","element_type":"way","color":"#ffcc00","route_name":"Laluan Putrajaya (Putrajaya Sentral → Kwasa Damansara)","osm_id":"11313577","railway":"subway","status":"open"},"geometry":{"type":"LineString","coordinates":[[101.572397,3.176369],[101.578406,3.197161],[101.581747,3.206304],[101.592905,3.19976],[101.608408,3.19823],[101.62114,3.198565],[101.628605,3.207628],[101.640389,3.214526],[101.648173,3.211681],[101.655921,3.209547],[101.665585,3.207187],[101.675276,3.205838],[101.67964,3.195331],[101.681106,3.189415],[101.685202,3.178763],[101.696182,3.173928]]}},{"type":"Feature","properties":{"route_company":"Rapid Rail","route_id":"12","element_type":"way","color":"#ffcc00","route_name":"Laluan Putrajaya (Putrajaya Sentral → Kwasa Damansara)","osm_id":"11313577","railway":"subway","status":"open"},"geometry":{"type":"LineString","coordinates":[[101.696182,3.173928],[101.701732,3.174024],[101.710931,3.167867],[101.718009,3.161742],[101.718222,3.156804],[101.718423,3.150639],[101.719953,3.142884]]}},{"type":"Feature","properties":{"route_company":"Rapid Rail","route_id":"12","element_type":"way","color":"#ffcc00","route_name":"Laluan Putrajaya (Putrajaya Sentral → Kwasa Damansara)","osm_id":"11313577","railway":"subway","status":"open"},"geometry":{"type":"LineString","coordinates":[[101.719953,3.142884],[101.716563,3.128329],[101.694102,3.08959],[101.699544,3.077724],[101.708403,3.063845],[101.704935,3.041711],[101.707509,3.028476],[101.708944,3.021537],[101.705392,3.008508],[101.672593,2.989351],[101.660579,2.983111],[101.654866,2.96525],[101.657498,2.949225],[101.665664,2.938894],[101.671466,2.931388]]}},{"type":"Feature","properties":{"route_company":"Rapid Rail","route_id":"9","element_type":"way","color":"#008000","route_name":"加影線（正向）","osm_id":"5690837","railway":"subway","status":"open"},"geometry":{"type":"LineString","coordinates":[[101.572397,3.176369],[101.564843,3.169871],[101.578693,3.150203],[101.593656,3.149652],[101.608736,3.155199],[101.618763,3.146705],[101.630788,3.13607],[101.642919,3.129236],[101.662339,3.143285],[101.66533,3.150953],[101.687368,3.137121],[101.696363,3.142399],[101.702239,3.142118],[101.711239,3.146289]]}},{"type":"Feature","properties":{"route_company":"Rapid Rail","route_id":"9","element_type":"way","color":"#008000","route_name":"加影線（正向）","osm_id":"5690837","railway":"subway","status":"open"},"geometry":{"type":"LineString","coordinates":[[101.711239,3.146289],[101.719953,3.142884]]}},{"type":"Feature","properties":{"route_company":"Rapid Rail","route_id":"9","element_type":"way","color":"#008000","route_name":"加影線（正向）","osm_id":"5690837","railway":"subway","status":"open"},"geometry":{"type":"LineString","coordinates":[[101.719953,3.142884],[101.723085,3.132366],[101.727194,3.124644],[101.72932,3.112644],[101.732271,3.104356],[101.740316,3.091386],[101.74514,3.079191],[101.763497,3.071602],[101.772978,3.062174],[101.775016,3.048375],[101.773368,3.041335],[101.771106,3.02644],[101.784103,3.000813],[101.786234,2.9941],[101.790321,2.983144]]}},{"type":"Feature","properties":{"route_company":"Rapid KL","route_id":"MR","element_type":"way","color":"#7dba00","route_name":"Laluan Monorel KL (KL Sentral → Titiwangsa)","osm_id":"2546881","railway":"monorail","status":"open"},"geometry":{"type":"LineString","coordinates":[[101.687898,3.132682],[101.690875,3.131447],[101.699189,3.138935],[101.706034,3.140678],[101.709449,3.142796],[101.711239,3.146289]]}},{"type":"Feature","properties":{"route_company":"Rapid KL","route_id":"MR","element_type":"way","color":"#7dba00","route_name":"Laluan Monorel KL (KL Sentral → Titiwangsa)","osm_id":"2546881","railway":"monorail","status":"open"},"geometry":{"type":"LineString","coordinates":[[101.711239,3.146289],[101.710432,3.150834],[101.704842,3.156145],[101.6989,3.159267],[101.698402,3.167393],[101.696182,3.173928]]}}]}